%  GPST                      x-ecef(m)      y-ecef(m)      z-ecef(m)   Q  ns   sdx(m)   sdy(m)   sdz(m)  sdxy(m)  sdyz(m)  sdzx(m) age(s)  ratio
2019/01/08 05:50:49.000  -2418225.8577   5386095.0894   2404944.4920         0.0006         0.0000         0.0000         0.0000     0.0000     0.0000   5  17   2.3992   4.1859   2.3170  -2.2539   2.2700  -1.0189   0.00    0.0
2019/01/08 05:50:50.000  -2418227.0656   5386097.1140   2404945.7744         0.0006         0.0000         0.0000         0.0000     0.0000     0.0000   5  17   2.3994   4.1859   2.3169  -2.2540   2.2699  -1.0189   0.00    0.0
2019/01/08 05:50:51.000  -2418226.2100   5386095.7842   2404945.1525         0.0006         0.0000         0.0000         0.0000     0.0000     0.0000   5  17   2.3995   4.1858   2.3169  -2.2541   2.2699  -1.0189   0.00    0.0
2019/01/08 05:50:52.000  -2418225.7565   5386094.9695   2404944.6850         0.0006         0.0000         0.0000         0.0000     0.0000     0.0000   5  17   2.3996   4.1858   2.3168  -2.2542   2.2698  -1.0189   0.00    0.0
2019/01/08 05:50:53.000  -2418226.2187   5386095.7289   2404945.4156         0.0006         0.0000         0.0000         0.0000     0.0000     0.0000   5  17   2.3997   4.1857   2.3167  -2.2543   2.2698  -1.0189   0.00    0.0
2019/01/08 05:50:54.000  -2418226.2886   5386096.1349   2404945.7212         0.0006         0.0000         0.0000         0.0000     0.0000     0.0000   5  17   2.3998   4.1857   2.3167  -2.2544   2.2697  -1.0189   0.00    0.0
2019/01/08 05:50:55.000  -2418226.1497   5386095.8933   2404945.3023         0.0006         0.0000         0.0000         0.0000     0.0000     0.0000   5  17   2.4000   4.1856   2.3166  -2.2545   2.2697  -1.0189   0.00    0.0
2019/01/08 05:50:56.000  -2418225.7368   5386095.6531   2404945.0796         0.0006         0.0000         0.0000         0.0000     0.0000     0.0000   5  17   2.4001   4.1856   2.3166  -2.2546   2.2696  -1.0189   0.00    0.0
2019/01/08 05:50:57.000  -2418226.3321   5386097.1109   2404945.6973         0.0006         0.0000         0.0000         0.0000     0.0000     0.0000   5  17   2.4002   4.1855   2.3165  -2.2546   2.2696  -1.0189   0.00    0.0
2019/01/08 05:50:58.000  -2418227.1250   5386097.8453   2404944.6775         0.0006         0.0000         0.0000         0.0000     0.0000     0.0000   5  18   2.2501   4.1423   2.2809  -2.1407   2.3223  -1.1731   0.00    0.0
2019/01/08 05:50:59.000  -2418228.2964   5386099.3778   2404945.0209         0.0006         0.0000         0.0000         0.0000     0.0000     0.0000   5  18   2.2503   4.1423   2.2808  -2.1408   2.3223  -1.1732   0.00    0.0
2019/01/08 05:51:00.000  -2418227.1083   5386099.0302   2404944.5584         0.0006         0.0000         0.0000         0.0000     0.0000     0.0000   5  17   2.5747   4.2856   2.3326  -2.4411   2.4352  -1.4101   0.00    0.0
2019/01/08 05:51:01.000  -2418226.9290   5386099.8120   2404944.8843         0.0006         0.0000         0.0000         0.0000     0.0000     0.0000   5  17   2.5749   4.2856   2.3325  -2.4413   2.4352  -1.4101   0.00    0.0
2019/01/08 05:51:02.000  -2418225.2881   5386097.6181   2404943.0858         0.0006         0.0000         0.0000         0.0000     0.0000     0.0000   5  17   2.5752   4.2857   2.3324  -2.4415   2.4352  -1.4102   0.00    0.0
2019/01/08 05:51:03.000  -2418226.3458   5386099.4764   2404943.8707         0.0006         0.0000         0.0000         0.0000     0.0000     0.0000   5  18   2.2509   4.1422   2.2805  -2.1414   2.3221  -1.1733   0.00    0.0
2019/01/08 05:51:04.000  -2418227.0157   5386102.8676   2404946.8496         0.0006         0.0000         0.0000         0.0000     0.0000     0.0000   5  18   2.2510   4.1421   2.2804  -2.1415   2.3220  -1.1733   0.00    0.0
2019/01/08 05:51:05.000  -2418226.4064   5386101.6066   2404945.5335         0.0006         0.0000         0.0000         0.0000     0.0000     0.0000   5  18   2.2512   4.1421   2.2803  -2.1416   2.3220  -1.1733   0.00    0.0
2019/01/08 05:51:06.000  -2418225.1676   5386099.8348   2404944.2213         0.0006         0.0000         0.0000         0.0000     0.0000     0.0000   5  18   2.2514   4.1421   2.2802  -2.1418   2.3219  -1.1734   0.00    0.0
2019/01/08 05:51:07.000  -2418223.5797   5386098.3779   2404942.6766         0.0006         0.0000         0.0000         0.0000     0.0000     0.0000   5  18   2.2515   4.1421   2.2802  -2.1419   2.3219  -1.1734   0.00    0.0
2019/01/08 05:51:08.000  -2418223.6780   5386099.3950   2404943.2228         0.0006         0.0000         0.0000         0.0000     0.0000     0.0000   5  18   2.2517   4.1420   2.2801  -2.1421   2.3218  -1.1734   0.00    0.0
2019/01/08 05:51:09.000  -2418222.5874   5386100.1009   2404942.0249         0.0006         0.0000         0.0000         0.0000     0.0000     0.0000   5  18   2.2518   4.1420   2.2800  -2.1422   2.3218  -1.1734   0.00    0.0
2019/01/08 05:51:10.000  -2418223.0014   5386097.7663   2404941.6662         0.0006         0.0000         0.0000         0.0000     0.0000     0.0000   5  18   2.2520   4.1420   2.2799  -2.1423   2.3217  -1.1735   0.00    0.0
2019/01/08 05:51:11.000  -2418223.5133   5386102.5822   2404944.1807         0.0006         0.0000         0.0000         0.0000     0.0000     0.0000   5  18   2.2521   4.1419   2.2799  -2.1425   2.3217  -1.1735   0.00    0.0
2019/01/08 05:51:12.000  -2418223.7500   5386103.8284   2404944.8147         0.0006         0.0000         0.0000         0.0000     0.0000     0.0000   5  18   2.2523   4.1419   2.2798  -2.1426   2.3216  -1.1735   0.00    0.0
2019/01/08 05:51:13.000  -2418222.6317   5386101.7326   2404942.8643         0.0006         0.0000         0.0000         0.0000     0.0000     0.0000   5  17   2.5778   4.2860   2.3317  -2.4439   2.4350  -1.4111   0.00    0.0
2019/01/08 05:51:14.000  -2418220.4505   5386100.1271   2404941.4148         0.0006         0.0000         0.0000         0.0000     0.0000     0.0000   5  17   2.5780   4.2860   2.3316  -2.4441   2.4350  -1.4111   0.00    0.0
2019/01/08 05:51:15.000  -2418224.6274   5386104.6025   2404942.8581         0.0006         0.0000         0.0000         0.0000     0.0000     0.0000   5  18   2.2528   4.1418   2.2795  -2.1430   2.3214  -1.1736   0.00    0.0
2019/01/08 05:51:16.000  -2418221.4521   5386100.7193   2404939.7099         0.0006         0.0000         0.0000         0.0000     0.0000     0.0000   5  18   2.2529   4.1418   2.2795  -2.1431   2.3214  -1.1736   0.00    0.0
2019/01/08 05:51:17.000  -2418220.3950   5386099.7255   2404938.0714         0.0006         0.0000         0.0000         0.0000     0.0000     0.0000   5  18   2.2531   4.1418   2.2794  -2.1433   2.3213  -1.1737   0.00    0.0
2019/01/08 05:51:18.000  -2418222.2050   5386104.2366   2404941.3093         0.0006         0.0000         0.0000         0.0000     0.0000     0.0000   5  18   2.2532   4.1417   2.2793  -2.1434   2.3213  -1.1737   0.00    0.0
2019/01/08 05:51:19.000  -2418221.5717   5386104.0027   2404941.3122         0.0006         0.0000         0.0000         0.0000     0.0000     0.0000   5  18   2.2534   4.1417   2.2792  -2.1435   2.3212  -1.1737   0.00    0.0
2019/01/08 05:51:20.000  -2418220.2834   5386101.7737   2404938.7958         0.0006         0.0000         0.0000         0.0000     0.0000     0.0000   5  18   2.2535   4.1417   2.2792  -2.1437   2.3212  -1.1737   0.00    0.0
2019/01/08 05:51:21.000  -2418221.2770   5386103.5960   2404939.6507         0.0006         0.0000         0.0000         0.0000     0.0000     0.0000   5  18   2.2537   4.1417   2.2791  -2.1438   2.3211  -1.1738   0.00    0.0
2019/01/08 05:51:22.000  -2418220.3276   5386102.5530   2404938.4951         0.0006         0.0000         0.0000         0.0000     0.0000     0.0000   5  18   2.2539   4.1416   2.2790  -2.1439   2.3211  -1.1738   0.00    0.0
2019/01/08 05:51:23.000  -2418220.8495   5386104.6774   2404940.2549         0.0006         0.0000         0.0000         0.0000     0.0000     0.0000   5  18   2.2540   4.1416   2.2789  -2.1441   2.3210  -1.1738   0.00    0.0
2019/01/08 05:51:24.000  -2418220.9713   5386105.0622   2404939.6856         0.0006         0.0000         0.0000         0.0000     0.0000     0.0000   5  18   2.2542   4.1416   2.2788  -2.1442   2.3210  -1.1739   0.00    0.0
2019/01/08 05:51:25.000  -2418220.5729   5386105.1190   2404939.4138         0.0006         0.0000         0.0000         0.0000     0.0000     0.0000   5  18   2.2543   4.1416   2.2788  -2.1444   2.3209  -1.1739   0.00    0.0
2019/01/08 05:51:26.000  -2418220.4645   5386105.4549   2404939.1236         0.0006         0.0000         0.0000         0.0000     0.0000     0.0000   5  18   2.2545   4.1415   2.2787  -2.1445   2.3209  -1.1739   0.00    0.0
2019/01/08 05:51:27.000  -2418220.4131   5386106.3292   2404939.1313         0.0006         0.0000         0.0000         0.0000     0.0000     0.0000   5  18   2.2546   4.1415   2.2786  -2.1446   2.3208  -1.1739   0.00    0.0
2019/01/08 05:51:28.000  -2418219.2167   5386105.7056   2404938.2622         0.0006         0.0000         0.0000         0.0000     0.0000     0.0000   5  17   2.5814   4.2864   2.3307  -2.4472   2.4347  -1.4122   0.00    0.0
2019/01/08 05:51:29.000  -2418217.8448   5386103.4892   2404936.2798         0.0006         0.0000         0.0000         0.0000     0.0000     0.0000   5  15   2.7171   4.7469   2.4847  -2.2701   2.7581  -1.3579   0.00    0.0
2019/01/08 05:51:30.000  -2418216.4614   5386108.3544   2404938.2341         0.0006         0.0000         0.0000         0.0000     0.0000     0.0000   5  18   2.2551   4.1414   2.2784  -2.1450   2.3207  -1.1740   0.00    0.0
2019/01/08 05:51:31.000  -2418217.5606   5386107.0072   2404937.0151         0.0006         0.0000         0.0000         0.0000     0.0000     0.0000   5  18   2.2553   4.1414   2.2783  -2.1452   2.3206  -1.1741   0.00    0.0
2019/01/08 05:51:32.000  -2418217.3532   5386107.4106   2404937.6171         0.0006         0.0000         0.0000         0.0000     0.0000     0.0000   5  18   2.2554   4.1414   2.2782  -2.1453   2.3206  -1.1741   0.00    0.0
2019/01/08 05:51:33.000  -2418216.9386   5386106.6878   2404936.5012         0.0006         0.0000         0.0000         0.0000     0.0000     0.0000   5  18   2.2556   4.1413   2.2781  -2.1454   2.3205  -1.1741   0.00    0.0
2019/01/08 05:51:34.000  -2418216.4048   5386108.0742   2404936.6729         0.0006         0.0000         0.0000         0.0000     0.0000     0.0000   5  17   2.3029   4.1680   2.2785  -2.0941   2.3161  -1.1827   0.00    0.0
2019/01/08 05:51:35.000  -2418216.4044   5386107.6834   2404936.4706         0.0006         0.0000         0.0000         0.0000     0.0000     0.0000   5  16   2.5999   4.7371   2.4809  -2.3238   2.7648  -1.3206   0.00    0.0
2019/01/08 05:51:36.000  -2418217.0606   5386112.3136   2404937.8856         0.0006         0.0000         0.0000         0.0000     0.0000     0.0000   5  16   2.6991   4.2920   2.3359  -2.4143   2.4273  -1.4574   0.00    0.0
2019/01/08 05:51:37.000  -2418215.3517   5386105.0080   2404933.3705         0.0006         0.0000         0.0000         0.0000     0.0000     0.0000   5  17   2.5835   4.2866   2.3301  -2.4492   2.4346  -1.4130   0.00    0.0
2019/01/08 05:51:38.000  -2418215.9621   5386106.8184   2404935.4766         0.0006         0.0000         0.0000         0.0000     0.0000     0.0000   5  18   2.2564   4.1412   2.2777  -2.1461   2.3202  -1.1742   0.00    0.0
2019/01/08 05:51:39.000  -2418215.8087   5386105.2345   2404933.7200         0.0006         0.0000         0.0000         0.0000     0.0000     0.0000   5  18   2.2565   4.1412   2.2777  -2.1463   2.3202  -1.1743   0.00    0.0
2019/01/08 05:51:40.000  -2418220.5003   5386112.0675   2404936.5147         0.0006         0.0000         0.0000         0.0000     0.0000     0.0000   5  18   2.2567   4.1411   2.2776  -2.1464   2.3201  -1.1743   0.00    0.0
2019/01/08 05:51:41.000  -2418217.9615   5386108.3894   2404934.1909         0.0006         0.0000         0.0000         0.0000     0.0000     0.0000   5  18   2.2569   4.1411   2.2775  -2.1465   2.3201  -1.1743   0.00    0.0
2019/01/08 05:51:42.000  -2418215.9852   5386107.6034   2404933.5856         0.0006         0.0000         0.0000         0.0000     0.0000     0.0000   5  18   2.2570   4.1411   2.2774  -2.1467   2.3200  -1.1744   0.00    0.0
2019/01/08 05:51:43.000  -2418215.3245   5386108.3387   2404933.8633         0.0006         0.0000         0.0000         0.0000     0.0000     0.0000   5  18   2.2572   4.1411   2.2774  -2.1468   2.3200  -1.1744   0.00    0.0
2019/01/08 05:51:44.000  -2418215.0394   5386108.0760   2404933.2460         0.0006         0.0000         0.0000         0.0000     0.0000     0.0000   5  18   2.2573   4.1410   2.2773  -2.1469   2.3199  -1.1744   0.00    0.0
