%  GPST                      x-ecef(m)      y-ecef(m)      z-ecef(m)   Q  ns   sdx(m)   sdy(m)   sdz(m)  sdxy(m)  sdyz(m)  sdzx(m) age(s)  ratio
2019/01/08 05:50:49.000  -2418165.6493   5386089.9479   2405071.2555         0.0007         0.0000         0.0000         0.0000     0.0000     0.0000   5  13   3.5625   5.4544   3.7700  -3.6778   3.8785  -2.8105   0.00    0.0
2019/01/08 05:50:50.000  -2418163.6073   5386088.8781   2405070.9019         0.0007         0.0000         0.0000         0.0000     0.0000     0.0000   5  13   3.5629   5.4545   3.7702  -3.6782   3.8788  -2.8108   0.00    0.0
2019/01/08 05:50:51.000  -2418167.3617   5386100.7725   2405075.6913         0.0007         0.0000         0.0000        -0.0000     0.0000     0.0000   5  13   3.5634   5.4547   3.7704  -3.6786   3.8790  -2.8111   0.00    0.0
2019/01/08 05:50:52.000  -2418161.9086   5386092.0640   2405071.4539         0.0007         0.0000         0.0000         0.0000     0.0000     0.0000   5  13   3.5638   5.4548   3.7706  -3.6790   3.8792  -2.8115   0.00    0.0
2019/01/08 05:50:53.000  -2418153.2484   5386085.5875   2405064.9209         0.0007         0.0000         0.0000         0.0000     0.0000     0.0000   5  12   4.3114   5.6176   4.2052  -4.0980   4.1890  -3.5244   0.00    0.0
2019/01/08 05:50:54.000  -2418153.1524   5386081.5589   2405064.0200         0.0007         0.0000         0.0000         0.0000     0.0000     0.0000   5  12   4.3119   5.6178   4.2053  -4.0984   4.1892  -3.5247   0.00    0.0
2019/01/08 05:50:55.000  -2418163.4353   5386088.7126   2405073.1229         0.0007         0.0000         0.0000        -0.0000     0.0000     0.0000   5  13   3.5652   5.4553   3.7712  -3.6802   3.8799  -2.8125   0.00    0.0
2019/01/08 05:50:56.000  -2418161.8758   5386085.3639   2405068.2785         0.0007         0.0000         0.0000         0.0000     0.0000     0.0000   5  13   3.5656   5.4554   3.7714  -3.6806   3.8801  -2.8128   0.00    0.0
2019/01/08 05:50:57.000  -2418166.4483   5386092.0667   2405078.0217         0.0007         0.0000         0.0000        -0.0000     0.0000     0.0000   5  13   3.5661   5.4556   3.7716  -3.6810   3.8803  -2.8131   0.00    0.0
2019/01/08 05:50:59.000  -2418152.6731   5386089.9298   2405071.0762         0.0007         0.0000         0.0000         0.0000     0.0000     0.0000   5  12   4.3146   5.6186   4.2057  -4.1005   4.1901  -3.5260   0.00    0.0
2019/01/08 05:51:04.000  -2418149.0778   5386097.1093   2405071.3493         0.0007         0.0000         0.0000         0.0000     0.0000     0.0000   5  12   4.3172   5.6194   4.2061  -4.1026   4.1910  -3.5274   0.00    0.0
2019/01/08 05:51:05.000  -2418150.6916   5386097.6701   2405071.7647         0.0007         0.0000         0.0000         0.0000     0.0000     0.0000   5  11   5.2807   6.0005   5.2663  -4.8199   4.9227  -4.6988   0.00    0.0
2019/01/08 05:51:06.000  -2418152.8897   5386099.7411   2405075.0146         0.0007         0.0000         0.0000         0.0000     0.0000     0.0000   5  10   5.6540   6.0139   5.7480  -4.9030   5.0151  -5.1702   0.00    0.0
2019/01/08 05:51:07.000  -2418149.5436   5386081.1562   2405073.6001         0.0007         0.0000         0.0000         0.0000     0.0000     0.0000   5   9   5.6551   6.9546   5.7681  -4.8857   5.1801  -5.1683   0.00    0.0
2019/01/08 05:51:08.000  -2418150.4939   5386083.6747   2405074.2656         0.0007         0.0000         0.0000         0.0000     0.0000     0.0000   5   9   5.6559   6.9552   5.7683  -4.8868   5.1808  -5.1688   0.00    0.0
2019/01/08 05:51:09.000  -2418148.1526   5386083.1811   2405072.2741         0.0007         0.0000         0.0000         0.0000     0.0000     0.0000   5   9   5.6568   6.9558   5.7685  -4.8879   5.1815  -5.1693   0.00    0.0
2019/01/08 05:51:10.000  -2418155.9066   5386122.4489   2405089.2630         0.0007         0.0000         0.0000         0.0000     0.0000     0.0000   5   8   6.0808   9.0874   6.9374  -6.2270   6.7028  -5.8690   0.00    0.0
2019/01/08 05:51:11.000  -2418145.9882   5386073.1459   2405071.1572         0.0007         0.0000         0.0000         0.0000     0.0000     0.0000   5   8   5.7041   8.5219   5.7889  -5.2401   4.9491  -5.1366   0.00    0.0
2019/01/08 05:51:12.000  -2418147.3168   5386084.4778   2405076.5293         0.0007         0.0000         0.0000         0.0000     0.0000     0.0000   5   8   5.7049   8.5222   5.7891  -5.2408   4.9492  -5.1371   0.00    0.0
2019/01/08 05:51:13.000  -2418150.0900   5386101.3079   2405082.8822         0.0007         0.0000         0.0000         0.0000     0.0000     0.0000   5   9   5.7032   7.0546   5.7803  -5.1639   4.7901  -5.1322   0.00    0.0
2019/01/08 05:51:14.000  -2418146.2289   5386069.9662   2405076.8286         0.0007         0.0000         0.0000         0.0000     0.0000     0.0000   5   8   5.7064   8.5227   5.7897  -5.2423   4.9495  -5.1380   0.00    0.0
2019/01/08 05:51:15.000  -2418140.8091   5386061.8267   2405073.2424         0.0007         0.0000         0.0000         0.0000     0.0000     0.0000   5   8   5.7072   8.5229   5.7899  -5.2431   4.9496  -5.1384   0.00    0.0
2019/01/08 05:51:16.000  -2418144.2992   5386063.6147   2405079.9047         0.0007         0.0000         0.0000         0.0000     0.0000     0.0000   5   8   5.7072   7.7917   5.8162  -4.6338   4.9324  -5.2231   0.00    0.0
2019/01/08 05:51:17.000  -2418147.2831   5386071.5539   2405083.9407         0.0007         0.0000         0.0000        -0.0000     0.0000     0.0000   5   8   5.7080   7.7923   5.8162  -4.6353   4.9336  -5.2235   0.00    0.0
2019/01/08 05:51:18.000  -2418143.0279   5386071.0499   2405080.2671         0.0007         0.0000         0.0000         0.0000     0.0000     0.0000   5   8   5.7087   7.7929   5.8162  -4.6368   4.9347  -5.2238   0.00    0.0
2019/01/08 05:51:19.000  -2418135.6714   5386049.9278   2405072.4901         0.0007         0.0000         0.0000         0.0000     0.0000     0.0000   5   7   6.0917  11.1120   7.5739  -6.1916   7.9240  -6.1316   0.00    0.0
2019/01/08 05:51:20.000  -2418141.2402   5386072.8614   2405080.7207         0.0007         0.0000         0.0000         0.0000     0.0000     0.0000   5   8   5.7102   7.7942   5.8162  -4.6397   4.9371  -5.2246   0.00    0.0
2019/01/08 05:51:21.000  -2418143.6989   5386118.1798   2405078.5268         0.0007         0.0000         0.0000         0.0000     0.0000     0.0000   5   8   5.7161   8.2688   5.9621  -5.0463   4.0815  -5.1754   0.00    0.0
2019/01/08 05:51:22.000  -2418141.4606   5386119.9897   2405077.0946         0.0007         0.0000         0.0000         0.0000     0.0000     0.0000   5   8   5.7169   8.2684   5.9624  -5.0465   4.0812  -5.1758   0.00    0.0
2019/01/08 05:51:23.000  -2418141.6855   5386119.3272   2405078.9744         0.0007         0.0000         0.0000         0.0000     0.0000     0.0000   5   8   5.7176   8.2679   5.9627  -5.0466   4.0809  -5.1763   0.00    0.0
2019/01/08 05:51:24.000  -2418141.4870   5386103.9238   2405080.7439         0.0007         0.0000         0.0000         0.0000     0.0000     0.0000   5   8   5.7184   8.2675   5.9630  -5.0468   4.0806  -5.1767   0.00    0.0
2019/01/08 05:51:25.000  -2418142.8887   5386104.2663   2405082.0208         0.0007         0.0000         0.0000         0.0000     0.0000     0.0000   5   8   5.7191   8.2671   5.9633  -5.0470   4.0803  -5.1772   0.00    0.0
2019/01/08 05:51:26.000  -2418139.1081   5386105.3805   2405079.1524         0.0007         0.0000         0.0000         0.0000     0.0000     0.0000   5   8   5.7199   8.2667   5.9636  -5.0471   4.0800  -5.1776   0.00    0.0
2019/01/08 05:51:27.000  -2418140.9732   5386072.7427   2405088.3123         0.0007         0.0000         0.0000         0.0000     0.0000     0.0000   5   7   5.8218   7.7998   6.4929  -4.6333   4.9042  -5.5247   0.00    0.0
2019/01/08 05:51:28.000  -2418147.0786   5386130.9137   2405099.9703         0.0007         0.0000         0.0000         0.0000     0.0000     0.0000   5   8   5.7214   8.2658   5.9642  -5.0474   4.0794  -5.1785   0.00    0.0
2019/01/08 05:51:29.000  -2418143.4414   5386130.9977   2405092.3850         0.0007         0.0000         0.0000         0.0000     0.0000     0.0000   5   7   6.1032   9.9459   7.1214  -6.1009   6.1777  -5.9229   0.00    0.0
2019/01/08 05:51:30.000  -2418138.7583   5386113.1147   2405083.6982         0.0007         0.0000         0.0000         0.0000     0.0000     0.0000   5   8   5.7229   8.2650   5.9649  -5.0478   4.0788  -5.1794   0.00    0.0
2019/01/08 05:51:31.000  -2418142.7959   5386127.9583   2405093.9464         0.0007         0.0000         0.0000         0.0000     0.0000     0.0000   5   7   6.1044   9.9437   7.1215  -6.1005   6.1760  -5.9233   0.00    0.0
2019/01/08 05:51:32.000  -2418135.9991   5386107.5493   2405081.4040         0.0007         0.0000         0.0000         0.0000     0.0000     0.0000   5   8   5.7244   8.2641   5.9655  -5.0481   4.0782  -5.1803   0.00    0.0
2019/01/08 05:51:33.000  -2418134.7259   5386109.5847   2405081.9175         0.0007         0.0000         0.0000         0.0000     0.0000     0.0000   5   8   5.7252   8.2637   5.9658  -5.0483   4.0779  -5.1808   0.00    0.0
2019/01/08 05:51:34.000  -2418134.9606   5386061.0008   2405091.6577         0.0007         0.0000         0.0000        -0.0000     0.0000     0.0000   5   8   5.7204   7.8030   5.8165  -4.6604   4.9534  -5.2296   0.00    0.0
2019/01/08 05:51:35.000  -2418136.4849   5386115.8536   2405086.2514         0.0007         0.0000         0.0000         0.0000     0.0000     0.0000   5   8   5.7267   8.2628   5.9664  -5.0486   4.0773  -5.1817   0.00    0.0
2019/01/08 05:51:36.000  -2418132.9198   5386063.3293   2405090.1729         0.0007         0.0000         0.0000        -0.0000     0.0000     0.0000   5   8   5.7219   7.8043   5.8165  -4.6634   4.9557  -5.2304   0.00    0.0
2019/01/08 05:51:37.000  -2418136.0118   5386117.2693   2405086.4540         0.0007         0.0000         0.0000         0.0000     0.0000     0.0000   5   8   5.7282   8.2620   5.9670  -5.0489   4.0767  -5.1826   0.00    0.0
2019/01/08 05:51:38.000  -2418135.4963   5386116.0583   2405087.9119         0.0007         0.0000         0.0000         0.0000     0.0000     0.0000   5   8   5.7290   8.2616   5.9673  -5.0491   4.0764  -5.1830   0.00    0.0
2019/01/08 05:51:39.000  -2418130.2564   5386112.0549   2405086.3113         0.0007         0.0000         0.0000         0.0000     0.0000     0.0000   5   8   5.7298   8.2611   5.9677  -5.0492   4.0761  -5.1835   0.00    0.0
2019/01/08 05:51:40.000  -2418128.1706   5386111.6856   2405084.4133         0.0007         0.0000         0.0000         0.0000     0.0000     0.0000   5   8   5.7305   8.2607   5.9680  -5.0494   4.0758  -5.1839   0.00    0.0
2019/01/08 05:51:41.000  -2418127.9927   5386108.9305   2405085.9617         0.0007         0.0000         0.0000         0.0000     0.0000     0.0000   5   8   5.7313   8.2603   5.9683  -5.0496   4.0755  -5.1844   0.00    0.0
2019/01/08 05:51:42.000  -2418135.4776   5386129.2786   2405099.2060         0.0007         0.0000         0.0000         0.0000     0.0000     0.0000   5   7   6.1111   9.9317   7.1218  -6.0979   6.1672  -5.9257   0.00    0.0
2019/01/08 05:51:43.000  -2418128.5699   5386112.7410   2405086.0986         0.0007         0.0000         0.0000         0.0000     0.0000     0.0000   5   8   5.7328   8.2595   5.9689  -5.0499   4.0749  -5.1853   0.00    0.0
2019/01/08 05:51:44.000  -2418137.2875   5386134.0259   2405104.2600         0.0007         0.0000         0.0000         0.0000     0.0000     0.0000   5   7   6.1123   9.9295   7.1218  -6.0974   6.1656  -5.9261   0.00    0.0
