%  GPST                      x-ecef(m)      y-ecef(m)      z-ecef(m)   Q  ns   sdx(m)   sdy(m)   sdz(m)  sdxy(m)  sdyz(m)  sdzx(m) age(s)  ratio
2019/01/08 05:50:49.000  -2418137.7710   5386114.2297   2405020.2250         0.0001         0.0000         0.0000         0.0000     0.0000     0.0000   5   9   6.5876   7.0633   4.8502  -5.4956   5.2450  -4.3346   0.00    0.0
2019/01/08 05:50:55.000  -2418109.1353   5386118.0676   2405042.3539         0.0001         0.0000         0.0000         0.0000     0.0000     0.0000   5   9   7.3346   6.6905   5.4167  -6.1031   4.5314  -3.2864   0.00    0.0
2019/01/08 05:50:56.000  -2418117.9473   5386110.8816   2405029.3374         0.0001         0.0000         0.0000         0.0000     0.0000     0.0000   5   9   7.3342   6.6900   5.4159  -6.1026   4.5310  -3.2863   0.00    0.0
2019/01/08 05:50:59.000  -2418117.3687   5386115.7514   2405029.2424         0.0001         0.0000         0.0000         0.0000     0.0000     0.0000   5   8   7.6181   7.0834   5.8268  -5.6930   5.0545  -2.5193   0.00    0.0
2019/01/08 05:51:00.000  -2418111.6087   5386113.5684   2405028.7410         0.0001         0.0000         0.0000         0.0000     0.0000     0.0000   5   8   7.6179   7.0829   5.8261  -5.6923   5.0541  -2.5190   0.00    0.0
2019/01/08 05:51:03.000  -2418108.7882   5386122.5464   2405031.1426         0.0001         0.0000         0.0000         0.0000     0.0000     0.0000   5   9   7.3316   6.6865   5.4103  -6.0991   4.5286  -3.2853   0.00    0.0
2019/01/08 05:51:06.000  -2418119.0028   5386128.6024   2405025.1994         0.0001         0.0000         0.0000         0.0000     0.0000     0.0000   5   8   7.6164   7.0799   5.8214  -5.6887   5.0521  -2.5171   0.00    0.0
2019/01/08 05:51:07.000  -2418125.4396   5386136.8801   2405027.3186         0.0001         0.0000         0.0000         0.0000     0.0000     0.0000   5   8   7.6161   7.0794   5.8206  -5.6881   5.0517  -2.5168   0.00    0.0
2019/01/08 05:51:08.000  -2418129.6676   5386149.5197   2405024.0825         0.0001         0.0000         0.0000         0.0000     0.0000     0.0000   5   8   7.6159   7.0789   5.8199  -5.6875   5.0514  -2.5164   0.00    0.0
2019/01/08 05:51:10.000  -2418099.4254   5386120.2751   2405026.3194         0.0001         0.0000         0.0000         0.0000     0.0000     0.0000   5   9   7.3290   6.6830   5.4047  -6.0956   4.5262  -3.2844   0.00    0.0
2019/01/08 05:51:11.000  -2418105.5948   5386116.3886   2405020.9970         0.0001         0.0000         0.0000         0.0000     0.0000     0.0000   5   9   7.3286   6.6825   5.4039  -6.0951   4.5259  -3.2842   0.00    0.0
2019/01/08 05:51:12.000  -2418103.9944   5386117.6516   2405021.4555         0.0001         0.0000         0.0000         0.0000     0.0000     0.0000   5   9   7.3282   6.6820   5.4031  -6.0946   4.5255  -3.2841   0.00    0.0
2019/01/08 05:51:15.000  -2418104.2253   5386117.3532   2405018.7618         0.0001         0.0000         0.0000         0.0000     0.0000     0.0000   5   9   7.3271   6.6805   5.4007  -6.0931   4.5245  -3.2837   0.00    0.0
2019/01/08 05:51:16.000  -2418106.2082   5386120.3471   2405018.0101         0.0001         0.0000         0.0000         0.0000     0.0000     0.0000   5   9   7.3267   6.6800   5.3999  -6.0926   4.5242  -3.2836   0.00    0.0
2019/01/08 05:51:17.000  -2418108.7421   5386123.9628   2405016.9732         0.0001         0.0000         0.0000         0.0000     0.0000     0.0000   5   9   7.3263   6.6795   5.3991  -6.0921   4.5238  -3.2834   0.00    0.0
2019/01/08 05:51:20.000  -2418109.7345   5386129.4869   2405015.7509         0.0001         0.0000         0.0000         0.0000     0.0000     0.0000   5   9   7.3252   6.6780   5.3967  -6.0906   4.5228  -3.2830   0.00    0.0
2019/01/08 05:51:21.000  -2418100.2759   5386119.9568   2405015.1038         0.0001         0.0000         0.0000         0.0000     0.0000     0.0000   5   9   7.3248   6.6775   5.3959  -6.0902   4.5225  -3.2829   0.00    0.0
2019/01/08 05:51:22.000  -2418098.9418   5386119.6482   2405015.5698         0.0001         0.0000         0.0000         0.0000     0.0000     0.0000   5   9   7.3244   6.6770   5.3951  -6.0897   4.5222  -3.2828   0.00    0.0
2019/01/08 05:51:23.000  -2418100.3078   5386122.5103   2405014.8223         0.0001         0.0000         0.0000         0.0000     0.0000     0.0000   5   9   7.3241   6.6765   5.3943  -6.0892   4.5218  -3.2826   0.00    0.0
2019/01/08 05:51:24.000  -2418106.8762   5386131.0740   2405013.4332         0.0001         0.0000         0.0000         0.0000     0.0000     0.0000   5   9   7.3237   6.6760   5.3935  -6.0887   4.5215  -3.2825   0.00    0.0
2019/01/08 05:51:25.000  -2418097.2776   5386122.2319   2405013.5913         0.0001         0.0000         0.0000         0.0000     0.0000     0.0000   5   9   7.3233   6.6755   5.3927  -6.0882   4.5211  -3.2824   0.00    0.0
2019/01/08 05:51:29.000  -2418101.5456   5386130.3173   2405013.5945         0.0001         0.0000         0.0000         0.0000     0.0000     0.0000   5   9   7.3218   6.6735   5.3896  -6.0862   4.5198  -3.2818   0.00    0.0
2019/01/08 05:51:30.000  -2418099.2355   5386127.9865   2405013.4960         0.0001         0.0000         0.0000         0.0000     0.0000     0.0000   5   9   7.3214   6.6730   5.3888  -6.0857   4.5194  -3.2817   0.00    0.0
2019/01/08 05:51:31.000  -2418104.4140   5386134.2992   2405012.7944         0.0001         0.0000         0.0000         0.0000     0.0000     0.0000   5   9   7.3210   6.6725   5.3880  -6.0852   4.5191  -3.2816   0.00    0.0
2019/01/08 05:51:32.000  -2418123.4862   5386148.7860   2405016.7543         0.0001         0.0000         0.0000         0.0000     0.0000     0.0000   5   9   7.3207   6.6720   5.3872  -6.0847   4.5188  -3.2815   0.00    0.0
2019/01/08 05:51:34.000  -2418108.5122   5386140.0116   2405031.4228         0.0001         0.0000         0.0000        -0.0000     0.0000     0.0000   5   9   7.3199   6.6711   5.3856  -6.0837   4.5181  -3.2812   0.00    0.0
2019/01/08 05:51:39.000  -2418087.8902   5386131.9796   2405000.6941         0.0001         0.0000         0.0000         0.0000     0.0000     0.0000   5  10   5.1035   6.0363   5.3583  -4.7027   4.3566  -2.8526   0.00    0.0
2019/01/08 05:51:40.000  -2418087.1843   5386128.1188   2405000.6608         0.0001         0.0000         0.0000         0.0000     0.0000     0.0000   5  10   5.1033   6.0359   5.3575  -4.7024   4.3562  -2.8523   0.00    0.0
2019/01/08 05:51:41.000  -2418088.9999   5386134.7609   2405001.6194         0.0001         0.0000         0.0000         0.0000     0.0000     0.0000   5   9   5.1936   6.6788   5.7942  -4.3988   5.0289  -2.4501   0.00    0.0
