%  GPST                      x-ecef(m)      y-ecef(m)      z-ecef(m)   Q  ns   sdx(m)   sdy(m)   sdz(m)  sdxy(m)  sdyz(m)  sdzx(m) age(s)  ratio
2019/01/08 05:50:51.000  -2418161.1304   5386121.5148   2404956.1458         0.0030         0.0000         0.0000         0.0000     0.0000     0.0000   5  12   4.5421   4.4440   3.0465  -3.0187   2.0096   2.0048   0.00    0.0
2019/01/08 05:50:54.000  -2418159.0143   5386124.8032   2404956.0956         0.0030         0.0000         0.0000         0.0000     0.0000     0.0000   5  12   4.5424   4.4438   3.0464  -3.0186   2.0100   2.0048   0.00    0.0
2019/01/08 05:50:55.000  -2418158.7972   5386125.9672   2404954.5389         0.0030         0.0000         0.0000         0.0000     0.0000     0.0000   5  12   4.5425   4.4438   3.0464  -3.0186   2.0101   2.0048   0.00    0.0
2019/01/08 05:50:56.000  -2418158.0902   5386126.7279   2404953.5253         0.0030         0.0000         0.0000         0.0000     0.0000     0.0000   5  12   4.5425   4.4437   3.0463  -3.0185   2.0102   2.0048   0.00    0.0
2019/01/08 05:50:57.000  -2418155.3444   5386125.6583   2404952.1776         0.0030         0.0000         0.0000         0.0000     0.0000     0.0000   5  12   4.5426   4.4437   3.0463  -3.0185   2.0104   2.0048   0.00    0.0
2019/01/08 05:50:58.000  -2418153.4139   5386126.5799   2404952.4210         0.0030         0.0000         0.0000         0.0000     0.0000     0.0000   5  12   4.5427   4.4436   3.0463  -3.0185   2.0105   2.0048   0.00    0.0
2019/01/08 05:50:59.000  -2418151.6269   5386125.5771   2404951.3151         0.0030         0.0000         0.0000         0.0000     0.0000     0.0000   5  12   4.5428   4.4435   3.0462  -3.0184   2.0106   2.0048   0.00    0.0
2019/01/08 05:51:00.000  -2418150.9898   5386125.9421   2404950.3462         0.0030         0.0000         0.0000         0.0000     0.0000     0.0000   5  12   4.5429   4.4435   3.0462  -3.0184   2.0108   2.0048   0.00    0.0
2019/01/08 05:51:01.000  -2418152.4182   5386129.7402   2404948.3595         0.0030         0.0000         0.0000         0.0000     0.0000     0.0000   5  12   4.5430   4.4434   3.0461  -3.0183   2.0109   2.0047   0.00    0.0
2019/01/08 05:51:02.000  -2418151.0911   5386129.7478   2404945.5565         0.0030         0.0000         0.0000         0.0000     0.0000     0.0000   5  12   4.5431   4.4434   3.0461  -3.0183   2.0110   2.0047   0.00    0.0
2019/01/08 05:51:03.000  -2418151.3105   5386130.5536   2404946.1495         0.0030         0.0000         0.0000         0.0000     0.0000     0.0000   5  12   4.5432   4.4433   3.0461  -3.0183   2.0112   2.0047   0.00    0.0
2019/01/08 05:51:04.000  -2418147.1656   5386130.2731   2404946.2016         0.0030         0.0000         0.0000         0.0000     0.0000     0.0000   5  12   4.5433   4.4432   3.0460  -3.0182   2.0113   2.0047   0.00    0.0
2019/01/08 05:51:05.000  -2418151.6521   5386135.0263   2404942.6554         0.0030         0.0000         0.0000         0.0000     0.0000     0.0000   5  12   4.5434   4.4432   3.0460  -3.0182   2.0114   2.0047   0.00    0.0
2019/01/08 05:51:06.000  -2418146.9958   5386133.2974   2404942.8148         0.0030         0.0000         0.0000         0.0000     0.0000     0.0000   5  12   4.5435   4.4431   3.0460  -3.0181   2.0115   2.0047   0.00    0.0
2019/01/08 05:51:07.000  -2418151.8746   5386137.4324   2404942.3851         0.0030         0.0000         0.0000         0.0000     0.0000     0.0000   5  12   4.5435   4.4430   3.0459  -3.0181   2.0117   2.0047   0.00    0.0
2019/01/08 05:51:08.000  -2418151.9772   5386139.2001   2404940.3322         0.0030         0.0000         0.0000         0.0000     0.0000     0.0000   5  12   4.5436   4.4430   3.0459  -3.0181   2.0118   2.0047   0.00    0.0
2019/01/08 05:51:09.000  -2418152.7001   5386141.8979   2404942.4560         0.0030         0.0000         0.0000         0.0000     0.0000     0.0000   5  12   4.5437   4.4429   3.0459  -3.0180   2.0119   2.0047   0.00    0.0
2019/01/08 05:51:10.000  -2418146.9897   5386138.9394   2404940.1611         0.0030         0.0000         0.0000         0.0000     0.0000     0.0000   5  12   4.5438   4.4429   3.0458  -3.0180   2.0121   2.0046   0.00    0.0
2019/01/08 05:51:11.000  -2418148.3285   5386142.0634   2404941.1312         0.0030         0.0000         0.0000         0.0000     0.0000     0.0000   5  12   4.5439   4.4428   3.0458  -3.0180   2.0122   2.0046   0.00    0.0
2019/01/08 05:51:12.000  -2418148.7822   5386144.4790   2404941.1746         0.0030         0.0000         0.0000         0.0000     0.0000     0.0000   5  12   4.5440   4.4428   3.0457  -3.0179   2.0123   2.0046   0.00    0.0
2019/01/08 05:51:13.000  -2418151.8820   5386148.0515   2404940.3842         0.0030         0.0000         0.0000         0.0000     0.0000     0.0000   5  11   5.0228   4.8349   3.3264  -3.6318   2.5693   1.0753   0.00    0.0
2019/01/08 05:51:14.000  -2418147.9725   5386147.6809   2404939.1208         0.0030         0.0000         0.0000         0.0000     0.0000     0.0000   5  12   4.5442   4.4426   3.0457  -3.0178   2.0126   2.0046   0.00    0.0
2019/01/08 05:51:15.000  -2418150.0601   5386149.5260   2404939.1526         0.0030         0.0000         0.0000         0.0000     0.0000     0.0000   5  11   5.0229   4.8344   3.3262  -3.6314   2.5691   1.0758   0.00    0.0
2019/01/08 05:51:16.000  -2418144.8898   5386146.8511   2404937.4885         0.0030         0.0000         0.0000         0.0000     0.0000     0.0000   5  12   4.5443   4.4425   3.0456  -3.0178   2.0129   2.0046   0.00    0.0
2019/01/08 05:51:17.000  -2418145.5858   5386148.4860   2404936.9467         0.0030         0.0000         0.0000         0.0000     0.0000     0.0000   5  12   4.5444   4.4425   3.0455  -3.0177   2.0130   2.0046   0.00    0.0
2019/01/08 05:51:18.000  -2418145.4788   5386148.7496   2404934.7808         0.0030         0.0000         0.0000         0.0000     0.0000     0.0000   5  10   5.7441   4.8489   3.4484  -3.7751   2.4998   1.9230   0.00    0.0
2019/01/08 05:51:19.000  -2418149.7309   5386154.8210   2404937.6013         0.0030         0.0000         0.0000         0.0000     0.0000     0.0000   5  12   4.5446   4.4423   3.0455  -3.0177   2.0133   2.0045   0.00    0.0
2019/01/08 05:51:20.000  -2418148.9040   5386155.1713   2404936.6028         0.0030         0.0000         0.0000         0.0000     0.0000     0.0000   5  12   4.5447   4.4423   3.0454  -3.0176   2.0134   2.0045   0.00    0.0
2019/01/08 05:51:21.000  -2418151.1043   5386158.3755   2404937.8957         0.0030         0.0000         0.0000         0.0000     0.0000     0.0000   5  11   4.5450   4.5780   3.0516  -3.0090   2.0663   2.0067   0.00    0.0
2019/01/08 05:51:22.000  -2418145.3526   5386155.2545   2404933.3337         0.0030         0.0000         0.0000         0.0000     0.0000     0.0000   5  10   5.0231   4.9632   3.3321  -3.6269   2.6146   1.0795   0.00    0.0
2019/01/08 05:51:23.000  -2418151.0089   5386161.8225   2404936.4205         0.0030         0.0000         0.0000         0.0000     0.0000     0.0000   5  12   4.5450   4.4421   3.0453  -3.0175   2.0138   2.0045   0.00    0.0
2019/01/08 05:51:24.000  -2418148.6280   5386162.3858   2404939.2676         0.0030         0.0000         0.0000         0.0000     0.0000     0.0000   5  10   5.4743   4.8681   4.3821  -2.2632   2.5433   3.6254   0.00    0.0
2019/01/08 05:51:25.000  -2418142.6392   5386159.1840   2404931.9059         0.0030         0.0000         0.0000         0.0000     0.0000     0.0000   5  12   4.1672   4.7935   3.3072  -3.3862   2.6083   0.4479   0.00    0.0
2019/01/08 05:51:26.000  -2418140.6250   5386163.2785   2404930.7836         0.0030         0.0000         0.0000         0.0000     0.0000     0.0000   5  12   4.1672   4.7932   3.3071  -3.3860   2.6082   0.4485   0.00    0.0
2019/01/08 05:51:27.000  -2418137.3618   5386152.5039   2404927.9439         0.0030         0.0000         0.0000         0.0000     0.0000     0.0000   5  12   4.1672   4.7930   3.3070  -3.3858   2.6081   0.4491   0.00    0.0
2019/01/08 05:51:28.000  -2418132.8127   5386157.8471   2404932.7151         0.0030         0.0000         0.0000        -0.0000     0.0000     0.0000   5  12   4.3405   4.4381   3.1231  -2.9633   2.0286   2.0833   0.00    0.0
2019/01/08 05:51:30.000  -2418138.9918   5386162.7022   2404917.6118         0.0030         0.0000         0.0000         0.0000     0.0000     0.0000   5  10   5.1517   4.8467   3.8505  -3.6898   2.4137   1.8404   0.00    0.0
2019/01/08 05:51:31.000  -2418131.5005   5386163.8288   2404925.4585         0.0030         0.0000         0.0000         0.0000     0.0000     0.0000   5  12   4.5457   4.4416   3.0450  -3.0172   2.0148   2.0043   0.00    0.0
2019/01/08 05:51:32.000  -2418129.3811   5386160.4647   2404918.7715         0.0030         0.0000         0.0000         0.0000     0.0000     0.0000   5  12   4.5458   4.4416   3.0450  -3.0172   2.0150   2.0043   0.00    0.0
2019/01/08 05:51:33.000  -2418125.3030   5386158.0834   2404919.6520         0.0030         0.0000         0.0000         0.0000     0.0000     0.0000   5  12   4.5458   4.4415   3.0449  -3.0172   2.0151   2.0043   0.00    0.0
2019/01/08 05:51:34.000  -2418125.8817   5386157.5238   2404915.9915         0.0030         0.0000         0.0000         0.0000     0.0000     0.0000   5  12   4.5459   4.4415   3.0449  -3.0171   2.0152   2.0043   0.00    0.0
2019/01/08 05:51:35.000  -2418126.4830   5386159.7725   2404916.0029         0.0030         0.0000         0.0000         0.0000     0.0000     0.0000   5  12   4.5460   4.4414   3.0449  -3.0171   2.0154   2.0042   0.00    0.0
2019/01/08 05:51:36.000  -2418121.5850   5386160.8836   2404913.3343         0.0030         0.0000         0.0000         0.0000     0.0000     0.0000   5  11   5.1717   4.8478   3.5526  -2.0765   2.7602   2.9206   0.00    0.0
2019/01/08 05:51:37.000  -2418124.8104   5386161.0786   2404915.7920         0.0030         0.0000         0.0000         0.0000     0.0000     0.0000   5  11   4.8602   4.4687   3.9411  -3.1547   1.6810   2.8840   0.00    0.0
2019/01/08 05:51:38.000  -2418117.0375   5386157.3083   2404920.4733         0.0030         0.0000         0.0000         0.0000     0.0000     0.0000   5  10   5.1509   4.8291   4.4962  -3.6159   2.6060   2.1493   0.00    0.0
2019/01/08 05:51:39.000  -2418131.5633   5386162.8816   2404912.7851         0.0030         0.0000         0.0000         0.0000     0.0000     0.0000   5  12   4.5464   4.4412   3.0447  -3.0169   2.0159   2.0042   0.00    0.0
