% ref pos   : -2414266.9231  5386768.9940  2407460.0342
%  GPST                      x-ecef(m)      y-ecef(m)      z-ecef(m)   Q  ns   sdx(m)   sdy(m)   sdz(m)  sdxy(m)  sdyz(m)  sdzx(m) age(s)  ratio
2023/05/16 09:00:00.000  -2429526.0115   5377816.8012   2412152.7314        -0.0000         0.0000         0.0000         0.0000     0.0000     0.0000   2  23   0.5218   0.8933   0.4059  -0.5760   0.4719  -0.3342   0.00    0.0
2023/05/16 09:00:01.000  -2429525.9804   5377816.7262   2412152.6816        -0.0000         0.0000         0.0000         0.0000     0.0000     0.0000   2  21   0.5443   0.9746   0.4729  -0.6263   0.5636  -0.3868   0.00    0.0
2023/05/16 09:00:02.000  -2429525.9844   5377816.7514   2412152.6906        -0.0000         0.0000         0.0000         0.0000     0.0000     0.0000   2  21   0.5444   0.9749   0.4729  -0.6265   0.5638  -0.3869   0.00    0.0
2023/05/16 09:00:03.000  -2429526.0215   5377816.8490   2412152.7533        -0.0000         0.0000         0.0000         0.0000     0.0000     0.0000   2  22   0.5215   0.9075   0.4262  -0.5852   0.5003  -0.3503   0.00    0.0
2023/05/16 09:00:04.000  -2429526.0344   5377816.8920   2412152.7797        -0.0000         0.0000         0.0000         0.0000     0.0000     0.0000   2  22   0.5087   0.8773   0.4167  -0.5635   0.4809  -0.3370   0.00    0.0
2023/05/16 09:00:05.000  -2429526.0296   5377816.8780   2412152.7639        -0.0000         0.0000         0.0000         0.0000     0.0000     0.0000   2  22   0.4968   0.8469   0.4085  -0.5409   0.4610  -0.3235   0.00    0.0
2023/05/16 09:00:06.000  -2429526.0079   5377816.8450   2412152.7363        -0.0000         0.0000         0.0000         0.0000     0.0000     0.0000   2  22   0.4855   0.8176   0.4008  -0.5190   0.4417  -0.3105   0.00    0.0
2023/05/16 09:00:07.000  -2429526.0042   5377816.8155   2412152.7283        -0.0000         0.0000         0.0000         0.0000     0.0000     0.0000   2  22   0.4755   0.7912   0.3942  -0.4991   0.4244  -0.2987   0.00    0.0
2023/05/16 09:00:08.000  -2429525.9999   5377816.8011   2412152.7198        -0.0000         0.0000         0.0000         0.0000     0.0000     0.0000   2  22   0.4671   0.7691   0.3886  -0.4822   0.4098  -0.2888   0.00    0.0
2023/05/16 09:00:09.000  -2429525.9958   5377816.8109   2412152.7258        -0.0000         0.0000         0.0000         0.0000     0.0000     0.0000   2  22   0.4607   0.7519   0.3844  -0.4691   0.3983  -0.2810   0.00    0.0
2023/05/16 09:00:10.000  -2429525.9935   5377816.8019   2412152.7224        -0.0000         0.0000         0.0000         0.0000     0.0000     0.0000   2  23   0.4519   0.7232   0.3628  -0.4492   0.3659  -0.2618   0.00    0.0
2023/05/16 09:00:11.000  -2429525.9799   5377816.7690   2412152.6937        -0.0000         0.0000         0.0000         0.0000     0.0000     0.0000   2  21   0.4547   0.7463   0.4011  -0.4600   0.4097  -0.2824   0.00    0.0
2023/05/16 09:00:12.000  -2429525.9620   5377816.7307   2412152.6847        -0.0000         0.0000         0.0000         0.0000     0.0000     0.0000   2  21   0.4582   0.7579   0.4064  -0.4681   0.4204  -0.2891   0.00    0.0
2023/05/16 09:00:13.000  -2429525.9617   5377816.7233   2412152.6810        -0.0000         0.0000         0.0000         0.0000     0.0000     0.0000   2  21   0.4597   0.7615   0.4069  -0.4710   0.4222  -0.2905   0.00    0.0
2023/05/16 09:00:14.000  -2429525.9440   5377816.7073   2412152.6774        -0.0000         0.0000         0.0000         0.0000     0.0000     0.0000   2  21   0.4599   0.7619   0.4070  -0.4713   0.4224  -0.2906   0.00    0.0
2023/05/16 09:00:15.000  -2429525.9624   5377816.7509   2412152.7142        -0.0000         0.0000         0.0000         0.0000     0.0000     0.0000   2  23   0.4515   0.7227   0.3632  -0.4486   0.3663  -0.2619   0.00    0.0
2023/05/16 09:00:16.000  -2429525.9541   5377816.7459   2412152.7043        -0.0000         0.0000         0.0000         0.0000     0.0000     0.0000   2  23   0.4467   0.7084   0.3585  -0.4379   0.3548  -0.2545   0.00    0.0
2023/05/16 09:00:17.000  -2429525.9756   5377816.7812   2412152.7309        -0.0000         0.0000         0.0000         0.0000     0.0000     0.0000   2  23   0.4453   0.7051   0.3582  -0.4352   0.3532  -0.2534   0.00    0.0
2023/05/16 09:00:18.000  -2429525.9716   5377816.7887   2412152.7353        -0.0000         0.0000         0.0000         0.0000     0.0000     0.0000   2  23   0.4453   0.7050   0.3582  -0.4351   0.3532  -0.2533   0.00    0.0
2023/05/16 09:00:19.000  -2429525.9759   5377816.7912   2412152.7432        -0.0000         0.0000         0.0000         0.0000     0.0000     0.0000   2  23   0.4453   0.7049   0.3582  -0.4351   0.3532  -0.2533   0.00    0.0
2023/05/16 09:00:20.000  -2429525.9719   5377816.8028   2412152.7413        -0.0000         0.0000         0.0000         0.0000     0.0000     0.0000   2  23   0.4451   0.7045   0.3581  -0.4348   0.3530  -0.2532   0.00    0.0
2023/05/16 09:00:21.000  -2429525.9737   5377816.7884   2412152.7133        -0.0000         0.0000         0.0000         0.0000     0.0000     0.0000   2  23   0.4450   0.7040   0.3580  -0.4344   0.3526  -0.2530   0.00    0.0
2023/05/16 09:00:22.000  -2429525.9515   5377816.7617   2412152.7049        -0.0000         0.0000         0.0000         0.0000     0.0000     0.0000   2  23   0.4448   0.7037   0.3579  -0.4341   0.3524  -0.2528   0.00    0.0
2023/05/16 09:00:23.000  -2429525.9277   5377816.7325   2412152.6931        -0.0000         0.0000         0.0000         0.0000     0.0000     0.0000   2  23   0.4448   0.7036   0.3579  -0.4340   0.3523  -0.2527   0.00    0.0
2023/05/16 09:00:24.000  -2429525.9098   5377816.7063   2412152.6664        -0.0000         0.0000         0.0000         0.0000     0.0000     0.0000   2  23   0.4448   0.7035   0.3578  -0.4340   0.3523  -0.2527   0.00    0.0
2023/05/16 09:00:25.000  -2429525.8971   5377816.6762   2412152.6478        -0.0000         0.0000         0.0000         0.0000     0.0000     0.0000   2  23   0.4448   0.7036   0.3578  -0.4340   0.3523  -0.2527   0.00    0.0
2023/05/16 09:00:26.000  -2429525.8770   5377816.6491   2412152.6413        -0.0000         0.0000         0.0000         0.0000     0.0000     0.0000   2  23   0.4448   0.7036   0.3578  -0.4340   0.3523  -0.2528   0.00    0.0
2023/05/16 09:00:27.000  -2429525.8633   5377816.6419   2412152.6337        -0.0000         0.0000         0.0000         0.0000     0.0000     0.0000   2  23   0.4448   0.7036   0.3578  -0.4340   0.3523  -0.2527   0.00    0.0
2023/05/16 09:00:28.000  -2429525.8546   5377816.6349   2412152.6299        -0.0000         0.0000         0.0000         0.0000     0.0000     0.0000   2  23   0.4448   0.7036   0.3578  -0.4340   0.3523  -0.2527   0.00    0.0
2023/05/16 09:00:29.000  -2429525.8596   5377816.6254   2412152.6230        -0.0000         0.0000         0.0000         0.0000     0.0000     0.0000   2  23   0.4448   0.7036   0.3578  -0.4340   0.3523  -0.2527   0.00    0.0
2023/05/16 09:00:30.000  -2429525.8440   5377816.5993   2412152.6047        -0.0000         0.0000         0.0000         0.0000     0.0000     0.0000   2  23   0.4448   0.7036   0.3578  -0.4340   0.3523  -0.2527   0.00    0.0
2023/05/16 09:00:31.000  -2429525.8360   5377816.6003   2412152.6048        -0.0000         0.0000         0.0000         0.0000     0.0000     0.0000   2  23   0.4448   0.7036   0.3578  -0.4340   0.3523  -0.2527   0.00    0.0
2023/05/16 09:00:32.000  -2429525.8330   5377816.6043   2412152.6058        -0.0000         0.0000         0.0000         0.0000     0.0000     0.0000   2  23   0.4448   0.7036   0.3578  -0.4341   0.3523  -0.2527   0.00    0.0
2023/05/16 09:00:33.000  -2429525.8335   5377816.6025   2412152.6021        -0.0000         0.0000         0.0000         0.0000     0.0000     0.0000   2  23   0.4448   0.7036   0.3578  -0.4341   0.3524  -0.2527   0.00    0.0
2023/05/16 09:00:34.000  -2429525.8269   5377816.5931   2412152.5881        -0.0000         0.0000         0.0000         0.0000     0.0000     0.0000   2  23   0.4449   0.7036   0.3578  -0.4341   0.3524  -0.2527   0.00    0.0
2023/05/16 09:00:35.000  -2429525.8098   5377816.5867   2412152.5889        -0.0000         0.0000         0.0000         0.0000     0.0000     0.0000   2  23   0.4449   0.7036   0.3578  -0.4341   0.3524  -0.2528   0.00    0.0
2023/05/16 09:00:36.000  -2429525.7990   5377816.5897   2412152.5758        -0.0000         0.0000         0.0000         0.0000     0.0000     0.0000   2  23   0.4449   0.7036   0.3578  -0.4341   0.3524  -0.2528   0.00    0.0
2023/05/16 09:00:37.000  -2429525.7929   5377816.5898   2412152.5689        -0.0000         0.0000         0.0000         0.0000     0.0000     0.0000   2  23   0.4449   0.7036   0.3578  -0.4341   0.3524  -0.2528   0.00    0.0
2023/05/16 09:00:38.000  -2429525.7863   5377816.5664   2412152.5567        -0.0000         0.0000         0.0000         0.0000     0.0000     0.0000   2  23   0.4449   0.7036   0.3578  -0.4341   0.3524  -0.2528   0.00    0.0
2023/05/16 09:00:39.000  -2429525.7732   5377816.5519   2412152.5468        -0.0000         0.0000         0.0000         0.0000     0.0000     0.0000   2  23   0.4449   0.7037   0.3578  -0.4341   0.3524  -0.2528   0.00    0.0
2023/05/16 09:00:40.000  -2429525.7679   5377816.5385   2412152.5454        -0.0000         0.0000         0.0000         0.0000     0.0000     0.0000   2  23   0.4449   0.7037   0.3577  -0.4342   0.3524  -0.2528   0.00    0.0
2023/05/16 09:00:41.000  -2429525.7569   5377816.5337   2412152.5398        -0.0000         0.0000         0.0000         0.0000     0.0000     0.0000   2  23   0.4449   0.7037   0.3577  -0.4342   0.3524  -0.2528   0.00    0.0
2023/05/16 09:00:42.000  -2429525.7609   5377816.5227   2412152.5315        -0.0000         0.0000         0.0000         0.0000     0.0000     0.0000   2  23   0.4449   0.7037   0.3577  -0.4342   0.3524  -0.2528   0.00    0.0
2023/05/16 09:00:43.000  -2429525.7491   5377816.5257   2412152.5337        -0.0000         0.0000         0.0000         0.0000     0.0000     0.0000   2  23   0.4449   0.7037   0.3577  -0.4342   0.3524  -0.2528   0.00    0.0
2023/05/16 09:00:44.000  -2429525.7457   5377816.5264   2412152.5249        -0.0000         0.0000         0.0000         0.0000     0.0000     0.0000   2  23   0.4449   0.7037   0.3577  -0.4342   0.3524  -0.2528   0.00    0.0
2023/05/16 09:00:45.000  -2429525.7428   5377816.5290   2412152.5262        -0.0000         0.0000         0.0000         0.0000     0.0000     0.0000   2  23   0.4449   0.7037   0.3577  -0.4342   0.3525  -0.2528   0.00    0.0
2023/05/16 09:00:46.000  -2429525.7413   5377816.5134   2412152.5220        -0.0000         0.0000         0.0000         0.0000     0.0000     0.0000   2  23   0.4449   0.7037   0.3577  -0.4342   0.3525  -0.2528   0.00    0.0
2023/05/16 09:00:47.000  -2429525.7346   5377816.5170   2412152.5210        -0.0000         0.0000         0.0000         0.0000     0.0000     0.0000   2  23   0.4450   0.7038   0.3577  -0.4342   0.3525  -0.2528   0.00    0.0
2023/05/16 09:00:48.000  -2429525.7306   5377816.5276   2412152.5175        -0.0000         0.0000         0.0000         0.0000     0.0000     0.0000   2  23   0.4450   0.7038   0.3577  -0.4343   0.3525  -0.2528   0.00    0.0
2023/05/16 09:00:49.000  -2429525.7365   5377816.5305   2412152.5171        -0.0000         0.0000         0.0000         0.0000     0.0000     0.0000   2  23   0.4450   0.7038   0.3577  -0.4343   0.3525  -0.2528   0.00    0.0
2023/05/16 09:00:50.000  -2429525.7358   5377816.5407   2412152.5206        -0.0000         0.0000         0.0000         0.0000     0.0000     0.0000   2  23   0.4450   0.7038   0.3577  -0.4343   0.3525  -0.2528   0.00    0.0
2023/05/16 09:00:51.000  -2429525.7311   5377816.5505   2412152.5261        -0.0000         0.0000         0.0000         0.0000     0.0000     0.0000   2  23   0.4450   0.7038   0.3577  -0.4343   0.3525  -0.2528   0.00    0.0
2023/05/16 09:00:52.000  -2429525.7329   5377816.5646   2412152.5268        -0.0000         0.0000         0.0000         0.0000     0.0000     0.0000   2  23   0.4450   0.7038   0.3577  -0.4343   0.3525  -0.2528   0.00    0.0
2023/05/16 09:00:53.000  -2429525.7304   5377816.5625   2412152.5304        -0.0000         0.0000         0.0000         0.0000     0.0000     0.0000   2  23   0.4450   0.7038   0.3577  -0.4343   0.3525  -0.2528   0.00    0.0
2023/05/16 09:00:54.000  -2429525.7279   5377816.5636   2412152.5314        -0.0000         0.0000         0.0000         0.0000     0.0000     0.0000   2  23   0.4450   0.7038   0.3577  -0.4343   0.3525  -0.2528   0.00    0.0
2023/05/16 09:00:55.000  -2429525.7262   5377816.5651   2412152.5247        -0.0000         0.0000         0.0000         0.0000     0.0000     0.0000   2  23   0.4450   0.7039   0.3577  -0.4343   0.3525  -0.2528   0.00    0.0
2023/05/16 09:00:56.000  -2429525.7184   5377816.5710   2412152.5318        -0.0000         0.0000         0.0000         0.0000     0.0000     0.0000   2  23   0.4450   0.7039   0.3577  -0.4343   0.3525  -0.2528   0.00    0.0
2023/05/16 09:00:57.000  -2429525.7171   5377816.5745   2412152.5377        -0.0000         0.0000         0.0000         0.0000     0.0000     0.0000   2  23   0.4450   0.7039   0.3577  -0.4344   0.3526  -0.2528   0.00    0.0
2023/05/16 09:00:58.000  -2429525.7175   5377816.5760   2412152.5404        -0.0000         0.0000         0.0000         0.0000     0.0000     0.0000   2  23   0.4450   0.7039   0.3577  -0.4344   0.3526  -0.2529   0.00    0.0
2023/05/16 09:00:59.000  -2429525.7086   5377816.5740   2412152.5349        -0.0000         0.0000         0.0000         0.0000     0.0000     0.0000   2  23   0.4451   0.7039   0.3576  -0.4344   0.3526  -0.2529   0.00    0.0
2023/05/16 09:01:00.000  -2429525.7050   5377816.5696   2412152.5418        -0.0000         0.0000         0.0000         0.0000     0.0000     0.0000   2  23   0.4451   0.7039   0.3576  -0.4344   0.3526  -0.2529   0.00    0.0
2023/05/16 09:01:01.000  -2429525.7085   5377816.5746   2412152.5361        -0.0000         0.0000         0.0000         0.0000     0.0000     0.0000   2  23   0.4451   0.7039   0.3576  -0.4344   0.3526  -0.2529   0.00    0.0
2023/05/16 09:01:02.000  -2429525.7107   5377816.5733   2412152.5384        -0.0000         0.0000         0.0000         0.0000     0.0000     0.0000   2  23   0.4451   0.7039   0.3576  -0.4344   0.3526  -0.2529   0.00    0.0
2023/05/16 09:01:03.000  -2429525.7034   5377816.5830   2412152.5450        -0.0000         0.0000         0.0000         0.0000     0.0000     0.0000   2  23   0.4451   0.7040   0.3576  -0.4344   0.3526  -0.2529   0.00    0.0
2023/05/16 09:01:04.000  -2429525.7084   5377816.5916   2412152.5414        -0.0000         0.0000         0.0000         0.0000     0.0000     0.0000   2  23   0.4451   0.7040   0.3576  -0.4344   0.3526  -0.2529   0.00    0.0
2023/05/16 09:01:05.000  -2429525.7086   5377816.5945   2412152.5570        -0.0000         0.0000         0.0000         0.0000     0.0000     0.0000   2  23   0.4451   0.7040   0.3576  -0.4345   0.3526  -0.2529   0.00    0.0
2023/05/16 09:01:06.000  -2429525.7098   5377816.6034   2412152.5603        -0.0000         0.0000         0.0000         0.0000     0.0000     0.0000   2  23   0.4451   0.7040   0.3576  -0.4345   0.3526  -0.2529   0.00    0.0
2023/05/16 09:01:07.000  -2429525.7117   5377816.6059   2412152.5620        -0.0000         0.0000         0.0000         0.0000     0.0000     0.0000   2  23   0.4451   0.7040   0.3576  -0.4345   0.3526  -0.2529   0.00    0.0
2023/05/16 09:01:08.000  -2429525.7047   5377816.6062   2412152.5711        -0.0000         0.0000         0.0000         0.0000     0.0000     0.0000   2  23   0.4451   0.7040   0.3576  -0.4345   0.3526  -0.2529   0.00    0.0
2023/05/16 09:01:09.000  -2429525.7058   5377816.6233   2412152.5783        -0.0000         0.0000         0.0000         0.0000     0.0000     0.0000   2  23   0.4451   0.7040   0.3576  -0.4345   0.3527  -0.2529   0.00    0.0
2023/05/16 09:01:10.000  -2429525.7065   5377816.6190   2412152.5796        -0.0000         0.0000         0.0000         0.0000     0.0000     0.0000   2  23   0.4451   0.7040   0.3576  -0.4345   0.3527  -0.2529   0.00    0.0
2023/05/16 09:01:11.000  -2429525.7178   5377816.6229   2412152.5784        -0.0000         0.0000         0.0000         0.0000     0.0000     0.0000   2  23   0.4452   0.7041   0.3576  -0.4345   0.3527  -0.2529   0.00    0.0
2023/05/16 09:01:12.000  -2429525.7102   5377816.6207   2412152.5811        -0.0000         0.0000         0.0000         0.0000     0.0000     0.0000   2  23   0.4452   0.7041   0.3576  -0.4345   0.3527  -0.2529   0.00    0.0
2023/05/16 09:01:13.000  -2429525.7099   5377816.6254   2412152.5850        -0.0000         0.0000         0.0000         0.0000     0.0000     0.0000   2  23   0.4452   0.7041   0.3576  -0.4346   0.3527  -0.2529   0.00    0.0
2023/05/16 09:01:14.000  -2429525.7007   5377816.6219   2412152.5825        -0.0000         0.0000         0.0000         0.0000     0.0000     0.0000   2  23   0.4452   0.7041   0.3576  -0.4346   0.3527  -0.2529   0.00    0.0
2023/05/16 09:01:15.000  -2429525.7023   5377816.6090   2412152.5779        -0.0000         0.0000         0.0000         0.0000     0.0000     0.0000   2  23   0.4452   0.7041   0.3576  -0.4346   0.3527  -0.2529   0.00    0.0
2023/05/16 09:01:16.000  -2429525.6985   5377816.5883   2412152.5854        -0.0000         0.0000         0.0000         0.0000     0.0000     0.0000   2  23   0.4452   0.7041   0.3576  -0.4346   0.3527  -0.2529   0.00    0.0
2023/05/16 09:01:17.000  -2429525.6984   5377816.5810   2412152.5878        -0.0000         0.0000         0.0000         0.0000     0.0000     0.0000   2  23   0.4452   0.7041   0.3576  -0.4346   0.3527  -0.2529   0.00    0.0
2023/05/16 09:01:18.000  -2429525.6964   5377816.5845   2412152.5877        -0.0000         0.0000         0.0000         0.0000     0.0000     0.0000   2  23   0.4452   0.7041   0.3575  -0.4346   0.3527  -0.2529   0.00    0.0
2023/05/16 09:01:19.000  -2429525.6972   5377816.5834   2412152.5890        -0.0000         0.0000         0.0000         0.0000     0.0000     0.0000   2  23   0.4452   0.7041   0.3575  -0.4346   0.3527  -0.2529   0.00    0.0
2023/05/16 09:01:20.000  -2429525.6919   5377816.5667   2412152.5910        -0.0000         0.0000         0.0000         0.0000     0.0000     0.0000   2  23   0.4452   0.7042   0.3575  -0.4346   0.3527  -0.2529   0.00    0.0
2023/05/16 09:01:21.000  -2429525.6905   5377816.5604   2412152.5873        -0.0000         0.0000         0.0000         0.0000     0.0000     0.0000   2  23   0.4452   0.7042   0.3575  -0.4346   0.3528  -0.2529   0.00    0.0
2023/05/16 09:01:22.000  -2429525.6865   5377816.5430   2412152.5861        -0.0000         0.0000         0.0000         0.0000     0.0000     0.0000   2  23   0.4452   0.7042   0.3575  -0.4347   0.3528  -0.2530   0.00    0.0
2023/05/16 09:01:23.000  -2429525.6879   5377816.5362   2412152.5863        -0.0000         0.0000         0.0000         0.0000     0.0000     0.0000   2  23   0.4452   0.7042   0.3575  -0.4347   0.3528  -0.2530   0.00    0.0
2023/05/16 09:01:24.000  -2429525.6859   5377816.5369   2412152.5890        -0.0000         0.0000         0.0000         0.0000     0.0000     0.0000   2  23   0.4453   0.7042   0.3575  -0.4347   0.3528  -0.2530   0.00    0.0
2023/05/16 09:01:25.000  -2429525.6788   5377816.5190   2412152.5879        -0.0000         0.0000         0.0000         0.0000     0.0000     0.0000   2  23   0.4453   0.7042   0.3575  -0.4347   0.3528  -0.2530   0.00    0.0
2023/05/16 09:01:26.000  -2429525.6761   5377816.5043   2412152.5855        -0.0000         0.0000         0.0000         0.0000     0.0000     0.0000   2  23   0.4453   0.7042   0.3575  -0.4347   0.3528  -0.2530   0.00    0.0
2023/05/16 09:01:27.000  -2429525.6699   5377816.4793   2412152.5817        -0.0000         0.0000         0.0000         0.0000     0.0000     0.0000   2  23   0.4453   0.7042   0.3575  -0.4347   0.3528  -0.2530   0.00    0.0
2023/05/16 09:01:28.000  -2429525.6690   5377816.4667   2412152.5639        -0.0000         0.0000         0.0000         0.0000     0.0000     0.0000   2  23   0.4453   0.7043   0.3575  -0.4347   0.3528  -0.2530   0.00    0.0
2023/05/16 09:01:29.000  -2429525.6647   5377816.4581   2412152.5684        -0.0000         0.0000         0.0000         0.0000     0.0000     0.0000   2  23   0.4453   0.7043   0.3575  -0.4347   0.3528  -0.2530   0.00    0.0
2023/05/16 09:01:30.000  -2429525.6535   5377816.4329   2412152.5647        -0.0000         0.0000         0.0000         0.0000     0.0000     0.0000   2  23   0.4453   0.7043   0.3575  -0.4347   0.3528  -0.2530   0.00    0.0
2023/05/16 09:01:31.000  -2429525.6562   5377816.4221   2412152.5613        -0.0000         0.0000         0.0000         0.0000     0.0000     0.0000   2  23   0.4453   0.7043   0.3575  -0.4348   0.3528  -0.2530   0.00    0.0
2023/05/16 09:01:32.000  -2429525.6521   5377816.4049   2412152.5536        -0.0000         0.0000         0.0000         0.0000     0.0000     0.0000   2  23   0.4453   0.7043   0.3575  -0.4348   0.3528  -0.2530   0.00    0.0
2023/05/16 09:01:33.000  -2429525.6468   5377816.4011   2412152.5559        -0.0000         0.0000         0.0000         0.0000     0.0000     0.0000   2  23   0.4453   0.7043   0.3575  -0.4348   0.3529  -0.2530   0.00    0.0
2023/05/16 09:01:34.000  -2429525.6423   5377816.3801   2412152.5487        -0.0000         0.0000         0.0000         0.0000     0.0000     0.0000   2  23   0.4453   0.7043   0.3575  -0.4348   0.3529  -0.2530   0.00    0.0
2023/05/16 09:01:35.000  -2429525.6403   5377816.3583   2412152.5429        -0.0000         0.0000         0.0000         0.0000     0.0000     0.0000   2  23   0.4453   0.7043   0.3575  -0.4348   0.3529  -0.2530   0.00    0.0
2023/05/16 09:01:36.000  -2429525.6352   5377816.3563   2412152.5386        -0.0000         0.0000         0.0000         0.0000     0.0000     0.0000   2  23   0.4454   0.7043   0.3575  -0.4348   0.3529  -0.2530   0.00    0.0
2023/05/16 09:01:37.000  -2429525.6396   5377816.3472   2412152.5344        -0.0000         0.0000         0.0000         0.0000     0.0000     0.0000   2  23   0.4454   0.7044   0.3575  -0.4348   0.3529  -0.2530   0.00    0.0
2023/05/16 09:01:38.000  -2429525.6351   5377816.3509   2412152.5296        -0.0000         0.0000         0.0000         0.0000     0.0000     0.0000   2  23   0.4454   0.7044   0.3574  -0.4348   0.3529  -0.2530   0.00    0.0
2023/05/16 09:01:39.000  -2429525.6459   5377816.3343   2412152.5339        -0.0000         0.0000         0.0000         0.0000     0.0000     0.0000   2  23   0.4454   0.7044   0.3574  -0.4349   0.3529  -0.2530   0.00    0.0
2023/05/16 09:01:40.000  -2429525.6467   5377816.3426   2412152.5343        -0.0000         0.0000         0.0000         0.0000     0.0000     0.0000   2  23   0.4454   0.7044   0.3574  -0.4349   0.3529  -0.2530   0.00    0.0
2023/05/16 09:01:41.000  -2429525.6430   5377816.3390   2412152.5404        -0.0000         0.0000         0.0000         0.0000     0.0000     0.0000   2  23   0.4454   0.7044   0.3574  -0.4349   0.3529  -0.2530   0.00    0.0
2023/05/16 09:01:42.000  -2429525.6472   5377816.3359   2412152.5285        -0.0000         0.0000         0.0000         0.0000     0.0000     0.0000   2  23   0.4454   0.7044   0.3574  -0.4349   0.3529  -0.2530   0.00    0.0
2023/05/16 09:01:43.000  -2429525.6457   5377816.3250   2412152.5243        -0.0000         0.0000         0.0000         0.0000     0.0000     0.0000   2  23   0.4454   0.7044   0.3574  -0.4349   0.3529  -0.2530   0.00    0.0
2023/05/16 09:01:44.000  -2429525.6424   5377816.3271   2412152.5178        -0.0000         0.0000         0.0000         0.0000     0.0000     0.0000   2  23   0.4454   0.7044   0.3574  -0.4349   0.3529  -0.2530   0.00    0.0
2023/05/16 09:01:45.000  -2429525.6414   5377816.3225   2412152.5157        -0.0000         0.0000         0.0000         0.0000     0.0000     0.0000   2  23   0.4454   0.7044   0.3574  -0.4349   0.3529  -0.2530   0.00    0.0
2023/05/16 09:01:46.000  -2429525.6477   5377816.3065   2412152.5153        -0.0000         0.0000         0.0000         0.0000     0.0000     0.0000   2  23   0.4454   0.7045   0.3574  -0.4349   0.3530  -0.2530   0.00    0.0
2023/05/16 09:01:47.000  -2429525.6460   5377816.3044   2412152.5150        -0.0000         0.0000         0.0000         0.0000     0.0000     0.0000   2  23   0.4454   0.7045   0.3574  -0.4349   0.3530  -0.2531   0.00    0.0
2023/05/16 09:01:48.000  -2429525.6499   5377816.3073   2412152.5094        -0.0000         0.0000         0.0000         0.0000     0.0000     0.0000   2  23   0.4454   0.7045   0.3574  -0.4350   0.3530  -0.2531   0.00    0.0
2023/05/16 09:01:49.000  -2429525.6610   5377816.3038   2412152.5127        -0.0000         0.0000         0.0000         0.0000     0.0000     0.0000   2  23   0.4455   0.7045   0.3574  -0.4350   0.3530  -0.2531   0.00    0.0
2023/05/16 09:01:50.000  -2429525.6525   5377816.2991   2412152.5150        -0.0000         0.0000         0.0000         0.0000     0.0000     0.0000   2  23   0.4455   0.7045   0.3574  -0.4350   0.3530  -0.2531   0.00    0.0
2023/05/16 09:01:51.000  -2429525.6523   5377816.2948   2412152.5113        -0.0000         0.0000         0.0000         0.0000     0.0000     0.0000   2  23   0.4455   0.7045   0.3574  -0.4350   0.3530  -0.2531   0.00    0.0
2023/05/16 09:01:52.000  -2429525.6447   5377816.2861   2412152.5107        -0.0000         0.0000         0.0000         0.0000     0.0000     0.0000   2  23   0.4455   0.7045   0.3574  -0.4350   0.3530  -0.2531   0.00    0.0
2023/05/16 09:01:53.000  -2429525.6457   5377816.2916   2412152.5068        -0.0000         0.0000         0.0000         0.0000     0.0000     0.0000   2  23   0.4455   0.7045   0.3574  -0.4350   0.3530  -0.2531   0.00    0.0
2023/05/16 09:01:54.000  -2429525.6537   5377816.2878   2412152.5049        -0.0000         0.0000         0.0000         0.0000     0.0000     0.0000   2  23   0.4455   0.7046   0.3574  -0.4350   0.3530  -0.2531   0.00    0.0
2023/05/16 09:01:55.000  -2429525.6458   5377816.2861   2412152.5077        -0.0000         0.0000         0.0000         0.0000     0.0000     0.0000   2  23   0.4455   0.7046   0.3574  -0.4350   0.3530  -0.2531   0.00    0.0
2023/05/16 09:01:56.000  -2429525.6474   5377816.3030   2412152.5133        -0.0000         0.0000         0.0000         0.0000     0.0000     0.0000   2  23   0.4455   0.7046   0.3574  -0.4350   0.3530  -0.2531   0.00    0.0
2023/05/16 09:01:57.000  -2429525.6583   5377816.3159   2412152.5216        -0.0000         0.0000         0.0000         0.0000     0.0000     0.0000   2  23   0.4455   0.7046   0.3574  -0.4351   0.3530  -0.2531   0.00    0.0
2023/05/16 09:01:58.000  -2429525.6709   5377816.3203   2412152.5276        -0.0000         0.0000         0.0000         0.0000     0.0000     0.0000   2  23   0.4455   0.7046   0.3573  -0.4351   0.3531  -0.2531   0.00    0.0
2023/05/16 09:01:59.000  -2429525.6676   5377816.3152   2412152.5305        -0.0000         0.0000         0.0000         0.0000     0.0000     0.0000   2  23   0.4455   0.7046   0.3573  -0.4351   0.3531  -0.2531   0.00    0.0
2023/05/16 09:02:00.000  -2429525.6718   5377816.3139   2412152.5264        -0.0000         0.0000         0.0000         0.0000     0.0000     0.0000   2  23   0.4455   0.7046   0.3573  -0.4351   0.3531  -0.2531   0.00    0.0
2023/05/16 09:02:01.000  -2429525.6631   5377816.2945   2412152.5254        -0.0000         0.0000         0.0000         0.0000     0.0000     0.0000   2  21   0.4524   0.7392   0.3985  -0.4547   0.4050  -0.2789   0.00    0.0
2023/05/16 09:02:02.000  -2429525.6802   5377816.3002   2412152.5188        -0.0000         0.0000         0.0000         0.0000     0.0000     0.0000   2  21   0.4578   0.7559   0.4049  -0.4667   0.4188  -0.2878   0.00    0.0
2023/05/16 09:02:03.000  -2429525.6806   5377816.2944   2412152.5146        -0.0000         0.0000         0.0000         0.0000     0.0000     0.0000   2  21   0.4598   0.7609   0.4058  -0.4707   0.4216  -0.2898   0.00    0.0
2023/05/16 09:02:04.000  -2429525.6926   5377816.3521   2412152.5643        -0.0000         0.0000         0.0000         0.0000     0.0000     0.0000   2  22   0.4563   0.7397   0.3811  -0.4598   0.3909  -0.2755   0.00    0.0
2023/05/16 09:02:05.000  -2429525.7287   5377816.4308   2412152.6169        -0.0000         0.0000         0.0000         0.0000     0.0000     0.0000   2  22   0.4535   0.7312   0.3781  -0.4536   0.3840  -0.2711   0.00    0.0
2023/05/16 09:02:06.000  -2429525.7579   5377816.4975   2412152.6333        -0.0000         0.0000         0.0000         0.0000     0.0000     0.0000   2  22   0.4527   0.7292   0.3779  -0.4520   0.3830  -0.2705   0.00    0.0
2023/05/16 09:02:07.000  -2429525.7788   5377816.5263   2412152.6401        -0.0000         0.0000         0.0000         0.0000     0.0000     0.0000   2  22   0.4528   0.7295   0.3780  -0.4522   0.3832  -0.2706   0.00    0.0
2023/05/16 09:02:08.000  -2429525.7763   5377816.5152   2412152.6376        -0.0000         0.0000         0.0000         0.0000     0.0000     0.0000   2  22   0.4529   0.7299   0.3781  -0.4525   0.3835  -0.2708   0.00    0.0
2023/05/16 09:02:09.000  -2429525.7707   5377816.5072   2412152.6523        -0.0000         0.0000         0.0000         0.0000     0.0000     0.0000   2  22   0.4529   0.7299   0.3781  -0.4525   0.3835  -0.2708   0.00    0.0
2023/05/16 09:02:10.000  -2429525.7706   5377816.4990   2412152.6451        -0.0000         0.0000         0.0000         0.0000     0.0000     0.0000   2  23   0.4489   0.7138   0.3598  -0.4422   0.3598  -0.2575   0.00    0.0
2023/05/16 09:02:11.000  -2429525.7432   5377816.4018   2412152.5654        -0.0000         0.0000         0.0000         0.0000     0.0000     0.0000   2  21   0.4536   0.7422   0.3990  -0.4571   0.4068  -0.2801   0.00    0.0
2023/05/16 09:02:12.000  -2429525.7188   5377816.3225   2412152.5364        -0.0000         0.0000         0.0000         0.0000     0.0000     0.0000   2  21   0.4582   0.7570   0.4051  -0.4675   0.4195  -0.2883   0.00    0.0
2023/05/16 09:02:13.000  -2429525.7159   5377816.2953   2412152.5434        -0.0000         0.0000         0.0000         0.0000     0.0000     0.0000   2  21   0.4601   0.7618   0.4059  -0.4713   0.4222  -0.2901   0.00    0.0
2023/05/16 09:02:14.000  -2429525.7164   5377816.2954   2412152.5430        -0.0000         0.0000         0.0000         0.0000     0.0000     0.0000   2  21   0.4604   0.7624   0.4061  -0.4719   0.4225  -0.2904   0.00    0.0
2023/05/16 09:02:15.000  -2429525.7723   5377816.4750   2412152.6832        -0.0000         0.0000         0.0000         0.0000     0.0000     0.0000   2  22   0.4566   0.7403   0.3812  -0.4603   0.3913  -0.2758   0.00    0.0
2023/05/16 09:02:16.000  -2429525.7731   5377816.4424   2412152.6075        -0.0000         0.0000         0.0000         0.0000     0.0000     0.0000   2  23   0.4498   0.7159   0.3599  -0.4439   0.3607  -0.2582   0.00    0.0
2023/05/16 09:02:17.000  -2429525.7879   5377816.4443   2412152.6163        -0.0000         0.0000         0.0000         0.0000     0.0000     0.0000   2  23   0.4468   0.7077   0.3577  -0.4376   0.3548  -0.2542   0.00    0.0
2023/05/16 09:02:18.000  -2429525.8163   5377816.5211   2412152.6762        -0.0000         0.0000         0.0000         0.0000     0.0000     0.0000   2  22   0.4500   0.7214   0.3754  -0.4461   0.3771  -0.2665   0.00    0.0
2023/05/16 09:02:19.000  -2429525.8371   5377816.5534   2412152.6826        -0.0000         0.0000         0.0000         0.0000     0.0000     0.0000   2  22   0.4523   0.7282   0.3778  -0.4512   0.3827  -0.2702   0.00    0.0
2023/05/16 09:02:20.000  -2429525.8402   5377816.5647   2412152.6906        -0.0000         0.0000         0.0000         0.0000     0.0000     0.0000   2  22   0.4530   0.7299   0.3780  -0.4525   0.3836  -0.2708   0.00    0.0
2023/05/16 09:02:21.000  -2429525.8483   5377816.5613   2412152.6899        -0.0000         0.0000         0.0000         0.0000     0.0000     0.0000   2  22   0.4529   0.7297   0.3779  -0.4523   0.3834  -0.2707   0.00    0.0
2023/05/16 09:02:22.000  -2429525.8280   5377816.5158   2412152.6675        -0.0000         0.0000         0.0000         0.0000     0.0000     0.0000   2  23   0.4488   0.7134   0.3596  -0.4419   0.3595  -0.2573   0.00    0.0
2023/05/16 09:02:23.000  -2429525.8170   5377816.4906   2412152.6541        -0.0000         0.0000         0.0000         0.0000     0.0000     0.0000   2  23   0.4465   0.7070   0.3575  -0.4370   0.3543  -0.2539   0.00    0.0
2023/05/16 09:02:24.000  -2429525.8036   5377816.4571   2412152.6423        -0.0000         0.0000         0.0000         0.0000     0.0000     0.0000   2  23   0.4460   0.7055   0.3573  -0.4358   0.3536  -0.2534   0.00    0.0
2023/05/16 09:02:25.000  -2429525.8028   5377816.4307   2412152.6252        -0.0000         0.0000         0.0000         0.0000     0.0000     0.0000   2  23   0.4460   0.7055   0.3573  -0.4359   0.3537  -0.2535   0.00    0.0
2023/05/16 09:02:26.000  -2429525.7819   5377816.4062   2412152.6160        -0.0000         0.0000         0.0000         0.0000     0.0000     0.0000   2  23   0.4460   0.7056   0.3574  -0.4359   0.3537  -0.2535   0.00    0.0
2023/05/16 09:02:27.000  -2429525.7747   5377816.3755   2412152.5996        -0.0000         0.0000         0.0000         0.0000     0.0000     0.0000   2  23   0.4459   0.7054   0.3573  -0.4358   0.3536  -0.2534   0.00    0.0
2023/05/16 09:02:28.000  -2429525.7661   5377816.3512   2412152.5809        -0.0000         0.0000         0.0000         0.0000     0.0000     0.0000   2  23   0.4459   0.7052   0.3573  -0.4356   0.3535  -0.2533   0.00    0.0
2023/05/16 09:02:29.000  -2429525.7670   5377816.3570   2412152.5863        -0.0000         0.0000         0.0000         0.0000     0.0000     0.0000   2  23   0.4458   0.7051   0.3572  -0.4355   0.3534  -0.2533   0.00    0.0
2023/05/16 09:02:30.000  -2429525.7807   5377816.3833   2412152.6038        -0.0000         0.0000         0.0000         0.0000     0.0000     0.0000   2  23   0.4458   0.7050   0.3572  -0.4354   0.3533  -0.2532   0.00    0.0
2023/05/16 09:02:31.000  -2429525.7960   5377816.3997   2412152.5995        -0.0000         0.0000         0.0000         0.0000     0.0000     0.0000   2  23   0.4458   0.7050   0.3572  -0.4354   0.3533  -0.2532   0.00    0.0
2023/05/16 09:02:32.000  -2429525.8011   5377816.4015   2412152.6035        -0.0000         0.0000         0.0000         0.0000     0.0000     0.0000   2  23   0.4458   0.7050   0.3572  -0.4355   0.3533  -0.2532   0.00    0.0
2023/05/16 09:02:33.000  -2429525.8079   5377816.4256   2412152.6120        -0.0000         0.0000         0.0000         0.0000     0.0000     0.0000   2  23   0.4458   0.7050   0.3572  -0.4355   0.3534  -0.2532   0.00    0.0
2023/05/16 09:02:34.000  -2429525.8184   5377816.4386   2412152.6203        -0.0000         0.0000         0.0000         0.0000     0.0000     0.0000   2  23   0.4458   0.7050   0.3572  -0.4355   0.3534  -0.2532   0.00    0.0
2023/05/16 09:02:35.000  -2429525.8201   5377816.4405   2412152.6134        -0.0000         0.0000         0.0000         0.0000     0.0000     0.0000   2  23   0.4458   0.7050   0.3572  -0.4355   0.3534  -0.2532   0.00    0.0
2023/05/16 09:02:36.000  -2429525.8240   5377816.4372   2412152.6227        -0.0000         0.0000         0.0000         0.0000     0.0000     0.0000   2  23   0.4458   0.7050   0.3572  -0.4355   0.3534  -0.2532   0.00    0.0
2023/05/16 09:02:37.000  -2429525.8276   5377816.4511   2412152.6231        -0.0000         0.0000         0.0000         0.0000     0.0000     0.0000   2  23   0.4458   0.7050   0.3572  -0.4355   0.3534  -0.2532   0.00    0.0
2023/05/16 09:02:38.000  -2429525.8368   5377816.4401   2412152.6211        -0.0000         0.0000         0.0000         0.0000     0.0000     0.0000   2  23   0.4458   0.7050   0.3572  -0.4355   0.3534  -0.2532   0.00    0.0
2023/05/16 09:02:39.000  -2429525.8278   5377816.4177   2412152.6170        -0.0000         0.0000         0.0000         0.0000     0.0000     0.0000   2  23   0.4458   0.7051   0.3571  -0.4355   0.3534  -0.2532   0.00    0.0
2023/05/16 09:02:40.000  -2429525.8197   5377816.4085   2412152.6120        -0.0000         0.0000         0.0000         0.0000     0.0000     0.0000   2  23   0.4458   0.7051   0.3571  -0.4355   0.3534  -0.2533   0.00    0.0
2023/05/16 09:02:41.000  -2429525.8173   5377816.3979   2412152.6020        -0.0000         0.0000         0.0000         0.0000     0.0000     0.0000   2  23   0.4458   0.7051   0.3571  -0.4355   0.3534  -0.2533   0.00    0.0
2023/05/16 09:02:42.000  -2429525.8003   5377816.3717   2412152.5855        -0.0000         0.0000         0.0000         0.0000     0.0000     0.0000   2  23   0.4459   0.7051   0.3571  -0.4355   0.3534  -0.2533   0.00    0.0
2023/05/16 09:02:43.000  -2429525.8014   5377816.3715   2412152.5877        -0.0000         0.0000         0.0000         0.0000     0.0000     0.0000   2  23   0.4459   0.7051   0.3571  -0.4355   0.3534  -0.2533   0.00    0.0
2023/05/16 09:02:44.000  -2429525.7962   5377816.3618   2412152.5849        -0.0000         0.0000         0.0000         0.0000     0.0000     0.0000   2  23   0.4459   0.7051   0.3571  -0.4356   0.3534  -0.2533   0.00    0.0
2023/05/16 09:02:45.000  -2429525.7943   5377816.3621   2412152.5936        -0.0000         0.0000         0.0000         0.0000     0.0000     0.0000   2  23   0.4459   0.7051   0.3571  -0.4356   0.3534  -0.2533   0.00    0.0
2023/05/16 09:02:46.000  -2429525.7983   5377816.3721   2412152.5851        -0.0000         0.0000         0.0000         0.0000     0.0000     0.0000   2  23   0.4459   0.7051   0.3571  -0.4356   0.3534  -0.2533   0.00    0.0
2023/05/16 09:02:47.000  -2429525.7979   5377816.3805   2412152.5897        -0.0000         0.0000         0.0000         0.0000     0.0000     0.0000   2  23   0.4459   0.7051   0.3571  -0.4356   0.3534  -0.2533   0.00    0.0
2023/05/16 09:02:48.000  -2429525.8134   5377816.3920   2412152.5904        -0.0000         0.0000         0.0000         0.0000     0.0000     0.0000   2  23   0.4459   0.7051   0.3571  -0.4356   0.3534  -0.2533   0.00    0.0
2023/05/16 09:02:49.000  -2429525.8169   5377816.3907   2412152.5922        -0.0000         0.0000         0.0000         0.0000     0.0000     0.0000   2  23   0.4459   0.7052   0.3571  -0.4356   0.3535  -0.2533   0.00    0.0
2023/05/16 09:02:50.000  -2429525.8134   5377816.3954   2412152.5913        -0.0000         0.0000         0.0000         0.0000     0.0000     0.0000   2  23   0.4459   0.7052   0.3571  -0.4356   0.3535  -0.2533   0.00    0.0
2023/05/16 09:02:51.000  -2429525.8126   5377816.3935   2412152.5901        -0.0000         0.0000         0.0000         0.0000     0.0000     0.0000   2  23   0.4459   0.7052   0.3571  -0.4356   0.3535  -0.2533   0.00    0.0
2023/05/16 09:02:52.000  -2429525.8152   5377816.3828   2412152.5807        -0.0000         0.0000         0.0000         0.0000     0.0000     0.0000   2  23   0.4459   0.7052   0.3571  -0.4356   0.3535  -0.2533   0.00    0.0
2023/05/16 09:02:53.000  -2429525.8136   5377816.3890   2412152.5852        -0.0000         0.0000         0.0000         0.0000     0.0000     0.0000   2  23   0.4459   0.7052   0.3571  -0.4356   0.3535  -0.2533   0.00    0.0
2023/05/16 09:02:54.000  -2429525.8158   5377816.3933   2412152.5841        -0.0000         0.0000         0.0000         0.0000     0.0000     0.0000   2  23   0.4459   0.7052   0.3571  -0.4357   0.3535  -0.2533   0.00    0.0
2023/05/16 09:02:55.000  -2429525.8201   5377816.4060   2412152.5942        -0.0000         0.0000         0.0000         0.0000     0.0000     0.0000   2  23   0.4460   0.7052   0.3571  -0.4357   0.3535  -0.2533   0.00    0.0
2023/05/16 09:02:56.000  -2429525.8204   5377816.4142   2412152.5918        -0.0000         0.0000         0.0000         0.0000     0.0000     0.0000   2  23   0.4460   0.7052   0.3571  -0.4357   0.3535  -0.2533   0.00    0.0
2023/05/16 09:02:57.000  -2429525.8225   5377816.4151   2412152.5921        -0.0000         0.0000         0.0000         0.0000     0.0000     0.0000   2  23   0.4460   0.7052   0.3571  -0.4357   0.3535  -0.2533   0.00    0.0
2023/05/16 09:02:58.000  -2429525.8290   5377816.4237   2412152.6052        -0.0000         0.0000         0.0000         0.0000     0.0000     0.0000   2  23   0.4460   0.7053   0.3571  -0.4357   0.3535  -0.2533   0.00    0.0
2023/05/16 09:02:59.000  -2429525.8396   5377816.4371   2412152.6096        -0.0000         0.0000         0.0000         0.0000     0.0000     0.0000   2  23   0.4460   0.7053   0.3571  -0.4357   0.3535  -0.2533   0.00    0.0
2023/05/16 09:03:00.000  -2429525.8526   5377816.4445   2412152.6127        -0.0000         0.0000         0.0000         0.0000     0.0000     0.0000   2  23   0.4460   0.7053   0.3571  -0.4357   0.3535  -0.2533   0.00    0.0
2023/05/16 09:03:01.000  -2429525.8442   5377816.4483   2412152.6100        -0.0000         0.0000         0.0000         0.0000     0.0000     0.0000   2  23   0.4460   0.7053   0.3570  -0.4357   0.3535  -0.2533   0.00    0.0
2023/05/16 09:03:02.000  -2429525.8456   5377816.4555   2412152.6168        -0.0000         0.0000         0.0000         0.0000     0.0000     0.0000   2  23   0.4460   0.7053   0.3570  -0.4357   0.3536  -0.2533   0.00    0.0
2023/05/16 09:03:03.000  -2429525.8594   5377816.4656   2412152.6210        -0.0000         0.0000         0.0000         0.0000     0.0000     0.0000   2  23   0.4460   0.7053   0.3570  -0.4358   0.3536  -0.2533   0.00    0.0
2023/05/16 09:03:04.000  -2429525.8582   5377816.4878   2412152.6303        -0.0000         0.0000         0.0000         0.0000     0.0000     0.0000   2  23   0.4460   0.7053   0.3570  -0.4358   0.3536  -0.2533   0.00    0.0
2023/05/16 09:03:05.000  -2429525.8667   5377816.4970   2412152.6285        -0.0000         0.0000         0.0000         0.0000     0.0000     0.0000   2  23   0.4460   0.7053   0.3570  -0.4358   0.3536  -0.2533   0.00    0.0
2023/05/16 09:03:06.000  -2429525.8690   5377816.5068   2412152.6275        -0.0000         0.0000         0.0000         0.0000     0.0000     0.0000   2  23   0.4460   0.7053   0.3570  -0.4358   0.3536  -0.2533   0.00    0.0
2023/05/16 09:03:07.000  -2429525.8691   5377816.4976   2412152.6231        -0.0000         0.0000         0.0000         0.0000     0.0000     0.0000   2  23   0.4460   0.7053   0.3570  -0.4358   0.3536  -0.2533   0.00    0.0
2023/05/16 09:03:08.000  -2429525.8688   5377816.4973   2412152.6239        -0.0000         0.0000         0.0000         0.0000     0.0000     0.0000   2  23   0.4460   0.7054   0.3570  -0.4358   0.3536  -0.2533   0.00    0.0
2023/05/16 09:03:09.000  -2429525.8603   5377816.4813   2412152.6201        -0.0000         0.0000         0.0000         0.0000     0.0000     0.0000   2  23   0.4461   0.7054   0.3570  -0.4358   0.3536  -0.2534   0.00    0.0
2023/05/16 09:03:10.000  -2429525.8548   5377816.4629   2412152.6082        -0.0000         0.0000         0.0000         0.0000     0.0000     0.0000   2  23   0.4461   0.7054   0.3570  -0.4358   0.3536  -0.2534   0.00    0.0
2023/05/16 09:03:11.000  -2429525.8506   5377816.4608   2412152.6049        -0.0000         0.0000         0.0000         0.0000     0.0000     0.0000   2  23   0.4461   0.7054   0.3570  -0.4358   0.3536  -0.2534   0.00    0.0
2023/05/16 09:03:12.000  -2429525.8487   5377816.4476   2412152.6075        -0.0000         0.0000         0.0000         0.0000     0.0000     0.0000   2  23   0.4461   0.7054   0.3570  -0.4358   0.3536  -0.2534   0.00    0.0
2023/05/16 09:03:13.000  -2429525.8478   5377816.4502   2412152.6006        -0.0000         0.0000         0.0000         0.0000     0.0000     0.0000   2  23   0.4461   0.7054   0.3570  -0.4358   0.3536  -0.2534   0.00    0.0
2023/05/16 09:03:14.000  -2429525.8535   5377816.4590   2412152.6030        -0.0000         0.0000         0.0000         0.0000     0.0000     0.0000   2  23   0.4461   0.7054   0.3570  -0.4359   0.3536  -0.2534   0.00    0.0
2023/05/16 09:03:15.000  -2429525.8452   5377816.4685   2412152.6003        -0.0000         0.0000         0.0000         0.0000     0.0000     0.0000   2  23   0.4461   0.7054   0.3570  -0.4359   0.3536  -0.2534   0.00    0.0
2023/05/16 09:03:16.000  -2429525.8420   5377816.4654   2412152.5999        -0.0000         0.0000         0.0000         0.0000     0.0000     0.0000   2  23   0.4461   0.7054   0.3570  -0.4359   0.3537  -0.2534   0.00    0.0
2023/05/16 09:03:17.000  -2429525.8523   5377816.4596   2412152.5991        -0.0000         0.0000         0.0000         0.0000     0.0000     0.0000   2  23   0.4461   0.7054   0.3570  -0.4359   0.3537  -0.2534   0.00    0.0
2023/05/16 09:03:18.000  -2429525.8517   5377816.4742   2412152.6083        -0.0000         0.0000         0.0000         0.0000     0.0000     0.0000   2  23   0.4461   0.7055   0.3570  -0.4359   0.3537  -0.2534   0.00    0.0
2023/05/16 09:03:19.000  -2429525.8485   5377816.4834   2412152.6133        -0.0000         0.0000         0.0000         0.0000     0.0000     0.0000   2  23   0.4461   0.7055   0.3570  -0.4359   0.3537  -0.2534   0.00    0.0
2023/05/16 09:03:20.000  -2429525.8451   5377816.4919   2412152.6168        -0.0000         0.0000         0.0000         0.0000     0.0000     0.0000   2  23   0.4461   0.7055   0.3570  -0.4359   0.3537  -0.2534   0.00    0.0
2023/05/16 09:03:21.000  -2429525.8478   5377816.4961   2412152.6169        -0.0000         0.0000         0.0000         0.0000     0.0000     0.0000   2  23   0.4461   0.7055   0.3570  -0.4359   0.3537  -0.2534   0.00    0.0
2023/05/16 09:03:22.000  -2429525.8504   5377816.4903   2412152.6189        -0.0000         0.0000         0.0000         0.0000     0.0000     0.0000   2  23   0.4461   0.7055   0.3569  -0.4359   0.3537  -0.2534   0.00    0.0
2023/05/16 09:03:23.000  -2429525.8451   5377816.4911   2412152.6171        -0.0000         0.0000         0.0000         0.0000     0.0000     0.0000   2  23   0.4462   0.7055   0.3569  -0.4359   0.3537  -0.2534   0.00    0.0
2023/05/16 09:03:24.000  -2429525.8357   5377816.4937   2412152.6169        -0.0000         0.0000         0.0000         0.0000     0.0000     0.0000   2  23   0.4462   0.7055   0.3569  -0.4360   0.3537  -0.2534   0.00    0.0
2023/05/16 09:03:25.000  -2429525.8350   5377816.4817   2412152.6176        -0.0000         0.0000         0.0000         0.0000     0.0000     0.0000   2  23   0.4462   0.7055   0.3569  -0.4360   0.3537  -0.2534   0.00    0.0
2023/05/16 09:03:26.000  -2429525.8257   5377816.4787   2412152.6129        -0.0000         0.0000         0.0000         0.0000     0.0000     0.0000   2  23   0.4462   0.7055   0.3569  -0.4360   0.3537  -0.2534   0.00    0.0
2023/05/16 09:03:27.000  -2429525.8041   5377816.4566   2412152.6057        -0.0000         0.0000         0.0000         0.0000     0.0000     0.0000   2  23   0.4462   0.7055   0.3569  -0.4360   0.3537  -0.2534   0.00    0.0
2023/05/16 09:03:28.000  -2429525.8024   5377816.4456   2412152.6012        -0.0000         0.0000         0.0000         0.0000     0.0000     0.0000   2  23   0.4462   0.7056   0.3569  -0.4360   0.3537  -0.2534   0.00    0.0
2023/05/16 09:03:29.000  -2429525.7866   5377816.4432   2412152.5999        -0.0000         0.0000         0.0000         0.0000     0.0000     0.0000   2  23   0.4462   0.7056   0.3569  -0.4360   0.3538  -0.2534   0.00    0.0
2023/05/16 09:03:30.000  -2429525.7894   5377816.4473   2412152.5912        -0.0000         0.0000         0.0000         0.0000     0.0000     0.0000   2  23   0.4462   0.7056   0.3569  -0.4360   0.3538  -0.2534   0.00    0.0
2023/05/16 09:03:31.000  -2429525.7724   5377816.4131   2412152.5819        -0.0000         0.0000         0.0000         0.0000     0.0000     0.0000   2  23   0.4462   0.7056   0.3569  -0.4360   0.3538  -0.2534   0.00    0.0
2023/05/16 09:03:32.000  -2429525.7673   5377816.4076   2412152.5795        -0.0000         0.0000         0.0000         0.0000     0.0000     0.0000   2  23   0.4462   0.7056   0.3569  -0.4360   0.3538  -0.2534   0.00    0.0
2023/05/16 09:03:33.000  -2429525.7675   5377816.4121   2412152.5789        -0.0000         0.0000         0.0000         0.0000     0.0000     0.0000   2  23   0.4462   0.7056   0.3569  -0.4360   0.3538  -0.2534   0.00    0.0
2023/05/16 09:03:34.000  -2429525.7643   5377816.4104   2412152.5697        -0.0000         0.0000         0.0000         0.0000     0.0000     0.0000   2  23   0.4462   0.7056   0.3569  -0.4361   0.3538  -0.2534   0.00    0.0
2023/05/16 09:03:35.000  -2429525.7626   5377816.4169   2412152.5739        -0.0000         0.0000         0.0000         0.0000     0.0000     0.0000   2  23   0.4462   0.7056   0.3569  -0.4361   0.3538  -0.2534   0.00    0.0
2023/05/16 09:03:36.000  -2429525.7526   5377816.3981   2412152.5695        -0.0000         0.0000         0.0000         0.0000     0.0000     0.0000   2  23   0.4462   0.7056   0.3569  -0.4361   0.3538  -0.2534   0.00    0.0
2023/05/16 09:03:37.000  -2429525.7522   5377816.3937   2412152.5667        -0.0000         0.0000         0.0000         0.0000     0.0000     0.0000   2  23   0.4463   0.7056   0.3569  -0.4361   0.3538  -0.2534   0.00    0.0
2023/05/16 09:03:38.000  -2429525.7547   5377816.3723   2412152.5630        -0.0000         0.0000         0.0000         0.0000     0.0000     0.0000   2  23   0.4463   0.7057   0.3569  -0.4361   0.3538  -0.2534   0.00    0.0
2023/05/16 09:03:39.000  -2429525.7457   5377816.3713   2412152.5611        -0.0000         0.0000         0.0000         0.0000     0.0000     0.0000   2  23   0.4463   0.7057   0.3569  -0.4361   0.3538  -0.2534   0.00    0.0
2023/05/16 09:03:40.000  -2429525.7352   5377816.3631   2412152.5562        -0.0000         0.0000         0.0000         0.0000     0.0000     0.0000   2  23   0.4463   0.7057   0.3569  -0.4361   0.3538  -0.2535   0.00    0.0
2023/05/16 09:03:41.000  -2429525.7402   5377816.3637   2412152.5537        -0.0000         0.0000         0.0000         0.0000     0.0000     0.0000   2  22   0.4500   0.7207   0.3746  -0.4457   0.3767  -0.2661   0.00    0.0
2023/05/16 09:03:42.000  -2429525.7310   5377816.3681   2412152.5606        -0.0000         0.0000         0.0000         0.0000     0.0000     0.0000   2  22   0.4523   0.7275   0.3770  -0.4507   0.3822  -0.2697   0.00    0.0
2023/05/16 09:03:43.000  -2429525.7288   5377816.3616   2412152.5555        -0.0000         0.0000         0.0000         0.0000     0.0000     0.0000   2  22   0.4531   0.7295   0.3773  -0.4523   0.3832  -0.2704   0.00    0.0
2023/05/16 09:03:44.000  -2429525.7289   5377816.3449   2412152.5575        -0.0000         0.0000         0.0000         0.0000     0.0000     0.0000   2  22   0.4532   0.7297   0.3773  -0.4525   0.3834  -0.2705   0.00    0.0
2023/05/16 09:03:45.000  -2429525.7141   5377816.3243   2412152.5487        -0.0000         0.0000         0.0000         0.0000     0.0000     0.0000   2  22   0.4532   0.7297   0.3773  -0.4525   0.3834  -0.2705   0.00    0.0
2023/05/16 09:03:46.000  -2429525.7074   5377816.3167   2412152.5442        -0.0000         0.0000         0.0000         0.0000     0.0000     0.0000   2  23   0.4493   0.7141   0.3591  -0.4426   0.3600  -0.2575   0.00    0.0
2023/05/16 09:03:47.000  -2429525.7038   5377816.3055   2412152.5487        -0.0000         0.0000         0.0000         0.0000     0.0000     0.0000   2  23   0.4472   0.7079   0.3571  -0.4379   0.3550  -0.2542   0.00    0.0
2023/05/16 09:03:48.000  -2429525.6897   5377816.2992   2412152.5320        -0.0000         0.0000         0.0000         0.0000     0.0000     0.0000   2  23   0.4466   0.7064   0.3570  -0.4367   0.3543  -0.2538   0.00    0.0
2023/05/16 09:03:49.000  -2429525.6795   5377816.2826   2412152.5184        -0.0000         0.0000         0.0000         0.0000     0.0000     0.0000   2  23   0.4466   0.7064   0.3570  -0.4367   0.3543  -0.2538   0.00    0.0
2023/05/16 09:03:50.000  -2429525.6785   5377816.2708   2412152.5251        -0.0000         0.0000         0.0000         0.0000     0.0000     0.0000   2  23   0.4466   0.7064   0.3570  -0.4367   0.3543  -0.2538   0.00    0.0
2023/05/16 09:03:51.000  -2429525.6729   5377816.2568   2412152.5306        -0.0000         0.0000         0.0000         0.0000     0.0000     0.0000   2  23   0.4465   0.7062   0.3569  -0.4366   0.3542  -0.2537   0.00    0.0
2023/05/16 09:03:52.000  -2429525.6664   5377816.2487   2412152.5219        -0.0000         0.0000         0.0000         0.0000     0.0000     0.0000   2  23   0.4464   0.7060   0.3569  -0.4364   0.3541  -0.2536   0.00    0.0
2023/05/16 09:03:53.000  -2429525.6577   5377816.2287   2412152.5250        -0.0000         0.0000         0.0000         0.0000     0.0000     0.0000   2  23   0.4464   0.7059   0.3568  -0.4363   0.3540  -0.2535   0.00    0.0
2023/05/16 09:03:54.000  -2429525.6639   5377816.2277   2412152.5257        -0.0000         0.0000         0.0000         0.0000     0.0000     0.0000   2  23   0.4464   0.7059   0.3568  -0.4363   0.3540  -0.2535   0.00    0.0
2023/05/16 09:03:55.000  -2429525.6550   5377816.2267   2412152.5322        -0.0000         0.0000         0.0000         0.0000     0.0000     0.0000   2  23   0.4464   0.7059   0.3568  -0.4363   0.3540  -0.2535   0.00    0.0
2023/05/16 09:03:56.000  -2429525.6599   5377816.2370   2412152.5396        -0.0000         0.0000         0.0000         0.0000     0.0000     0.0000   2  23   0.4464   0.7059   0.3568  -0.4363   0.3540  -0.2535   0.00    0.0
2023/05/16 09:03:57.000  -2429525.6660   5377816.2344   2412152.5358        -0.0000         0.0000         0.0000         0.0000     0.0000     0.0000   2  23   0.4464   0.7059   0.3568  -0.4363   0.3540  -0.2535   0.00    0.0
2023/05/16 09:03:58.000  -2429525.6457   5377816.2293   2412152.5263        -0.0000         0.0000         0.0000         0.0000     0.0000     0.0000   2  23   0.4464   0.7059   0.3568  -0.4363   0.3540  -0.2535   0.00    0.0
2023/05/16 09:03:59.000  -2429525.6347   5377816.2210   2412152.5157        -0.0000         0.0000         0.0000         0.0000     0.0000     0.0000   2  23   0.4464   0.7059   0.3568  -0.4363   0.3540  -0.2535   0.00    0.0
2023/05/16 09:04:00.000  -2429525.6358   5377816.2242   2412152.5253        -0.0000         0.0000         0.0000         0.0000     0.0000     0.0000   2  23   0.4464   0.7059   0.3568  -0.4363   0.3540  -0.2535   0.00    0.0
2023/05/16 09:04:01.000  -2429525.6459   5377816.2325   2412152.5303        -0.0000         0.0000         0.0000         0.0000     0.0000     0.0000   2  23   0.4464   0.7059   0.3568  -0.4363   0.3540  -0.2535   0.00    0.0
2023/05/16 09:04:02.000  -2429525.6412   5377816.2348   2412152.5313        -0.0000         0.0000         0.0000         0.0000     0.0000     0.0000   2  23   0.4464   0.7059   0.3568  -0.4363   0.3540  -0.2535   0.00    0.0
2023/05/16 09:04:03.000  -2429525.6434   5377816.2348   2412152.5398        -0.0000         0.0000         0.0000         0.0000     0.0000     0.0000   2  23   0.4464   0.7059   0.3568  -0.4363   0.3540  -0.2535   0.00    0.0
2023/05/16 09:04:04.000  -2429525.6344   5377816.2518   2412152.5301        -0.0000         0.0000         0.0000         0.0000     0.0000     0.0000   2  23   0.4464   0.7059   0.3568  -0.4363   0.3540  -0.2535   0.00    0.0
2023/05/16 09:04:05.000  -2429525.6307   5377816.2496   2412152.5301        -0.0000         0.0000         0.0000         0.0000     0.0000     0.0000   2  23   0.4464   0.7059   0.3568  -0.4363   0.3540  -0.2535   0.00    0.0
2023/05/16 09:04:06.000  -2429525.6306   5377816.2552   2412152.5346        -0.0000         0.0000         0.0000         0.0000     0.0000     0.0000   2  23   0.4464   0.7059   0.3568  -0.4363   0.3540  -0.2535   0.00    0.0
2023/05/16 09:04:07.000  -2429525.6255   5377816.2586   2412152.5400        -0.0000         0.0000         0.0000         0.0000     0.0000     0.0000   2  23   0.4465   0.7059   0.3567  -0.4364   0.3540  -0.2535   0.00    0.0
2023/05/16 09:04:08.000  -2429525.6304   5377816.2697   2412152.5463        -0.0000         0.0000         0.0000         0.0000     0.0000     0.0000   2  23   0.4465   0.7059   0.3567  -0.4364   0.3540  -0.2535   0.00    0.0
2023/05/16 09:04:09.000  -2429525.6198   5377816.2662   2412152.5514        -0.0000         0.0000         0.0000         0.0000     0.0000     0.0000   2  23   0.4465   0.7060   0.3567  -0.4364   0.3540  -0.2535   0.00    0.0
2023/05/16 09:04:10.000  -2429525.6190   5377816.2828   2412152.5584        -0.0000         0.0000         0.0000         0.0000     0.0000     0.0000   2  23   0.4465   0.7060   0.3567  -0.4364   0.3540  -0.2535   0.00    0.0
2023/05/16 09:04:11.000  -2429525.6331   5377816.2866   2412152.5605        -0.0000         0.0000         0.0000         0.0000     0.0000     0.0000   2  23   0.4465   0.7060   0.3567  -0.4364   0.3541  -0.2535   0.00    0.0
2023/05/16 09:04:12.000  -2429525.6375   5377816.2928   2412152.5577        -0.0000         0.0000         0.0000         0.0000     0.0000     0.0000   2  23   0.4465   0.7060   0.3567  -0.4364   0.3541  -0.2536   0.00    0.0
2023/05/16 09:04:13.000  -2429525.6391   5377816.2932   2412152.5523        -0.0000         0.0000         0.0000         0.0000     0.0000     0.0000   2  23   0.4465   0.7060   0.3567  -0.4364   0.3541  -0.2536   0.00    0.0
2023/05/16 09:04:14.000  -2429525.6379   5377816.3048   2412152.5646        -0.0000         0.0000         0.0000         0.0000     0.0000     0.0000   2  23   0.4465   0.7060   0.3567  -0.4364   0.3541  -0.2536   0.00    0.0
2023/05/16 09:04:15.000  -2429525.6389   5377816.3058   2412152.5735        -0.0000         0.0000         0.0000         0.0000     0.0000     0.0000   2  23   0.4465   0.7060   0.3567  -0.4364   0.3541  -0.2536   0.00    0.0
2023/05/16 09:04:16.000  -2429525.6384   5377816.3192   2412152.5707        -0.0000         0.0000         0.0000         0.0000     0.0000     0.0000   2  23   0.4465   0.7060   0.3567  -0.4364   0.3541  -0.2536   0.00    0.0
2023/05/16 09:04:17.000  -2429525.6567   5377816.3251   2412152.5744        -0.0000         0.0000         0.0000         0.0000     0.0000     0.0000   2  23   0.4465   0.7060   0.3567  -0.4364   0.3541  -0.2536   0.00    0.0
2023/05/16 09:04:18.000  -2429525.6588   5377816.3280   2412152.5743        -0.0000         0.0000         0.0000         0.0000     0.0000     0.0000   2  23   0.4465   0.7060   0.3567  -0.4365   0.3541  -0.2536   0.00    0.0
2023/05/16 09:04:19.000  -2429525.6577   5377816.3333   2412152.5813        -0.0000         0.0000         0.0000         0.0000     0.0000     0.0000   2  23   0.4465   0.7061   0.3567  -0.4365   0.3541  -0.2536   0.00    0.0
2023/05/16 09:04:20.000  -2429525.6633   5377816.3448   2412152.5802        -0.0000         0.0000         0.0000         0.0000     0.0000     0.0000   2  23   0.4465   0.7061   0.3567  -0.4365   0.3541  -0.2536   0.00    0.0
2023/05/16 09:04:21.000  -2429525.6711   5377816.3705   2412152.6014        -0.0000         0.0000         0.0000         0.0000     0.0000     0.0000   2  22   0.4502   0.7211   0.3745  -0.4460   0.3769  -0.2661   0.00    0.0
2023/05/16 09:04:22.000  -2429525.6798   5377816.3930   2412152.6075        -0.0000         0.0000         0.0000         0.0000     0.0000     0.0000   2  22   0.4526   0.7279   0.3769  -0.4511   0.3825  -0.2698   0.00    0.0
