% ref pos   : -2414266.9231  5386768.9940  2407460.0342
%  GPST                      x-ecef(m)      y-ecef(m)      z-ecef(m)   Q  ns   sdx(m)   sdy(m)   sdz(m)  sdxy(m)  sdyz(m)  sdzx(m) age(s)  ratio
2023/05/16 09:00:00.000  -2414045.7509   5391602.2625   2396878.6985        -0.0000         0.0000         0.0000         0.0000     0.0000     0.0000   2  23   0.5209   0.8922   0.4050  -0.5747   0.4706  -0.3331   0.00    0.0
2023/05/16 09:00:01.000  -2414045.7399   5391602.2490   2396878.6891        -0.0000         0.0000         0.0000         0.0000     0.0000     0.0000   2  21   0.5433   0.9737   0.4721  -0.6251   0.5628  -0.3858   0.00    0.0
2023/05/16 09:00:02.000  -2414045.7401   5391602.2746   2396878.6938        -0.0000         0.0000         0.0000         0.0000     0.0000     0.0000   2  21   0.5434   0.9740   0.4722  -0.6253   0.5629  -0.3859   0.00    0.0
2023/05/16 09:00:03.000  -2414045.7448   5391602.2903   2396878.7104        -0.0000         0.0000         0.0000         0.0000     0.0000     0.0000   2  22   0.5206   0.9065   0.4254  -0.5840   0.4993  -0.3492   0.00    0.0
2023/05/16 09:00:04.000  -2414045.7521   5391602.3199   2396878.7332        -0.0000         0.0000         0.0000         0.0000     0.0000     0.0000   2  22   0.5078   0.8763   0.4159  -0.5623   0.4799  -0.3360   0.00    0.0
2023/05/16 09:00:05.000  -2414045.7565   5391602.3079   2396878.7187        -0.0000         0.0000         0.0000         0.0000     0.0000     0.0000   2  22   0.4961   0.8459   0.4078  -0.5398   0.4600  -0.3226   0.00    0.0
2023/05/16 09:00:06.000  -2414045.7371   5391602.2537   2396878.6875        -0.0000         0.0000         0.0000         0.0000     0.0000     0.0000   2  22   0.4848   0.8166   0.4001  -0.5179   0.4408  -0.3096   0.00    0.0
2023/05/16 09:00:07.000  -2414045.7280   5391602.2261   2396878.6818        -0.0000         0.0000         0.0000         0.0000     0.0000     0.0000   2  22   0.4748   0.7903   0.3935  -0.4980   0.4236  -0.2979   0.00    0.0
2023/05/16 09:00:08.000  -2414045.7324   5391602.2345   2396878.6864        -0.0000         0.0000         0.0000         0.0000     0.0000     0.0000   2  22   0.4665   0.7682   0.3880  -0.4813   0.4089  -0.2880   0.00    0.0
2023/05/16 09:00:09.000  -2414045.7206   5391602.2366   2396878.6968        -0.0000         0.0000         0.0000         0.0000     0.0000     0.0000   2  22   0.4601   0.7510   0.3838  -0.4682   0.3975  -0.2802   0.00    0.0
2023/05/16 09:00:10.000  -2414045.7146   5391602.2282   2396878.6904        -0.0000         0.0000         0.0000         0.0000     0.0000     0.0000   2  23   0.4514   0.7223   0.3621  -0.4483   0.3650  -0.2611   0.00    0.0
2023/05/16 09:00:11.000  -2414045.7210   5391602.2461   2396878.6964        -0.0000         0.0000         0.0000         0.0000     0.0000     0.0000   2  21   0.4541   0.7456   0.4006  -0.4591   0.4091  -0.2817   0.00    0.0
2023/05/16 09:00:12.000  -2414045.7199   5391602.2544   2396878.7050        -0.0000         0.0000         0.0000         0.0000     0.0000     0.0000   2  21   0.4577   0.7572   0.4059  -0.4672   0.4198  -0.2884   0.00    0.0
2023/05/16 09:00:13.000  -2414045.7315   5391602.2634   2396878.7037        -0.0000         0.0000         0.0000         0.0000     0.0000     0.0000   2  21   0.4591   0.7608   0.4064  -0.4701   0.4216  -0.2898   0.00    0.0
2023/05/16 09:00:14.000  -2414045.7288   5391602.2700   2396878.7145        -0.0000         0.0000         0.0000         0.0000     0.0000     0.0000   2  21   0.4593   0.7612   0.4065  -0.4705   0.4218  -0.2899   0.00    0.0
2023/05/16 09:00:15.000  -2414045.7349   5391602.2944   2396878.7280        -0.0000         0.0000         0.0000         0.0000     0.0000     0.0000   2  23   0.4510   0.7219   0.3626  -0.4477   0.3655  -0.2612   0.00    0.0
2023/05/16 09:00:16.000  -2414045.7386   5391602.2759   2396878.7156        -0.0000         0.0000         0.0000         0.0000     0.0000     0.0000   2  23   0.4462   0.7075   0.3579  -0.4370   0.3539  -0.2538   0.00    0.0
2023/05/16 09:00:17.000  -2414045.7521   5391602.3049   2396878.7490        -0.0000         0.0000         0.0000         0.0000     0.0000     0.0000   2  23   0.4448   0.7042   0.3576  -0.4343   0.3524  -0.2527   0.00    0.0
2023/05/16 09:00:18.000  -2414045.7496   5391602.3028   2396878.7544        -0.0000         0.0000         0.0000         0.0000     0.0000     0.0000   2  23   0.4448   0.7041   0.3576  -0.4342   0.3524  -0.2526   0.00    0.0
2023/05/16 09:00:19.000  -2414045.7529   5391602.3151   2396878.7654        -0.0000         0.0000         0.0000         0.0000     0.0000     0.0000   2  23   0.4448   0.7040   0.3575  -0.4342   0.3524  -0.2526   0.00    0.0
2023/05/16 09:00:20.000  -2414045.7553   5391602.3356   2396878.7756        -0.0000         0.0000         0.0000         0.0000     0.0000     0.0000   2  23   0.4446   0.7036   0.3575  -0.4339   0.3521  -0.2525   0.00    0.0
2023/05/16 09:00:21.000  -2414045.7527   5391602.3244   2396878.7604        -0.0000         0.0000         0.0000         0.0000     0.0000     0.0000   2  23   0.4444   0.7031   0.3574  -0.4335   0.3518  -0.2522   0.00    0.0
2023/05/16 09:00:22.000  -2414045.7419   5391602.3207   2396878.7704        -0.0000         0.0000         0.0000         0.0000     0.0000     0.0000   2  23   0.4443   0.7028   0.3573  -0.4332   0.3516  -0.2521   0.00    0.0
2023/05/16 09:00:23.000  -2414045.7348   5391602.3219   2396878.7670        -0.0000         0.0000         0.0000         0.0000     0.0000     0.0000   2  23   0.4443   0.7027   0.3572  -0.4331   0.3515  -0.2520   0.00    0.0
2023/05/16 09:00:24.000  -2414045.7239   5391602.3100   2396878.7554        -0.0000         0.0000         0.0000         0.0000     0.0000     0.0000   2  23   0.4443   0.7027   0.3572  -0.4331   0.3515  -0.2520   0.00    0.0
2023/05/16 09:00:25.000  -2414045.7188   5391602.3056   2396878.7549        -0.0000         0.0000         0.0000         0.0000     0.0000     0.0000   2  23   0.4443   0.7027   0.3572  -0.4331   0.3515  -0.2520   0.00    0.0
2023/05/16 09:00:26.000  -2414045.7136   5391602.2874   2396878.7588        -0.0000         0.0000         0.0000         0.0000     0.0000     0.0000   2  23   0.4443   0.7027   0.3572  -0.4332   0.3515  -0.2520   0.00    0.0
2023/05/16 09:00:27.000  -2414045.7001   5391602.2886   2396878.7512        -0.0000         0.0000         0.0000         0.0000     0.0000     0.0000   2  23   0.4443   0.7027   0.3572  -0.4332   0.3515  -0.2520   0.00    0.0
2023/05/16 09:00:28.000  -2414045.6947   5391602.2776   2396878.7593        -0.0000         0.0000         0.0000         0.0000     0.0000     0.0000   2  23   0.4443   0.7027   0.3572  -0.4331   0.3515  -0.2520   0.00    0.0
2023/05/16 09:00:29.000  -2414045.6948   5391602.2740   2396878.7537        -0.0000         0.0000         0.0000         0.0000     0.0000     0.0000   2  23   0.4443   0.7027   0.3572  -0.4331   0.3515  -0.2520   0.00    0.0
2023/05/16 09:00:30.000  -2414045.6819   5391602.2660   2396878.7510        -0.0000         0.0000         0.0000         0.0000     0.0000     0.0000   2  23   0.4443   0.7027   0.3572  -0.4331   0.3515  -0.2520   0.00    0.0
2023/05/16 09:00:31.000  -2414045.6723   5391602.2761   2396878.7585        -0.0000         0.0000         0.0000         0.0000     0.0000     0.0000   2  23   0.4443   0.7027   0.3572  -0.4332   0.3515  -0.2520   0.00    0.0
2023/05/16 09:00:32.000  -2414045.6710   5391602.2854   2396878.7672        -0.0000         0.0000         0.0000         0.0000     0.0000     0.0000   2  23   0.4443   0.7027   0.3572  -0.4332   0.3515  -0.2520   0.00    0.0
2023/05/16 09:00:33.000  -2414045.6820   5391602.2865   2396878.7648        -0.0000         0.0000         0.0000         0.0000     0.0000     0.0000   2  23   0.4443   0.7027   0.3572  -0.4332   0.3515  -0.2520   0.00    0.0
2023/05/16 09:00:34.000  -2414045.6778   5391602.2848   2396878.7572        -0.0000         0.0000         0.0000         0.0000     0.0000     0.0000   2  23   0.4443   0.7027   0.3572  -0.4332   0.3515  -0.2520   0.00    0.0
2023/05/16 09:00:35.000  -2414045.6654   5391602.2823   2396878.7633        -0.0000         0.0000         0.0000         0.0000     0.0000     0.0000   2  23   0.4443   0.7027   0.3572  -0.4332   0.3515  -0.2520   0.00    0.0
2023/05/16 09:00:36.000  -2414045.6662   5391602.2847   2396878.7573        -0.0000         0.0000         0.0000         0.0000     0.0000     0.0000   2  23   0.4444   0.7027   0.3571  -0.4332   0.3516  -0.2520   0.00    0.0
2023/05/16 09:00:37.000  -2414045.6611   5391602.2816   2396878.7623        -0.0000         0.0000         0.0000         0.0000     0.0000     0.0000   2  23   0.4444   0.7028   0.3571  -0.4332   0.3516  -0.2521   0.00    0.0
2023/05/16 09:00:38.000  -2414045.6634   5391602.2703   2396878.7561        -0.0000         0.0000         0.0000         0.0000     0.0000     0.0000   2  23   0.4444   0.7028   0.3571  -0.4332   0.3516  -0.2521   0.00    0.0
2023/05/16 09:00:39.000  -2414045.6391   5391602.2475   2396878.7454        -0.0000         0.0000         0.0000         0.0000     0.0000     0.0000   2  23   0.4444   0.7028   0.3571  -0.4333   0.3516  -0.2521   0.00    0.0
2023/05/16 09:00:40.000  -2414045.6463   5391602.2483   2396878.7478        -0.0000         0.0000         0.0000         0.0000     0.0000     0.0000   2  23   0.4444   0.7028   0.3571  -0.4333   0.3516  -0.2521   0.00    0.0
2023/05/16 09:00:41.000  -2414045.6392   5391602.2533   2396878.7497        -0.0000         0.0000         0.0000         0.0000     0.0000     0.0000   2  23   0.4444   0.7028   0.3571  -0.4333   0.3516  -0.2521   0.00    0.0
2023/05/16 09:00:42.000  -2414045.6512   5391602.2457   2396878.7444        -0.0000         0.0000         0.0000         0.0000     0.0000     0.0000   2  23   0.4444   0.7028   0.3571  -0.4333   0.3516  -0.2521   0.00    0.0
2023/05/16 09:00:43.000  -2414045.6419   5391602.2540   2396878.7468        -0.0000         0.0000         0.0000         0.0000     0.0000     0.0000   2  23   0.4444   0.7028   0.3571  -0.4333   0.3516  -0.2521   0.00    0.0
2023/05/16 09:00:44.000  -2414045.6523   5391602.2552   2396878.7487        -0.0000         0.0000         0.0000         0.0000     0.0000     0.0000   2  23   0.4444   0.7028   0.3571  -0.4333   0.3516  -0.2521   0.00    0.0
2023/05/16 09:00:45.000  -2414045.6581   5391602.2583   2396878.7517        -0.0000         0.0000         0.0000         0.0000     0.0000     0.0000   2  23   0.4444   0.7029   0.3571  -0.4333   0.3516  -0.2521   0.00    0.0
2023/05/16 09:00:46.000  -2414045.6532   5391602.2495   2396878.7528        -0.0000         0.0000         0.0000         0.0000     0.0000     0.0000   2  23   0.4444   0.7029   0.3571  -0.4333   0.3516  -0.2521   0.00    0.0
2023/05/16 09:00:47.000  -2414045.6656   5391602.2471   2396878.7505        -0.0000         0.0000         0.0000         0.0000     0.0000     0.0000   2  23   0.4444   0.7029   0.3571  -0.4334   0.3516  -0.2521   0.00    0.0
2023/05/16 09:00:48.000  -2414045.6603   5391602.2675   2396878.7579        -0.0000         0.0000         0.0000         0.0000     0.0000     0.0000   2  23   0.4445   0.7029   0.3571  -0.4334   0.3517  -0.2521   0.00    0.0
2023/05/16 09:00:49.000  -2414045.6695   5391602.2728   2396878.7564        -0.0000         0.0000         0.0000         0.0000     0.0000     0.0000   2  23   0.4445   0.7029   0.3571  -0.4334   0.3517  -0.2521   0.00    0.0
2023/05/16 09:00:50.000  -2414045.6791   5391602.2738   2396878.7670        -0.0000         0.0000         0.0000         0.0000     0.0000     0.0000   2  23   0.4445   0.7029   0.3571  -0.4334   0.3517  -0.2521   0.00    0.0
2023/05/16 09:00:51.000  -2414045.6777   5391602.2868   2396878.7784        -0.0000         0.0000         0.0000         0.0000     0.0000     0.0000   2  23   0.4445   0.7029   0.3571  -0.4334   0.3517  -0.2521   0.00    0.0
2023/05/16 09:00:52.000  -2414045.6833   5391602.2944   2396878.7814        -0.0000         0.0000         0.0000         0.0000     0.0000     0.0000   2  23   0.4445   0.7029   0.3571  -0.4334   0.3517  -0.2521   0.00    0.0
2023/05/16 09:00:53.000  -2414045.6837   5391602.2944   2396878.7797        -0.0000         0.0000         0.0000         0.0000     0.0000     0.0000   2  23   0.4445   0.7030   0.3571  -0.4334   0.3517  -0.2521   0.00    0.0
2023/05/16 09:00:54.000  -2414045.6873   5391602.2950   2396878.7882        -0.0000         0.0000         0.0000         0.0000     0.0000     0.0000   2  23   0.4445   0.7030   0.3571  -0.4334   0.3517  -0.2521   0.00    0.0
2023/05/16 09:00:55.000  -2414045.6922   5391602.2918   2396878.7876        -0.0000         0.0000         0.0000         0.0000     0.0000     0.0000   2  23   0.4445   0.7030   0.3571  -0.4335   0.3517  -0.2521   0.00    0.0
2023/05/16 09:00:56.000  -2414045.6912   5391602.2926   2396878.7900        -0.0000         0.0000         0.0000         0.0000     0.0000     0.0000   2  23   0.4445   0.7030   0.3570  -0.4335   0.3517  -0.2521   0.00    0.0
2023/05/16 09:00:57.000  -2414045.6984   5391602.2950   2396878.7949        -0.0000         0.0000         0.0000         0.0000     0.0000     0.0000   2  23   0.4445   0.7030   0.3570  -0.4335   0.3517  -0.2521   0.00    0.0
2023/05/16 09:00:58.000  -2414045.7017   5391602.2902   2396878.7949        -0.0000         0.0000         0.0000         0.0000     0.0000     0.0000   2  23   0.4445   0.7030   0.3570  -0.4335   0.3517  -0.2521   0.00    0.0
2023/05/16 09:00:59.000  -2414045.6963   5391602.2865   2396878.7922        -0.0000         0.0000         0.0000         0.0000     0.0000     0.0000   2  23   0.4445   0.7030   0.3570  -0.4335   0.3518  -0.2522   0.00    0.0
2023/05/16 09:01:00.000  -2414045.7005   5391602.2795   2396878.7970        -0.0000         0.0000         0.0000         0.0000     0.0000     0.0000   2  23   0.4446   0.7030   0.3570  -0.4335   0.3518  -0.2522   0.00    0.0
2023/05/16 09:01:01.000  -2414045.7024   5391602.2798   2396878.7941        -0.0000         0.0000         0.0000         0.0000     0.0000     0.0000   2  23   0.4446   0.7031   0.3570  -0.4335   0.3518  -0.2522   0.00    0.0
2023/05/16 09:01:02.000  -2414045.7094   5391602.2763   2396878.7917        -0.0000         0.0000         0.0000         0.0000     0.0000     0.0000   2  23   0.4446   0.7031   0.3570  -0.4335   0.3518  -0.2522   0.00    0.0
2023/05/16 09:01:03.000  -2414045.7010   5391602.2768   2396878.8045        -0.0000         0.0000         0.0000         0.0000     0.0000     0.0000   2  23   0.4446   0.7031   0.3570  -0.4336   0.3518  -0.2522   0.00    0.0
2023/05/16 09:01:04.000  -2414045.7031   5391602.2731   2396878.8066        -0.0000         0.0000         0.0000         0.0000     0.0000     0.0000   2  23   0.4446   0.7031   0.3570  -0.4336   0.3518  -0.2522   0.00    0.0
2023/05/16 09:01:05.000  -2414045.7007   5391602.2553   2396878.8103        -0.0000         0.0000         0.0000         0.0000     0.0000     0.0000   2  23   0.4446   0.7031   0.3570  -0.4336   0.3518  -0.2522   0.00    0.0
2023/05/16 09:01:06.000  -2414045.7085   5391602.2632   2396878.8097        -0.0000         0.0000         0.0000         0.0000     0.0000     0.0000   2  23   0.4446   0.7031   0.3570  -0.4336   0.3518  -0.2522   0.00    0.0
2023/05/16 09:01:07.000  -2414045.7115   5391602.2762   2396878.8144        -0.0000         0.0000         0.0000         0.0000     0.0000     0.0000   2  23   0.4446   0.7031   0.3570  -0.4336   0.3518  -0.2522   0.00    0.0
2023/05/16 09:01:08.000  -2414045.7068   5391602.2695   2396878.8222        -0.0000         0.0000         0.0000         0.0000     0.0000     0.0000   2  23   0.4446   0.7031   0.3570  -0.4336   0.3518  -0.2522   0.00    0.0
2023/05/16 09:01:09.000  -2414045.7112   5391602.2699   2396878.8305        -0.0000         0.0000         0.0000         0.0000     0.0000     0.0000   2  23   0.4446   0.7032   0.3570  -0.4336   0.3518  -0.2522   0.00    0.0
2023/05/16 09:01:10.000  -2414045.7164   5391602.2822   2396878.8369        -0.0000         0.0000         0.0000         0.0000     0.0000     0.0000   2  23   0.4446   0.7032   0.3570  -0.4336   0.3519  -0.2522   0.00    0.0
2023/05/16 09:01:11.000  -2414045.7263   5391602.2750   2396878.8317        -0.0000         0.0000         0.0000         0.0000     0.0000     0.0000   2  23   0.4446   0.7032   0.3570  -0.4337   0.3519  -0.2522   0.00    0.0
2023/05/16 09:01:12.000  -2414045.7245   5391602.2601   2396878.8289        -0.0000         0.0000         0.0000         0.0000     0.0000     0.0000   2  23   0.4447   0.7032   0.3570  -0.4337   0.3519  -0.2522   0.00    0.0
2023/05/16 09:01:13.000  -2414045.7318   5391602.2735   2396878.8324        -0.0000         0.0000         0.0000         0.0000     0.0000     0.0000   2  23   0.4447   0.7032   0.3570  -0.4337   0.3519  -0.2522   0.00    0.0
2023/05/16 09:01:14.000  -2414045.7338   5391602.2625   2396878.8345        -0.0000         0.0000         0.0000         0.0000     0.0000     0.0000   2  23   0.4447   0.7032   0.3570  -0.4337   0.3519  -0.2522   0.00    0.0
2023/05/16 09:01:15.000  -2414045.7305   5391602.2409   2396878.8319        -0.0000         0.0000         0.0000         0.0000     0.0000     0.0000   2  23   0.4447   0.7032   0.3570  -0.4337   0.3519  -0.2522   0.00    0.0
2023/05/16 09:01:16.000  -2414045.7248   5391602.2216   2396878.8311        -0.0000         0.0000         0.0000         0.0000     0.0000     0.0000   2  23   0.4447   0.7032   0.3569  -0.4337   0.3519  -0.2522   0.00    0.0
2023/05/16 09:01:17.000  -2414045.7219   5391602.2215   2396878.8334        -0.0000         0.0000         0.0000         0.0000     0.0000     0.0000   2  23   0.4447   0.7033   0.3569  -0.4337   0.3519  -0.2522   0.00    0.0
2023/05/16 09:01:18.000  -2414045.7286   5391602.2170   2396878.8331        -0.0000         0.0000         0.0000         0.0000     0.0000     0.0000   2  23   0.4447   0.7033   0.3569  -0.4337   0.3519  -0.2522   0.00    0.0
2023/05/16 09:01:19.000  -2414045.7372   5391602.2215   2396878.8371        -0.0000         0.0000         0.0000         0.0000     0.0000     0.0000   2  23   0.4447   0.7033   0.3569  -0.4337   0.3519  -0.2522   0.00    0.0
2023/05/16 09:01:20.000  -2414045.7251   5391602.2040   2396878.8359        -0.0000         0.0000         0.0000         0.0000     0.0000     0.0000   2  23   0.4447   0.7033   0.3569  -0.4338   0.3519  -0.2522   0.00    0.0
2023/05/16 09:01:21.000  -2414045.7278   5391602.1953   2396878.8391        -0.0000         0.0000         0.0000         0.0000     0.0000     0.0000   2  23   0.4447   0.7033   0.3569  -0.4338   0.3519  -0.2522   0.00    0.0
2023/05/16 09:01:22.000  -2414045.7252   5391602.1868   2396878.8416        -0.0000         0.0000         0.0000         0.0000     0.0000     0.0000   2  23   0.4447   0.7033   0.3569  -0.4338   0.3520  -0.2523   0.00    0.0
2023/05/16 09:01:23.000  -2414045.7186   5391602.1769   2396878.8313        -0.0000         0.0000         0.0000         0.0000     0.0000     0.0000   2  23   0.4447   0.7033   0.3569  -0.4338   0.3520  -0.2523   0.00    0.0
2023/05/16 09:01:24.000  -2414045.7252   5391602.1697   2396878.8334        -0.0000         0.0000         0.0000         0.0000     0.0000     0.0000   2  23   0.4447   0.7033   0.3569  -0.4338   0.3520  -0.2523   0.00    0.0
2023/05/16 09:01:25.000  -2414045.7255   5391602.1690   2396878.8421        -0.0000         0.0000         0.0000         0.0000     0.0000     0.0000   2  23   0.4448   0.7034   0.3569  -0.4338   0.3520  -0.2523   0.00    0.0
2023/05/16 09:01:26.000  -2414045.7268   5391602.1664   2396878.8391        -0.0000         0.0000         0.0000         0.0000     0.0000     0.0000   2  23   0.4448   0.7034   0.3569  -0.4338   0.3520  -0.2523   0.00    0.0
2023/05/16 09:01:27.000  -2414045.7196   5391602.1585   2396878.8340        -0.0000         0.0000         0.0000         0.0000     0.0000     0.0000   2  23   0.4448   0.7034   0.3569  -0.4338   0.3520  -0.2523   0.00    0.0
2023/05/16 09:01:28.000  -2414045.7268   5391602.1529   2396878.8292        -0.0000         0.0000         0.0000         0.0000     0.0000     0.0000   2  23   0.4448   0.7034   0.3569  -0.4339   0.3520  -0.2523   0.00    0.0
2023/05/16 09:01:29.000  -2414045.7306   5391602.1444   2396878.8283        -0.0000         0.0000         0.0000         0.0000     0.0000     0.0000   2  23   0.4448   0.7034   0.3569  -0.4339   0.3520  -0.2523   0.00    0.0
2023/05/16 09:01:30.000  -2414045.7151   5391602.1275   2396878.8287        -0.0000         0.0000         0.0000         0.0000     0.0000     0.0000   2  23   0.4448   0.7034   0.3569  -0.4339   0.3520  -0.2523   0.00    0.0
2023/05/16 09:01:31.000  -2414045.7191   5391602.1127   2396878.8218        -0.0000         0.0000         0.0000         0.0000     0.0000     0.0000   2  23   0.4448   0.7034   0.3569  -0.4339   0.3520  -0.2523   0.00    0.0
2023/05/16 09:01:32.000  -2414045.7140   5391602.0990   2396878.8129        -0.0000         0.0000         0.0000         0.0000     0.0000     0.0000   2  23   0.4448   0.7034   0.3569  -0.4339   0.3520  -0.2523   0.00    0.0
2023/05/16 09:01:33.000  -2414045.6975   5391602.0952   2396878.8208        -0.0000         0.0000         0.0000         0.0000     0.0000     0.0000   2  23   0.4448   0.7035   0.3569  -0.4339   0.3520  -0.2523   0.00    0.0
2023/05/16 09:01:34.000  -2414045.6866   5391602.0875   2396878.8182        -0.0000         0.0000         0.0000         0.0000     0.0000     0.0000   2  23   0.4448   0.7035   0.3569  -0.4339   0.3521  -0.2523   0.00    0.0
2023/05/16 09:01:35.000  -2414045.6766   5391602.0663   2396878.8095        -0.0000         0.0000         0.0000         0.0000     0.0000     0.0000   2  23   0.4448   0.7035   0.3569  -0.4339   0.3521  -0.2523   0.00    0.0
2023/05/16 09:01:36.000  -2414045.6785   5391602.0574   2396878.8045        -0.0000         0.0000         0.0000         0.0000     0.0000     0.0000   2  23   0.4448   0.7035   0.3569  -0.4339   0.3521  -0.2523   0.00    0.0
2023/05/16 09:01:37.000  -2414045.6668   5391602.0432   2396878.7986        -0.0000         0.0000         0.0000         0.0000     0.0000     0.0000   2  23   0.4449   0.7035   0.3568  -0.4340   0.3521  -0.2523   0.00    0.0
2023/05/16 09:01:38.000  -2414045.6630   5391602.0423   2396878.7905        -0.0000         0.0000         0.0000         0.0000     0.0000     0.0000   2  23   0.4449   0.7035   0.3568  -0.4340   0.3521  -0.2523   0.00    0.0
2023/05/16 09:01:39.000  -2414045.6654   5391602.0294   2396878.7941        -0.0000         0.0000         0.0000         0.0000     0.0000     0.0000   2  23   0.4449   0.7035   0.3568  -0.4340   0.3521  -0.2523   0.00    0.0
2023/05/16 09:01:40.000  -2414045.6610   5391602.0197   2396878.7901        -0.0000         0.0000         0.0000         0.0000     0.0000     0.0000   2  23   0.4449   0.7035   0.3568  -0.4340   0.3521  -0.2523   0.00    0.0
2023/05/16 09:01:41.000  -2414045.6574   5391602.0157   2396878.7934        -0.0000         0.0000         0.0000         0.0000     0.0000     0.0000   2  23   0.4449   0.7036   0.3568  -0.4340   0.3521  -0.2523   0.00    0.0
2023/05/16 09:01:42.000  -2414045.6730   5391602.0243   2396878.7923        -0.0000         0.0000         0.0000         0.0000     0.0000     0.0000   2  23   0.4449   0.7036   0.3568  -0.4340   0.3521  -0.2523   0.00    0.0
2023/05/16 09:01:43.000  -2414045.6772   5391602.0472   2396878.7934        -0.0000         0.0000         0.0000         0.0000     0.0000     0.0000   2  23   0.4449   0.7036   0.3568  -0.4340   0.3521  -0.2523   0.00    0.0
2023/05/16 09:01:44.000  -2414045.6785   5391602.0472   2396878.7949        -0.0000         0.0000         0.0000         0.0000     0.0000     0.0000   2  23   0.4449   0.7036   0.3568  -0.4340   0.3521  -0.2523   0.00    0.0
2023/05/16 09:01:45.000  -2414045.6827   5391602.0446   2396878.7880        -0.0000         0.0000         0.0000         0.0000     0.0000     0.0000   2  23   0.4449   0.7036   0.3568  -0.4341   0.3522  -0.2523   0.00    0.0
2023/05/16 09:01:46.000  -2414045.6851   5391602.0333   2396878.7854        -0.0000         0.0000         0.0000         0.0000     0.0000     0.0000   2  23   0.4449   0.7036   0.3568  -0.4341   0.3522  -0.2523   0.00    0.0
2023/05/16 09:01:47.000  -2414045.6870   5391602.0349   2396878.7880        -0.0000         0.0000         0.0000         0.0000     0.0000     0.0000   2  23   0.4449   0.7036   0.3568  -0.4341   0.3522  -0.2524   0.00    0.0
2023/05/16 09:01:48.000  -2414045.6797   5391602.0234   2396878.7791        -0.0000         0.0000         0.0000         0.0000     0.0000     0.0000   2  23   0.4449   0.7036   0.3568  -0.4341   0.3522  -0.2524   0.00    0.0
2023/05/16 09:01:49.000  -2414045.6968   5391602.0286   2396878.7865        -0.0000         0.0000         0.0000         0.0000     0.0000     0.0000   2  23   0.4449   0.7036   0.3568  -0.4341   0.3522  -0.2524   0.00    0.0
2023/05/16 09:01:50.000  -2414045.6907   5391602.0265   2396878.7846        -0.0000         0.0000         0.0000         0.0000     0.0000     0.0000   2  23   0.4450   0.7037   0.3568  -0.4341   0.3522  -0.2524   0.00    0.0
2023/05/16 09:01:51.000  -2414045.6846   5391602.0058   2396878.7804        -0.0000         0.0000         0.0000         0.0000     0.0000     0.0000   2  23   0.4450   0.7037   0.3568  -0.4341   0.3522  -0.2524   0.00    0.0
2023/05/16 09:01:52.000  -2414045.6744   5391601.9912   2396878.7662        -0.0000         0.0000         0.0000         0.0000     0.0000     0.0000   2  23   0.4450   0.7037   0.3568  -0.4341   0.3522  -0.2524   0.00    0.0
2023/05/16 09:01:53.000  -2414045.6735   5391601.9909   2396878.7675        -0.0000         0.0000         0.0000         0.0000     0.0000     0.0000   2  23   0.4450   0.7037   0.3568  -0.4341   0.3522  -0.2524   0.00    0.0
2023/05/16 09:01:54.000  -2414045.6790   5391601.9828   2396878.7689        -0.0000         0.0000         0.0000         0.0000     0.0000     0.0000   2  23   0.4450   0.7037   0.3568  -0.4342   0.3522  -0.2524   0.00    0.0
2023/05/16 09:01:55.000  -2414045.6710   5391601.9850   2396878.7622        -0.0000         0.0000         0.0000         0.0000     0.0000     0.0000   2  23   0.4450   0.7037   0.3568  -0.4342   0.3522  -0.2524   0.00    0.0
2023/05/16 09:01:56.000  -2414045.6677   5391601.9811   2396878.7684        -0.0000         0.0000         0.0000         0.0000     0.0000     0.0000   2  23   0.4450   0.7037   0.3568  -0.4342   0.3522  -0.2524   0.00    0.0
2023/05/16 09:01:57.000  -2414045.6756   5391601.9965   2396878.7678        -0.0000         0.0000         0.0000         0.0000     0.0000     0.0000   2  23   0.4450   0.7037   0.3568  -0.4342   0.3523  -0.2524   0.00    0.0
2023/05/16 09:01:58.000  -2414045.6868   5391602.0055   2396878.7663        -0.0000         0.0000         0.0000         0.0000     0.0000     0.0000   2  23   0.4450   0.7038   0.3567  -0.4342   0.3523  -0.2524   0.00    0.0
2023/05/16 09:01:59.000  -2414045.6841   5391602.0106   2396878.7675        -0.0000         0.0000         0.0000         0.0000     0.0000     0.0000   2  23   0.4450   0.7038   0.3567  -0.4342   0.3523  -0.2524   0.00    0.0
2023/05/16 09:02:00.000  -2414045.6903   5391602.0120   2396878.7669        -0.0000         0.0000         0.0000         0.0000     0.0000     0.0000   2  23   0.4450   0.7038   0.3567  -0.4342   0.3523  -0.2524   0.00    0.0
2023/05/16 09:02:01.000  -2414045.6575   5391601.9289   2396878.7072        -0.0000         0.0000         0.0000         0.0000     0.0000     0.0000   2  21   0.4519   0.7385   0.3980  -0.4538   0.4045  -0.2782   0.00    0.0
2023/05/16 09:02:02.000  -2414045.6499   5391601.8735   2396878.6734        -0.0000         0.0000         0.0000         0.0000     0.0000     0.0000   2  21   0.4573   0.7553   0.4045  -0.4659   0.4183  -0.2871   0.00    0.0
2023/05/16 09:02:03.000  -2414045.6426   5391601.8558   2396878.6544        -0.0000         0.0000         0.0000         0.0000     0.0000     0.0000   2  21   0.4593   0.7603   0.4053  -0.4699   0.4211  -0.2891   0.00    0.0
2023/05/16 09:02:04.000  -2414045.6501   5391601.9155   2396878.7106        -0.0000         0.0000         0.0000         0.0000     0.0000     0.0000   2  22   0.4558   0.7390   0.3806  -0.4589   0.3902  -0.2749   0.00    0.0
2023/05/16 09:02:05.000  -2414045.6970   5391602.0001   2396878.7592        -0.0000         0.0000         0.0000         0.0000     0.0000     0.0000   2  22   0.4530   0.7304   0.3776  -0.4528   0.3833  -0.2705   0.00    0.0
2023/05/16 09:02:06.000  -2414045.7229   5391602.0727   2396878.7892        -0.0000         0.0000         0.0000         0.0000     0.0000     0.0000   2  22   0.4522   0.7285   0.3774  -0.4512   0.3824  -0.2698   0.00    0.0
2023/05/16 09:02:07.000  -2414045.7463   5391602.1225   2396878.8030        -0.0000         0.0000         0.0000         0.0000     0.0000     0.0000   2  22   0.4523   0.7288   0.3774  -0.4514   0.3826  -0.2699   0.00    0.0
2023/05/16 09:02:08.000  -2414045.7472   5391602.1228   2396878.7932        -0.0000         0.0000         0.0000         0.0000     0.0000     0.0000   2  22   0.4524   0.7292   0.3775  -0.4517   0.3828  -0.2701   0.00    0.0
2023/05/16 09:02:09.000  -2414045.7430   5391602.1270   2396878.8072        -0.0000         0.0000         0.0000         0.0000     0.0000     0.0000   2  22   0.4524   0.7292   0.3775  -0.4517   0.3829  -0.2701   0.00    0.0
2023/05/16 09:02:10.000  -2414045.7647   5391602.1865   2396878.8513        -0.0000         0.0000         0.0000         0.0000     0.0000     0.0000   2  23   0.4484   0.7130   0.3592  -0.4413   0.3590  -0.2568   0.00    0.0
2023/05/16 09:02:11.000  -2414045.7441   5391602.0628   2396878.7303        -0.0000         0.0000         0.0000         0.0000     0.0000     0.0000   2  21   0.4530   0.7416   0.3985  -0.4562   0.4062  -0.2794   0.00    0.0
2023/05/16 09:02:12.000  -2414045.6953   5391601.9560   2396878.6829        -0.0000         0.0000         0.0000         0.0000     0.0000     0.0000   2  21   0.4577   0.7564   0.4047  -0.4667   0.4190  -0.2876   0.00    0.0
2023/05/16 09:02:13.000  -2414045.6656   5391601.8845   2396878.6644        -0.0000         0.0000         0.0000         0.0000     0.0000     0.0000   2  21   0.4596   0.7612   0.4055  -0.4705   0.4217  -0.2895   0.00    0.0
2023/05/16 09:02:14.000  -2414045.6538   5391601.8420   2396878.6529        -0.0000         0.0000         0.0000         0.0000     0.0000     0.0000   2  21   0.4599   0.7618   0.4056  -0.4710   0.4220  -0.2897   0.00    0.0
2023/05/16 09:02:15.000  -2414045.7116   5391602.0388   2396878.8125        -0.0000         0.0000         0.0000         0.0000     0.0000     0.0000   2  22   0.4560   0.7396   0.3807  -0.4595   0.3906  -0.2751   0.00    0.0
2023/05/16 09:02:16.000  -2414045.7474   5391602.0899   2396878.7921        -0.0000         0.0000         0.0000         0.0000     0.0000     0.0000   2  23   0.4493   0.7151   0.3593  -0.4431   0.3599  -0.2575   0.00    0.0
2023/05/16 09:02:17.000  -2414045.7834   5391602.1422   2396878.8189        -0.0000         0.0000         0.0000         0.0000     0.0000     0.0000   2  23   0.4463   0.7069   0.3571  -0.4368   0.3540  -0.2535   0.00    0.0
2023/05/16 09:02:18.000  -2414045.8058   5391602.1873   2396878.8417        -0.0000         0.0000         0.0000         0.0000     0.0000     0.0000   2  22   0.4495   0.7207   0.3748  -0.4453   0.3764  -0.2658   0.00    0.0
2023/05/16 09:02:19.000  -2414045.8062   5391602.1981   2396878.8395        -0.0000         0.0000         0.0000         0.0000     0.0000     0.0000   2  22   0.4518   0.7275   0.3772  -0.4504   0.3820  -0.2695   0.00    0.0
2023/05/16 09:02:20.000  -2414045.7962   5391602.1823   2396878.8421        -0.0000         0.0000         0.0000         0.0000     0.0000     0.0000   2  22   0.4525   0.7292   0.3775  -0.4517   0.3829  -0.2701   0.00    0.0
2023/05/16 09:02:21.000  -2414045.7937   5391602.1606   2396878.8398        -0.0000         0.0000         0.0000         0.0000     0.0000     0.0000   2  22   0.4524   0.7290   0.3774  -0.4515   0.3827  -0.2700   0.00    0.0
2023/05/16 09:02:22.000  -2414045.7797   5391602.1388   2396878.8456        -0.0000         0.0000         0.0000         0.0000     0.0000     0.0000   2  23   0.4483   0.7126   0.3590  -0.4411   0.3587  -0.2566   0.00    0.0
2023/05/16 09:02:23.000  -2414045.7854   5391602.1376   2396878.8343        -0.0000         0.0000         0.0000         0.0000     0.0000     0.0000   2  23   0.4460   0.7062   0.3569  -0.4362   0.3535  -0.2532   0.00    0.0
2023/05/16 09:02:24.000  -2414045.7722   5391602.1140   2396878.8231        -0.0000         0.0000         0.0000         0.0000     0.0000     0.0000   2  23   0.4454   0.7047   0.3567  -0.4350   0.3528  -0.2527   0.00    0.0
2023/05/16 09:02:25.000  -2414045.7718   5391602.0922   2396878.8102        -0.0000         0.0000         0.0000         0.0000     0.0000     0.0000   2  23   0.4455   0.7047   0.3567  -0.4350   0.3529  -0.2528   0.00    0.0
2023/05/16 09:02:26.000  -2414045.7508   5391602.0487   2396878.7906        -0.0000         0.0000         0.0000         0.0000     0.0000     0.0000   2  23   0.4455   0.7048   0.3568  -0.4350   0.3529  -0.2528   0.00    0.0
2023/05/16 09:02:27.000  -2414045.7393   5391602.0159   2396878.7686        -0.0000         0.0000         0.0000         0.0000     0.0000     0.0000   2  23   0.4454   0.7046   0.3567  -0.4349   0.3528  -0.2527   0.00    0.0
2023/05/16 09:02:28.000  -2414045.7359   5391602.0062   2396878.7563        -0.0000         0.0000         0.0000         0.0000     0.0000     0.0000   2  23   0.4454   0.7044   0.3567  -0.4348   0.3527  -0.2526   0.00    0.0
2023/05/16 09:02:29.000  -2414045.7355   5391602.0058   2396878.7687        -0.0000         0.0000         0.0000         0.0000     0.0000     0.0000   2  23   0.4453   0.7042   0.3566  -0.4346   0.3526  -0.2526   0.00    0.0
2023/05/16 09:02:30.000  -2414045.7484   5391602.0348   2396878.7867        -0.0000         0.0000         0.0000         0.0000     0.0000     0.0000   2  23   0.4453   0.7042   0.3566  -0.4346   0.3526  -0.2525   0.00    0.0
2023/05/16 09:02:31.000  -2414045.7627   5391602.0413   2396878.7850        -0.0000         0.0000         0.0000         0.0000     0.0000     0.0000   2  23   0.4453   0.7042   0.3566  -0.4346   0.3526  -0.2525   0.00    0.0
2023/05/16 09:02:32.000  -2414045.7594   5391602.0468   2396878.7818        -0.0000         0.0000         0.0000         0.0000     0.0000     0.0000   2  23   0.4453   0.7042   0.3566  -0.4346   0.3526  -0.2525   0.00    0.0
2023/05/16 09:02:33.000  -2414045.7705   5391602.0500   2396878.7953        -0.0000         0.0000         0.0000         0.0000     0.0000     0.0000   2  23   0.4453   0.7042   0.3566  -0.4346   0.3526  -0.2525   0.00    0.0
2023/05/16 09:02:34.000  -2414045.7724   5391602.0407   2396878.8066        -0.0000         0.0000         0.0000         0.0000     0.0000     0.0000   2  23   0.4453   0.7042   0.3566  -0.4346   0.3526  -0.2525   0.00    0.0
2023/05/16 09:02:35.000  -2414045.7621   5391602.0246   2396878.8017        -0.0000         0.0000         0.0000         0.0000     0.0000     0.0000   2  23   0.4453   0.7042   0.3566  -0.4346   0.3526  -0.2525   0.00    0.0
2023/05/16 09:02:36.000  -2414045.7584   5391601.9932   2396878.8129        -0.0000         0.0000         0.0000         0.0000     0.0000     0.0000   2  23   0.4453   0.7042   0.3566  -0.4346   0.3526  -0.2525   0.00    0.0
2023/05/16 09:02:37.000  -2414045.7568   5391602.0007   2396878.8113        -0.0000         0.0000         0.0000         0.0000     0.0000     0.0000   2  23   0.4453   0.7042   0.3566  -0.4346   0.3526  -0.2525   0.00    0.0
2023/05/16 09:02:38.000  -2414045.7444   5391601.9626   2396878.8102        -0.0000         0.0000         0.0000         0.0000     0.0000     0.0000   2  23   0.4453   0.7042   0.3566  -0.4346   0.3526  -0.2526   0.00    0.0
2023/05/16 09:02:39.000  -2414045.7421   5391601.9343   2396878.8150        -0.0000         0.0000         0.0000         0.0000     0.0000     0.0000   2  23   0.4453   0.7042   0.3566  -0.4347   0.3526  -0.2526   0.00    0.0
2023/05/16 09:02:40.000  -2414045.7350   5391601.9284   2396878.8161        -0.0000         0.0000         0.0000         0.0000     0.0000     0.0000   2  23   0.4453   0.7042   0.3566  -0.4347   0.3526  -0.2526   0.00    0.0
2023/05/16 09:02:41.000  -2414045.7255   5391601.9186   2396878.8033        -0.0000         0.0000         0.0000         0.0000     0.0000     0.0000   2  23   0.4453   0.7042   0.3565  -0.4347   0.3526  -0.2526   0.00    0.0
2023/05/16 09:02:42.000  -2414045.7148   5391601.8952   2396878.8028        -0.0000         0.0000         0.0000         0.0000     0.0000     0.0000   2  23   0.4453   0.7043   0.3565  -0.4347   0.3526  -0.2526   0.00    0.0
2023/05/16 09:02:43.000  -2414045.7100   5391601.9023   2396878.8008        -0.0000         0.0000         0.0000         0.0000     0.0000     0.0000   2  23   0.4454   0.7043   0.3565  -0.4347   0.3526  -0.2526   0.00    0.0
2023/05/16 09:02:44.000  -2414045.7236   5391601.9084   2396878.8084        -0.0000         0.0000         0.0000         0.0000     0.0000     0.0000   2  23   0.4454   0.7043   0.3565  -0.4347   0.3526  -0.2526   0.00    0.0
2023/05/16 09:02:45.000  -2414045.7084   5391601.9036   2396878.8138        -0.0000         0.0000         0.0000         0.0000     0.0000     0.0000   2  23   0.4454   0.7043   0.3565  -0.4347   0.3526  -0.2526   0.00    0.0
2023/05/16 09:02:46.000  -2414045.7015   5391601.8920   2396878.8094        -0.0000         0.0000         0.0000         0.0000     0.0000     0.0000   2  23   0.4454   0.7043   0.3565  -0.4347   0.3527  -0.2526   0.00    0.0
2023/05/16 09:02:47.000  -2414045.7022   5391601.8779   2396878.8064        -0.0000         0.0000         0.0000         0.0000     0.0000     0.0000   2  23   0.4454   0.7043   0.3565  -0.4347   0.3527  -0.2526   0.00    0.0
2023/05/16 09:02:48.000  -2414045.7030   5391601.8749   2396878.8033        -0.0000         0.0000         0.0000         0.0000     0.0000     0.0000   2  23   0.4454   0.7043   0.3565  -0.4347   0.3527  -0.2526   0.00    0.0
2023/05/16 09:02:49.000  -2414045.7044   5391601.8637   2396878.8005        -0.0000         0.0000         0.0000         0.0000     0.0000     0.0000   2  23   0.4454   0.7043   0.3565  -0.4348   0.3527  -0.2526   0.00    0.0
2023/05/16 09:02:50.000  -2414045.6998   5391601.8706   2396878.7962        -0.0000         0.0000         0.0000         0.0000     0.0000     0.0000   2  23   0.4454   0.7043   0.3565  -0.4348   0.3527  -0.2526   0.00    0.0
2023/05/16 09:02:51.000  -2414045.6964   5391601.8761   2396878.7960        -0.0000         0.0000         0.0000         0.0000     0.0000     0.0000   2  23   0.4454   0.7044   0.3565  -0.4348   0.3527  -0.2526   0.00    0.0
2023/05/16 09:02:52.000  -2414045.7112   5391601.8805   2396878.7901        -0.0000         0.0000         0.0000         0.0000     0.0000     0.0000   2  23   0.4454   0.7044   0.3565  -0.4348   0.3527  -0.2526   0.00    0.0
2023/05/16 09:02:53.000  -2414045.6944   5391601.8662   2396878.7968        -0.0000         0.0000         0.0000         0.0000     0.0000     0.0000   2  23   0.4454   0.7044   0.3565  -0.4348   0.3527  -0.2526   0.00    0.0
2023/05/16 09:02:54.000  -2414045.6866   5391601.8686   2396878.7929        -0.0000         0.0000         0.0000         0.0000     0.0000     0.0000   2  23   0.4454   0.7044   0.3565  -0.4348   0.3527  -0.2526   0.00    0.0
2023/05/16 09:02:55.000  -2414045.6945   5391601.8698   2396878.7972        -0.0000         0.0000         0.0000         0.0000     0.0000     0.0000   2  23   0.4454   0.7044   0.3565  -0.4348   0.3527  -0.2526   0.00    0.0
2023/05/16 09:02:56.000  -2414045.7053   5391601.8770   2396878.7960        -0.0000         0.0000         0.0000         0.0000     0.0000     0.0000   2  23   0.4455   0.7044   0.3565  -0.4348   0.3527  -0.2526   0.00    0.0
2023/05/16 09:02:57.000  -2414045.7031   5391601.8743   2396878.7904        -0.0000         0.0000         0.0000         0.0000     0.0000     0.0000   2  23   0.4455   0.7044   0.3565  -0.4348   0.3527  -0.2526   0.00    0.0
2023/05/16 09:02:58.000  -2414045.7184   5391601.8882   2396878.8008        -0.0000         0.0000         0.0000         0.0000     0.0000     0.0000   2  23   0.4455   0.7044   0.3565  -0.4349   0.3527  -0.2526   0.00    0.0
2023/05/16 09:02:59.000  -2414045.7182   5391601.8840   2396878.8064        -0.0000         0.0000         0.0000         0.0000     0.0000     0.0000   2  23   0.4455   0.7044   0.3565  -0.4349   0.3528  -0.2526   0.00    0.0
2023/05/16 09:03:00.000  -2414045.7288   5391601.8927   2396878.8033        -0.0000         0.0000         0.0000         0.0000     0.0000     0.0000   2  23   0.4455   0.7045   0.3565  -0.4349   0.3528  -0.2526   0.00    0.0
2023/05/16 09:03:01.000  -2414045.7135   5391601.8739   2396878.8005        -0.0000         0.0000         0.0000         0.0000     0.0000     0.0000   2  23   0.4455   0.7045   0.3565  -0.4349   0.3528  -0.2526   0.00    0.0
2023/05/16 09:03:02.000  -2414045.7165   5391601.8766   2396878.8021        -0.0000         0.0000         0.0000         0.0000     0.0000     0.0000   2  23   0.4455   0.7045   0.3565  -0.4349   0.3528  -0.2526   0.00    0.0
2023/05/16 09:03:03.000  -2414045.7179   5391601.8682   2396878.8061        -0.0000         0.0000         0.0000         0.0000     0.0000     0.0000   2  23   0.4455   0.7045   0.3564  -0.4349   0.3528  -0.2526   0.00    0.0
2023/05/16 09:03:04.000  -2414045.7157   5391601.8754   2396878.8020        -0.0000         0.0000         0.0000         0.0000     0.0000     0.0000   2  23   0.4455   0.7045   0.3564  -0.4349   0.3528  -0.2526   0.00    0.0
2023/05/16 09:03:05.000  -2414045.7211   5391601.8782   2396878.7974        -0.0000         0.0000         0.0000         0.0000     0.0000     0.0000   2  23   0.4455   0.7045   0.3564  -0.4349   0.3528  -0.2526   0.00    0.0
2023/05/16 09:03:06.000  -2414045.7248   5391601.8821   2396878.7982        -0.0000         0.0000         0.0000         0.0000     0.0000     0.0000   2  23   0.4455   0.7045   0.3564  -0.4349   0.3528  -0.2527   0.00    0.0
2023/05/16 09:03:07.000  -2414045.7329   5391601.8763   2396878.7947        -0.0000         0.0000         0.0000         0.0000     0.0000     0.0000   2  23   0.4455   0.7045   0.3564  -0.4349   0.3528  -0.2527   0.00    0.0
2023/05/16 09:03:08.000  -2414045.7453   5391601.8844   2396878.8015        -0.0000         0.0000         0.0000         0.0000     0.0000     0.0000   2  23   0.4455   0.7045   0.3564  -0.4350   0.3528  -0.2527   0.00    0.0
2023/05/16 09:03:09.000  -2414045.7451   5391601.8866   2396878.8011        -0.0000         0.0000         0.0000         0.0000     0.0000     0.0000   2  23   0.4455   0.7046   0.3564  -0.4350   0.3528  -0.2527   0.00    0.0
2023/05/16 09:03:10.000  -2414045.7425   5391601.8810   2396878.7843        -0.0000         0.0000         0.0000         0.0000     0.0000     0.0000   2  23   0.4456   0.7046   0.3564  -0.4350   0.3528  -0.2527   0.00    0.0
2023/05/16 09:03:11.000  -2414045.7395   5391601.8761   2396878.7848        -0.0000         0.0000         0.0000         0.0000     0.0000     0.0000   2  23   0.4456   0.7046   0.3564  -0.4350   0.3529  -0.2527   0.00    0.0
2023/05/16 09:03:12.000  -2414045.7424   5391601.8878   2396878.7868        -0.0000         0.0000         0.0000         0.0000     0.0000     0.0000   2  23   0.4456   0.7046   0.3564  -0.4350   0.3529  -0.2527   0.00    0.0
2023/05/16 09:03:13.000  -2414045.7386   5391601.8852   2396878.7789        -0.0000         0.0000         0.0000         0.0000     0.0000     0.0000   2  23   0.4456   0.7046   0.3564  -0.4350   0.3529  -0.2527   0.00    0.0
2023/05/16 09:03:14.000  -2414045.7442   5391601.8983   2396878.7781        -0.0000         0.0000         0.0000         0.0000     0.0000     0.0000   2  23   0.4456   0.7046   0.3564  -0.4350   0.3529  -0.2527   0.00    0.0
2023/05/16 09:03:15.000  -2414045.7400   5391601.9018   2396878.7719        -0.0000         0.0000         0.0000         0.0000     0.0000     0.0000   2  23   0.4456   0.7046   0.3564  -0.4350   0.3529  -0.2527   0.00    0.0
2023/05/16 09:03:16.000  -2414045.7410   5391601.8882   2396878.7689        -0.0000         0.0000         0.0000         0.0000     0.0000     0.0000   2  23   0.4456   0.7046   0.3564  -0.4350   0.3529  -0.2527   0.00    0.0
2023/05/16 09:03:17.000  -2414045.7344   5391601.8815   2396878.7699        -0.0000         0.0000         0.0000         0.0000     0.0000     0.0000   2  23   0.4456   0.7046   0.3564  -0.4350   0.3529  -0.2527   0.00    0.0
2023/05/16 09:03:18.000  -2414045.7350   5391601.8900   2396878.7707        -0.0000         0.0000         0.0000         0.0000     0.0000     0.0000   2  23   0.4456   0.7047   0.3564  -0.4351   0.3529  -0.2527   0.00    0.0
2023/05/16 09:03:19.000  -2414045.7256   5391601.8919   2396878.7684        -0.0000         0.0000         0.0000         0.0000     0.0000     0.0000   2  23   0.4456   0.7047   0.3564  -0.4351   0.3529  -0.2527   0.00    0.0
2023/05/16 09:03:20.000  -2414045.7206   5391601.8898   2396878.7705        -0.0000         0.0000         0.0000         0.0000     0.0000     0.0000   2  23   0.4456   0.7047   0.3564  -0.4351   0.3529  -0.2527   0.00    0.0
2023/05/16 09:03:21.000  -2414045.7245   5391601.8921   2396878.7582        -0.0000         0.0000         0.0000         0.0000     0.0000     0.0000   2  23   0.4456   0.7047   0.3564  -0.4351   0.3529  -0.2527   0.00    0.0
2023/05/16 09:03:22.000  -2414045.7206   5391601.8716   2396878.7635        -0.0000         0.0000         0.0000         0.0000     0.0000     0.0000   2  23   0.4456   0.7047   0.3564  -0.4351   0.3529  -0.2527   0.00    0.0
2023/05/16 09:03:23.000  -2414045.7171   5391601.8781   2396878.7632        -0.0000         0.0000         0.0000         0.0000     0.0000     0.0000   2  23   0.4456   0.7047   0.3564  -0.4351   0.3529  -0.2527   0.00    0.0
2023/05/16 09:03:24.000  -2414045.7092   5391601.8752   2396878.7550        -0.0000         0.0000         0.0000         0.0000     0.0000     0.0000   2  23   0.4457   0.7047   0.3564  -0.4351   0.3530  -0.2527   0.00    0.0
2023/05/16 09:03:25.000  -2414045.7177   5391601.8638   2396878.7519        -0.0000         0.0000         0.0000         0.0000     0.0000     0.0000   2  23   0.4457   0.7047   0.3563  -0.4351   0.3530  -0.2527   0.00    0.0
2023/05/16 09:03:26.000  -2414045.7016   5391601.8648   2396878.7478        -0.0000         0.0000         0.0000         0.0000     0.0000     0.0000   2  23   0.4457   0.7047   0.3563  -0.4351   0.3530  -0.2527   0.00    0.0
2023/05/16 09:03:27.000  -2414045.6960   5391601.8504   2396878.7458        -0.0000         0.0000         0.0000         0.0000     0.0000     0.0000   2  23   0.4457   0.7047   0.3563  -0.4351   0.3530  -0.2527   0.00    0.0
2023/05/16 09:03:28.000  -2414045.7024   5391601.8520   2396878.7395        -0.0000         0.0000         0.0000         0.0000     0.0000     0.0000   2  23   0.4457   0.7048   0.3563  -0.4352   0.3530  -0.2527   0.00    0.0
2023/05/16 09:03:29.000  -2414045.6901   5391601.8485   2396878.7375        -0.0000         0.0000         0.0000         0.0000     0.0000     0.0000   2  23   0.4457   0.7048   0.3563  -0.4352   0.3530  -0.2527   0.00    0.0
2023/05/16 09:03:30.000  -2414045.6884   5391601.8570   2396878.7347        -0.0000         0.0000         0.0000         0.0000     0.0000     0.0000   2  23   0.4457   0.7048   0.3563  -0.4352   0.3530  -0.2527   0.00    0.0
2023/05/16 09:03:31.000  -2414045.6855   5391601.8557   2396878.7285        -0.0000         0.0000         0.0000         0.0000     0.0000     0.0000   2  23   0.4457   0.7048   0.3563  -0.4352   0.3530  -0.2527   0.00    0.0
2023/05/16 09:03:32.000  -2414045.6795   5391601.8520   2396878.7283        -0.0000         0.0000         0.0000         0.0000     0.0000     0.0000   2  23   0.4457   0.7048   0.3563  -0.4352   0.3530  -0.2527   0.00    0.0
2023/05/16 09:03:33.000  -2414045.6767   5391601.8630   2396878.7288        -0.0000         0.0000         0.0000         0.0000     0.0000     0.0000   2  23   0.4457   0.7048   0.3563  -0.4352   0.3530  -0.2527   0.00    0.0
2023/05/16 09:03:34.000  -2414045.6742   5391601.8748   2396878.7226        -0.0000         0.0000         0.0000         0.0000     0.0000     0.0000   2  23   0.4457   0.7048   0.3563  -0.4352   0.3530  -0.2527   0.00    0.0
2023/05/16 09:03:35.000  -2414045.6720   5391601.8755   2396878.7209        -0.0000         0.0000         0.0000         0.0000     0.0000     0.0000   2  23   0.4457   0.7048   0.3563  -0.4352   0.3530  -0.2528   0.00    0.0
2023/05/16 09:03:36.000  -2414045.6507   5391601.8516   2396878.7134        -0.0000         0.0000         0.0000         0.0000     0.0000     0.0000   2  23   0.4457   0.7048   0.3563  -0.4352   0.3530  -0.2528   0.00    0.0
2023/05/16 09:03:37.000  -2414045.6511   5391601.8507   2396878.7106        -0.0000         0.0000         0.0000         0.0000     0.0000     0.0000   2  23   0.4457   0.7049   0.3563  -0.4352   0.3531  -0.2528   0.00    0.0
2023/05/16 09:03:38.000  -2414045.6534   5391601.8349   2396878.7067        -0.0000         0.0000         0.0000         0.0000     0.0000     0.0000   2  23   0.4458   0.7049   0.3563  -0.4353   0.3531  -0.2528   0.00    0.0
2023/05/16 09:03:39.000  -2414045.6511   5391601.8307   2396878.7075        -0.0000         0.0000         0.0000         0.0000     0.0000     0.0000   2  23   0.4458   0.7049   0.3563  -0.4353   0.3531  -0.2528   0.00    0.0
2023/05/16 09:03:40.000  -2414045.6512   5391601.8350   2396878.7064        -0.0000         0.0000         0.0000         0.0000     0.0000     0.0000   2  23   0.4458   0.7049   0.3563  -0.4353   0.3531  -0.2528   0.00    0.0
2023/05/16 09:03:41.000  -2414045.6910   5391601.9512   2396878.7988        -0.0000         0.0000         0.0000         0.0000     0.0000     0.0000   2  22   0.4494   0.7200   0.3741  -0.4448   0.3761  -0.2654   0.00    0.0
2023/05/16 09:03:42.000  -2414045.7212   5391602.0471   2396878.8379        -0.0000         0.0000         0.0000         0.0000     0.0000     0.0000   2  22   0.4518   0.7268   0.3765  -0.4499   0.3816  -0.2690   0.00    0.0
2023/05/16 09:03:43.000  -2414045.7476   5391602.0945   2396878.8487        -0.0000         0.0000         0.0000         0.0000     0.0000     0.0000   2  22   0.4525   0.7288   0.3768  -0.4515   0.3826  -0.2697   0.00    0.0
2023/05/16 09:03:44.000  -2414045.7571   5391602.1068   2396878.8544        -0.0000         0.0000         0.0000         0.0000     0.0000     0.0000   2  22   0.4526   0.7290   0.3768  -0.4517   0.3828  -0.2698   0.00    0.0
2023/05/16 09:03:45.000  -2414045.7460   5391602.0908   2396878.8416        -0.0000         0.0000         0.0000         0.0000     0.0000     0.0000   2  22   0.4526   0.7290   0.3768  -0.4517   0.3828  -0.2698   0.00    0.0
2023/05/16 09:03:46.000  -2414045.6711   5391601.9296   2396878.7394        -0.0000         0.0000         0.0000         0.0000     0.0000     0.0000   2  23   0.4488   0.7133   0.3586  -0.4417   0.3592  -0.2568   0.00    0.0
2023/05/16 09:03:47.000  -2414045.6167   5391601.8187   2396878.6983        -0.0000         0.0000         0.0000         0.0000     0.0000     0.0000   2  23   0.4467   0.7071   0.3565  -0.4371   0.3542  -0.2536   0.00    0.0
2023/05/16 09:03:48.000  -2414045.5790   5391601.7431   2396878.6711        -0.0000         0.0000         0.0000         0.0000     0.0000     0.0000   2  23   0.4461   0.7057   0.3564  -0.4359   0.3536  -0.2531   0.00    0.0
2023/05/16 09:03:49.000  -2414045.5566   5391601.6970   2396878.6505        -0.0000         0.0000         0.0000         0.0000     0.0000     0.0000   2  23   0.4461   0.7056   0.3564  -0.4359   0.3535  -0.2531   0.00    0.0
2023/05/16 09:03:50.000  -2414045.5459   5391601.6871   2396878.6616        -0.0000         0.0000         0.0000         0.0000     0.0000     0.0000   2  23   0.4461   0.7056   0.3564  -0.4359   0.3536  -0.2531   0.00    0.0
2023/05/16 09:03:51.000  -2414045.5509   5391601.6951   2396878.6653        -0.0000         0.0000         0.0000         0.0000     0.0000     0.0000   2  23   0.4460   0.7055   0.3563  -0.4357   0.3535  -0.2530   0.00    0.0
2023/05/16 09:03:52.000  -2414045.5526   5391601.6938   2396878.6708        -0.0000         0.0000         0.0000         0.0000     0.0000     0.0000   2  23   0.4459   0.7053   0.3563  -0.4356   0.3533  -0.2529   0.00    0.0
2023/05/16 09:03:53.000  -2414045.5442   5391601.6953   2396878.6743        -0.0000         0.0000         0.0000         0.0000     0.0000     0.0000   2  23   0.4459   0.7051   0.3562  -0.4355   0.3532  -0.2529   0.00    0.0
2023/05/16 09:03:54.000  -2414045.5426   5391601.6950   2396878.6789        -0.0000         0.0000         0.0000         0.0000     0.0000     0.0000   2  23   0.4459   0.7051   0.3562  -0.4354   0.3532  -0.2528   0.00    0.0
2023/05/16 09:03:55.000  -2414045.5454   5391601.7053   2396878.6909        -0.0000         0.0000         0.0000         0.0000     0.0000     0.0000   2  23   0.4459   0.7051   0.3562  -0.4354   0.3532  -0.2528   0.00    0.0
2023/05/16 09:03:56.000  -2414045.5487   5391601.7035   2396878.7047        -0.0000         0.0000         0.0000         0.0000     0.0000     0.0000   2  23   0.4459   0.7051   0.3562  -0.4355   0.3532  -0.2528   0.00    0.0
2023/05/16 09:03:57.000  -2414045.5453   5391601.6920   2396878.7029        -0.0000         0.0000         0.0000         0.0000     0.0000     0.0000   2  23   0.4459   0.7051   0.3562  -0.4355   0.3532  -0.2528   0.00    0.0
2023/05/16 09:03:58.000  -2414045.5213   5391601.6972   2396878.7040        -0.0000         0.0000         0.0000         0.0000     0.0000     0.0000   2  23   0.4459   0.7051   0.3562  -0.4355   0.3532  -0.2528   0.00    0.0
2023/05/16 09:03:59.000  -2414045.5163   5391601.6908   2396878.6951        -0.0000         0.0000         0.0000         0.0000     0.0000     0.0000   2  23   0.4459   0.7051   0.3562  -0.4355   0.3532  -0.2528   0.00    0.0
2023/05/16 09:04:00.000  -2414045.5129   5391601.6802   2396878.7018        -0.0000         0.0000         0.0000         0.0000     0.0000     0.0000   2  23   0.4459   0.7051   0.3562  -0.4355   0.3532  -0.2528   0.00    0.0
2023/05/16 09:04:01.000  -2414045.5067   5391601.6778   2396878.6956        -0.0000         0.0000         0.0000         0.0000     0.0000     0.0000   2  23   0.4459   0.7051   0.3562  -0.4355   0.3532  -0.2528   0.00    0.0
2023/05/16 09:04:02.000  -2414045.5040   5391601.6599   2396878.6951        -0.0000         0.0000         0.0000         0.0000     0.0000     0.0000   2  23   0.4459   0.7051   0.3562  -0.4355   0.3532  -0.2528   0.00    0.0
2023/05/16 09:04:03.000  -2414045.4939   5391601.6391   2396878.6937        -0.0000         0.0000         0.0000         0.0000     0.0000     0.0000   2  23   0.4459   0.7051   0.3562  -0.4355   0.3533  -0.2528   0.00    0.0
2023/05/16 09:04:04.000  -2414045.4804   5391601.6299   2396878.6948        -0.0000         0.0000         0.0000         0.0000     0.0000     0.0000   2  23   0.4459   0.7051   0.3562  -0.4355   0.3533  -0.2528   0.00    0.0
2023/05/16 09:04:05.000  -2414045.4737   5391601.6245   2396878.6954        -0.0000         0.0000         0.0000         0.0000     0.0000     0.0000   2  23   0.4459   0.7051   0.3562  -0.4355   0.3533  -0.2529   0.00    0.0
2023/05/16 09:04:06.000  -2414045.4664   5391601.6150   2396878.7004        -0.0000         0.0000         0.0000         0.0000     0.0000     0.0000   2  23   0.4459   0.7051   0.3562  -0.4355   0.3533  -0.2529   0.00    0.0
2023/05/16 09:04:07.000  -2414045.4572   5391601.6058   2396878.7022        -0.0000         0.0000         0.0000         0.0000     0.0000     0.0000   2  23   0.4460   0.7052   0.3562  -0.4355   0.3533  -0.2529   0.00    0.0
2023/05/16 09:04:08.000  -2414045.4668   5391601.6094   2396878.7013        -0.0000         0.0000         0.0000         0.0000     0.0000     0.0000   2  23   0.4460   0.7052   0.3562  -0.4355   0.3533  -0.2529   0.00    0.0
2023/05/16 09:04:09.000  -2414045.4528   5391601.5964   2396878.7088        -0.0000         0.0000         0.0000         0.0000     0.0000     0.0000   2  23   0.4460   0.7052   0.3562  -0.4355   0.3533  -0.2529   0.00    0.0
2023/05/16 09:04:10.000  -2414045.4456   5391601.5999   2396878.7065        -0.0000         0.0000         0.0000         0.0000     0.0000     0.0000   2  23   0.4460   0.7052   0.3562  -0.4356   0.3533  -0.2529   0.00    0.0
2023/05/16 09:04:11.000  -2414045.4359   5391601.5742   2396878.7093        -0.0000         0.0000         0.0000         0.0000     0.0000     0.0000   2  23   0.4460   0.7052   0.3562  -0.4356   0.3533  -0.2529   0.00    0.0
2023/05/16 09:04:12.000  -2414045.4324   5391601.5710   2396878.6994        -0.0000         0.0000         0.0000         0.0000     0.0000     0.0000   2  23   0.4460   0.7052   0.3561  -0.4356   0.3533  -0.2529   0.00    0.0
2023/05/16 09:04:13.000  -2414045.4251   5391601.5625   2396878.6980        -0.0000         0.0000         0.0000         0.0000     0.0000     0.0000   2  23   0.4460   0.7052   0.3561  -0.4356   0.3533  -0.2529   0.00    0.0
2023/05/16 09:04:14.000  -2414045.4285   5391601.5699   2396878.7052        -0.0000         0.0000         0.0000         0.0000     0.0000     0.0000   2  23   0.4460   0.7052   0.3561  -0.4356   0.3533  -0.2529   0.00    0.0
2023/05/16 09:04:15.000  -2414045.4240   5391601.5581   2396878.7081        -0.0000         0.0000         0.0000         0.0000     0.0000     0.0000   2  23   0.4460   0.7052   0.3561  -0.4356   0.3533  -0.2529   0.00    0.0
2023/05/16 09:04:16.000  -2414045.4123   5391601.5467   2396878.7039        -0.0000         0.0000         0.0000         0.0000     0.0000     0.0000   2  23   0.4460   0.7052   0.3561  -0.4356   0.3533  -0.2529   0.00    0.0
2023/05/16 09:04:17.000  -2414045.4158   5391601.5328   2396878.6928        -0.0000         0.0000         0.0000         0.0000     0.0000     0.0000   2  23   0.4460   0.7053   0.3561  -0.4356   0.3534  -0.2529   0.00    0.0
2023/05/16 09:04:18.000  -2414045.4074   5391601.5232   2396878.6950        -0.0000         0.0000         0.0000         0.0000     0.0000     0.0000   2  23   0.4460   0.7053   0.3561  -0.4356   0.3534  -0.2529   0.00    0.0
2023/05/16 09:04:19.000  -2414045.4119   5391601.5284   2396878.6905        -0.0000         0.0000         0.0000         0.0000     0.0000     0.0000   2  23   0.4460   0.7053   0.3561  -0.4356   0.3534  -0.2529   0.00    0.0
2023/05/16 09:04:20.000  -2414045.4142   5391601.5481   2396878.6866        -0.0000         0.0000         0.0000         0.0000     0.0000     0.0000   2  23   0.4460   0.7053   0.3561  -0.4356   0.3534  -0.2529   0.00    0.0
2023/05/16 09:04:21.000  -2414045.4641   5391601.6752   2396878.8003        -0.0000         0.0000         0.0000         0.0000     0.0000     0.0000   2  22   0.4497   0.7204   0.3740  -0.4452   0.3763  -0.2655   0.00    0.0
2023/05/16 09:04:22.000  -2414045.5055   5391601.7612   2396878.8391        -0.0000         0.0000         0.0000         0.0000     0.0000     0.0000   2  22   0.4520   0.7272   0.3764  -0.4503   0.3819  -0.2691   0.00    0.0
