% ref pos   : -2414266.9231  5386768.9940  2407460.0342
%  GPST                      x-ecef(m)      y-ecef(m)      z-ecef(m)   Q  ns   sdx(m)   sdy(m)   sdz(m)  sdxy(m)  sdyz(m)  sdzx(m) age(s)  ratio
2023/05/16 09:00:00.000  -2423816.9792   5386057.3793   2399883.2877        -0.0000         0.0000         0.0000         0.0000     0.0000     0.0000   2  22   0.5604   0.9225   0.4494  -0.6141   0.5165  -0.3882   0.00    0.0
2023/05/16 09:00:01.000  -2423816.9135   5386057.2444   2399883.1963        -0.0000         0.0000         0.0000         0.0000     0.0000     0.0000   2  20   0.5770   0.9987   0.5062  -0.6587   0.5976  -0.4293   0.00    0.0
2023/05/16 09:00:02.000  -2423816.9177   5386057.2643   2399883.1982        -0.0000         0.0000         0.0000         0.0000     0.0000     0.0000   2  20   0.5771   0.9990   0.5062  -0.6589   0.5978  -0.4294   0.00    0.0
2023/05/16 09:00:03.000  -2423816.9552   5386057.3605   2399883.2618        -0.0000         0.0000         0.0000         0.0000     0.0000     0.0000   2  21   0.5470   0.9213   0.4491  -0.6071   0.5223  -0.3823   0.00    0.0
2023/05/16 09:00:04.000  -2423816.9748   5386057.4040   2399883.2895        -0.0000         0.0000         0.0000         0.0000     0.0000     0.0000   2  21   0.5332   0.8908   0.4386  -0.5847   0.5020  -0.3682   0.00    0.0
2023/05/16 09:00:05.000  -2423816.9681   5386057.3892   2399883.2730        -0.0000         0.0000         0.0000         0.0000     0.0000     0.0000   2  21   0.5205   0.8602   0.4296  -0.5613   0.4813  -0.3541   0.00    0.0
2023/05/16 09:00:06.000  -2423816.9398   5386057.3431   2399883.2319        -0.0000         0.0000         0.0000         0.0000     0.0000     0.0000   2  21   0.5083   0.8304   0.4211  -0.5384   0.4611  -0.3404   0.00    0.0
2023/05/16 09:00:07.000  -2423816.9268   5386057.3182   2399883.2171        -0.0000         0.0000         0.0000         0.0000     0.0000     0.0000   2  21   0.4973   0.8036   0.4137  -0.5176   0.4429  -0.3280   0.00    0.0
2023/05/16 09:00:08.000  -2423816.9300   5386057.3288   2399883.2236        -0.0000         0.0000         0.0000         0.0000     0.0000     0.0000   2  21   0.4882   0.7809   0.4075  -0.4999   0.4274  -0.3176   0.00    0.0
2023/05/16 09:00:09.000  -2423816.9282   5386057.3343   2399883.2252        -0.0000         0.0000         0.0000         0.0000     0.0000     0.0000   2  21   0.4811   0.7631   0.4027  -0.4860   0.4151  -0.3093   0.00    0.0
2023/05/16 09:00:10.000  -2423816.9492   5386057.3713   2399883.2450        -0.0000         0.0000         0.0000         0.0000     0.0000     0.0000   2  22   0.4694   0.7313   0.3768  -0.4618   0.3780  -0.2856   0.00    0.0
2023/05/16 09:00:11.000  -2423816.9511   5386057.3660   2399883.2264        -0.0000         0.0000         0.0000         0.0000     0.0000     0.0000   2  20   0.4758   0.7584   0.4232  -0.4785   0.4294  -0.3142   0.00    0.0
2023/05/16 09:00:12.000  -2423816.9323   5386057.3337   2399883.2114        -0.0000         0.0000         0.0000         0.0000     0.0000     0.0000   2  20   0.4810   0.7728   0.4303  -0.4894   0.4429  -0.3230   0.00    0.0
2023/05/16 09:00:13.000  -2423816.9224   5386057.3048   2399883.2069        -0.0000         0.0000         0.0000         0.0000     0.0000     0.0000   2  20   0.4829   0.7774   0.4311  -0.4931   0.4454  -0.3248   0.00    0.0
2023/05/16 09:00:14.000  -2423816.9183   5386057.3101   2399883.2130        -0.0000         0.0000         0.0000         0.0000     0.0000     0.0000   2  20   0.4832   0.7779   0.4312  -0.4935   0.4456  -0.3250   0.00    0.0
2023/05/16 09:00:15.000  -2423816.9458   5386057.3954   2399883.2668        -0.0000         0.0000         0.0000         0.0000     0.0000     0.0000   2  22   0.4695   0.7317   0.3776  -0.4620   0.3791  -0.2862   0.00    0.0
2023/05/16 09:00:16.000  -2423816.9560   5386057.4152   2399883.2671        -0.0000         0.0000         0.0000         0.0000     0.0000     0.0000   2  22   0.4631   0.7147   0.3717  -0.4487   0.3651  -0.2771   0.00    0.0
2023/05/16 09:00:17.000  -2423816.9919   5386057.4920   2399883.3115        -0.0000         0.0000         0.0000         0.0000     0.0000     0.0000   2  22   0.4614   0.7107   0.3712  -0.4454   0.3631  -0.2757   0.00    0.0
2023/05/16 09:00:18.000  -2423816.9988   5386057.4943   2399883.3208        -0.0000         0.0000         0.0000         0.0000     0.0000     0.0000   2  22   0.4614   0.7106   0.3712  -0.4453   0.3631  -0.2757   0.00    0.0
2023/05/16 09:00:19.000  -2423817.0125   5386057.5151   2399883.3350        -0.0000         0.0000         0.0000         0.0000     0.0000     0.0000   2  22   0.4614   0.7106   0.3712  -0.4453   0.3631  -0.2757   0.00    0.0
2023/05/16 09:00:20.000  -2423817.0223   5386057.5447   2399883.3438        -0.0000         0.0000         0.0000         0.0000     0.0000     0.0000   2  22   0.4612   0.7101   0.3711  -0.4449   0.3628  -0.2755   0.00    0.0
2023/05/16 09:00:21.000  -2423817.0251   5386057.5382   2399883.3188        -0.0000         0.0000         0.0000         0.0000     0.0000     0.0000   2  22   0.4609   0.7095   0.3709  -0.4444   0.3624  -0.2752   0.00    0.0
2023/05/16 09:00:22.000  -2423817.0262   5386057.5316   2399883.3216        -0.0000         0.0000         0.0000         0.0000     0.0000     0.0000   2  22   0.4608   0.7091   0.3708  -0.4441   0.3621  -0.2750   0.00    0.0
2023/05/16 09:00:23.000  -2423817.0071   5386057.5220   2399883.3154        -0.0000         0.0000         0.0000         0.0000     0.0000     0.0000   2  22   0.4607   0.7089   0.3708  -0.4439   0.3619  -0.2749   0.00    0.0
2023/05/16 09:00:24.000  -2423816.9885   5386057.4968   2399883.3010        -0.0000         0.0000         0.0000         0.0000     0.0000     0.0000   2  22   0.4607   0.7089   0.3707  -0.4439   0.3619  -0.2749   0.00    0.0
2023/05/16 09:00:25.000  -2423816.9846   5386057.4904   2399883.2949        -0.0000         0.0000         0.0000         0.0000     0.0000     0.0000   2  22   0.4607   0.7089   0.3707  -0.4439   0.3619  -0.2749   0.00    0.0
2023/05/16 09:00:26.000  -2423816.9808   5386057.4817   2399883.2987        -0.0000         0.0000         0.0000         0.0000     0.0000     0.0000   2  22   0.4607   0.7089   0.3707  -0.4439   0.3619  -0.2749   0.00    0.0
2023/05/16 09:00:27.000  -2423816.9685   5386057.4884   2399883.2938        -0.0000         0.0000         0.0000         0.0000     0.0000     0.0000   2  22   0.4607   0.7089   0.3707  -0.4439   0.3619  -0.2749   0.00    0.0
2023/05/16 09:00:28.000  -2423816.9722   5386057.4824   2399883.2943        -0.0000         0.0000         0.0000         0.0000     0.0000     0.0000   2  22   0.4607   0.7089   0.3707  -0.4439   0.3619  -0.2749   0.00    0.0
2023/05/16 09:00:29.000  -2423816.9806   5386057.4871   2399883.2921        -0.0000         0.0000         0.0000         0.0000     0.0000     0.0000   2  22   0.4607   0.7089   0.3707  -0.4439   0.3619  -0.2749   0.00    0.0
2023/05/16 09:00:30.000  -2423816.9882   5386057.4902   2399883.2933        -0.0000         0.0000         0.0000         0.0000     0.0000     0.0000   2  22   0.4607   0.7089   0.3707  -0.4439   0.3619  -0.2749   0.00    0.0
2023/05/16 09:00:31.000  -2423816.9798   5386057.5132   2399883.2953        -0.0000         0.0000         0.0000         0.0000     0.0000     0.0000   2  22   0.4607   0.7089   0.3706  -0.4439   0.3619  -0.2749   0.00    0.0
2023/05/16 09:00:32.000  -2423816.9857   5386057.5242   2399883.2993        -0.0000         0.0000         0.0000         0.0000     0.0000     0.0000   2  22   0.4607   0.7089   0.3706  -0.4439   0.3619  -0.2748   0.00    0.0
2023/05/16 09:00:33.000  -2423817.0009   5386057.5386   2399883.3029        -0.0000         0.0000         0.0000         0.0000     0.0000     0.0000   2  22   0.4607   0.7089   0.3706  -0.4439   0.3619  -0.2748   0.00    0.0
2023/05/16 09:00:34.000  -2423817.0017   5386057.5307   2399883.2912        -0.0000         0.0000         0.0000         0.0000     0.0000     0.0000   2  22   0.4607   0.7089   0.3706  -0.4439   0.3619  -0.2748   0.00    0.0
2023/05/16 09:00:35.000  -2423817.0008   5386057.5277   2399883.2938        -0.0000         0.0000         0.0000         0.0000     0.0000     0.0000   2  22   0.4607   0.7089   0.3706  -0.4439   0.3619  -0.2748   0.00    0.0
2023/05/16 09:00:36.000  -2423817.0061   5386057.5275   2399883.2890        -0.0000         0.0000         0.0000         0.0000     0.0000     0.0000   2  22   0.4607   0.7089   0.3706  -0.4439   0.3619  -0.2748   0.00    0.0
2023/05/16 09:00:37.000  -2423816.9932   5386057.5244   2399883.2895        -0.0000         0.0000         0.0000         0.0000     0.0000     0.0000   2  22   0.4607   0.7089   0.3706  -0.4439   0.3618  -0.2748   0.00    0.0
2023/05/16 09:00:38.000  -2423816.9884   5386057.5218   2399883.2801        -0.0000         0.0000         0.0000         0.0000     0.0000     0.0000   2  22   0.4607   0.7089   0.3706  -0.4439   0.3618  -0.2748   0.00    0.0
2023/05/16 09:00:39.000  -2423816.9854   5386057.5126   2399883.2739        -0.0000         0.0000         0.0000         0.0000     0.0000     0.0000   2  22   0.4607   0.7089   0.3705  -0.4439   0.3618  -0.2748   0.00    0.0
2023/05/16 09:00:40.000  -2423816.9895   5386057.5026   2399883.2713        -0.0000         0.0000         0.0000         0.0000     0.0000     0.0000   2  22   0.4607   0.7089   0.3705  -0.4439   0.3618  -0.2748   0.00    0.0
2023/05/16 09:00:41.000  -2423816.9837   5386057.4980   2399883.2692        -0.0000         0.0000         0.0000         0.0000     0.0000     0.0000   2  22   0.4608   0.7089   0.3705  -0.4439   0.3618  -0.2748   0.00    0.0
2023/05/16 09:00:42.000  -2423816.9903   5386057.4938   2399883.2575        -0.0000         0.0000         0.0000         0.0000     0.0000     0.0000   2  22   0.4608   0.7089   0.3705  -0.4439   0.3618  -0.2748   0.00    0.0
2023/05/16 09:00:43.000  -2423816.9882   5386057.5034   2399883.2620        -0.0000         0.0000         0.0000         0.0000     0.0000     0.0000   2  22   0.4608   0.7089   0.3705  -0.4439   0.3618  -0.2748   0.00    0.0
2023/05/16 09:00:44.000  -2423816.9893   5386057.5067   2399883.2603        -0.0000         0.0000         0.0000         0.0000     0.0000     0.0000   2  22   0.4608   0.7089   0.3705  -0.4439   0.3618  -0.2748   0.00    0.0
2023/05/16 09:00:45.000  -2423816.9981   5386057.5033   2399883.2595        -0.0000         0.0000         0.0000         0.0000     0.0000     0.0000   2  22   0.4608   0.7090   0.3705  -0.4439   0.3618  -0.2748   0.00    0.0
2023/05/16 09:00:46.000  -2423817.0016   5386057.5118   2399883.2606        -0.0000         0.0000         0.0000         0.0000     0.0000     0.0000   2  22   0.4608   0.7090   0.3705  -0.4439   0.3618  -0.2748   0.00    0.0
2023/05/16 09:00:47.000  -2423817.0023   5386057.5154   2399883.2604        -0.0000         0.0000         0.0000         0.0000     0.0000     0.0000   2  22   0.4608   0.7090   0.3704  -0.4439   0.3618  -0.2748   0.00    0.0
2023/05/16 09:00:48.000  -2423816.9937   5386057.5158   2399883.2584        -0.0000         0.0000         0.0000         0.0000     0.0000     0.0000   2  22   0.4608   0.7090   0.3704  -0.4439   0.3618  -0.2748   0.00    0.0
2023/05/16 09:00:49.000  -2423817.0099   5386057.5238   2399883.2564        -0.0000         0.0000         0.0000         0.0000     0.0000     0.0000   2  22   0.4608   0.7090   0.3704  -0.4439   0.3618  -0.2748   0.00    0.0
2023/05/16 09:00:50.000  -2423817.0205   5386057.5317   2399883.2693        -0.0000         0.0000         0.0000         0.0000     0.0000     0.0000   2  22   0.4608   0.7090   0.3704  -0.4439   0.3618  -0.2748   0.00    0.0
2023/05/16 09:00:51.000  -2423817.0331   5386057.5441   2399883.2774        -0.0000         0.0000         0.0000         0.0000     0.0000     0.0000   2  22   0.4608   0.7090   0.3704  -0.4439   0.3618  -0.2748   0.00    0.0
2023/05/16 09:00:52.000  -2423817.0296   5386057.5601   2399883.2794        -0.0000         0.0000         0.0000         0.0000     0.0000     0.0000   2  22   0.4608   0.7090   0.3704  -0.4439   0.3618  -0.2748   0.00    0.0
2023/05/16 09:00:53.000  -2423817.0311   5386057.5518   2399883.2765        -0.0000         0.0000         0.0000         0.0000     0.0000     0.0000   2  22   0.4608   0.7090   0.3704  -0.4440   0.3618  -0.2748   0.00    0.0
2023/05/16 09:00:54.000  -2423817.0242   5386057.5507   2399883.2772        -0.0000         0.0000         0.0000         0.0000     0.0000     0.0000   2  22   0.4608   0.7090   0.3704  -0.4440   0.3618  -0.2748   0.00    0.0
2023/05/16 09:00:55.000  -2423817.0227   5386057.5507   2399883.2726        -0.0000         0.0000         0.0000         0.0000     0.0000     0.0000   2  22   0.4608   0.7090   0.3703  -0.4440   0.3618  -0.2747   0.00    0.0
2023/05/16 09:00:56.000  -2423817.0182   5386057.5467   2399883.2779        -0.0000         0.0000         0.0000         0.0000     0.0000     0.0000   2  22   0.4608   0.7090   0.3703  -0.4440   0.3618  -0.2747   0.00    0.0
2023/05/16 09:00:57.000  -2423817.0183   5386057.5372   2399883.2727        -0.0000         0.0000         0.0000         0.0000     0.0000     0.0000   2  22   0.4608   0.7090   0.3703  -0.4440   0.3618  -0.2747   0.00    0.0
2023/05/16 09:00:58.000  -2423817.0212   5386057.5348   2399883.2744        -0.0000         0.0000         0.0000         0.0000     0.0000     0.0000   2  22   0.4608   0.7090   0.3703  -0.4440   0.3618  -0.2747   0.00    0.0
2023/05/16 09:00:59.000  -2423817.0150   5386057.5291   2399883.2711        -0.0000         0.0000         0.0000         0.0000     0.0000     0.0000   2  22   0.4608   0.7090   0.3703  -0.4440   0.3618  -0.2747   0.00    0.0
2023/05/16 09:01:00.000  -2423817.0109   5386057.5224   2399883.2767        -0.0000         0.0000         0.0000         0.0000     0.0000     0.0000   2  22   0.4608   0.7091   0.3703  -0.4440   0.3618  -0.2747   0.00    0.0
2023/05/16 09:01:01.000  -2423817.0129   5386057.5205   2399883.2670        -0.0000         0.0000         0.0000         0.0000     0.0000     0.0000   2  22   0.4608   0.7091   0.3703  -0.4440   0.3618  -0.2747   0.00    0.0
2023/05/16 09:01:02.000  -2423817.0170   5386057.5232   2399883.2653        -0.0000         0.0000         0.0000         0.0000     0.0000     0.0000   2  22   0.4608   0.7091   0.3703  -0.4440   0.3618  -0.2747   0.00    0.0
2023/05/16 09:01:03.000  -2423817.0075   5386057.5190   2399883.2749        -0.0000         0.0000         0.0000         0.0000     0.0000     0.0000   2  22   0.4608   0.7091   0.3702  -0.4440   0.3618  -0.2747   0.00    0.0
2023/05/16 09:01:04.000  -2423817.0154   5386057.5230   2399883.2714        -0.0000         0.0000         0.0000         0.0000     0.0000     0.0000   2  22   0.4609   0.7091   0.3702  -0.4440   0.3618  -0.2747   0.00    0.0
2023/05/16 09:01:05.000  -2423817.0187   5386057.5170   2399883.2733        -0.0000         0.0000         0.0000         0.0000     0.0000     0.0000   2  22   0.4609   0.7091   0.3702  -0.4440   0.3618  -0.2747   0.00    0.0
2023/05/16 09:01:06.000  -2423817.0162   5386057.5068   2399883.2724        -0.0000         0.0000         0.0000         0.0000     0.0000     0.0000   2  22   0.4609   0.7091   0.3702  -0.4440   0.3618  -0.2747   0.00    0.0
2023/05/16 09:01:07.000  -2423817.0093   5386057.4923   2399883.2687        -0.0000         0.0000         0.0000         0.0000     0.0000     0.0000   2  22   0.4609   0.7091   0.3702  -0.4440   0.3618  -0.2747   0.00    0.0
2023/05/16 09:01:08.000  -2423817.0007   5386057.4915   2399883.2735        -0.0000         0.0000         0.0000         0.0000     0.0000     0.0000   2  22   0.4609   0.7091   0.3702  -0.4440   0.3618  -0.2747   0.00    0.0
2023/05/16 09:01:09.000  -2423817.0025   5386057.4787   2399883.2768        -0.0000         0.0000         0.0000         0.0000     0.0000     0.0000   2  22   0.4609   0.7091   0.3702  -0.4440   0.3618  -0.2747   0.00    0.0
2023/05/16 09:01:10.000  -2423816.9984   5386057.4806   2399883.2732        -0.0000         0.0000         0.0000         0.0000     0.0000     0.0000   2  22   0.4609   0.7091   0.3702  -0.4440   0.3618  -0.2747   0.00    0.0
2023/05/16 09:01:11.000  -2423817.0046   5386057.4670   2399883.2751        -0.0000         0.0000         0.0000         0.0000     0.0000     0.0000   2  22   0.4609   0.7091   0.3701  -0.4440   0.3618  -0.2747   0.00    0.0
2023/05/16 09:01:12.000  -2423817.0026   5386057.4508   2399883.2714        -0.0000         0.0000         0.0000         0.0000     0.0000     0.0000   2  22   0.4609   0.7091   0.3701  -0.4440   0.3618  -0.2747   0.00    0.0
2023/05/16 09:01:13.000  -2423816.9933   5386057.4440   2399883.2677        -0.0000         0.0000         0.0000         0.0000     0.0000     0.0000   2  22   0.4609   0.7091   0.3701  -0.4440   0.3618  -0.2747   0.00    0.0
2023/05/16 09:01:14.000  -2423816.9920   5386057.4375   2399883.2613        -0.0000         0.0000         0.0000         0.0000     0.0000     0.0000   2  22   0.4609   0.7091   0.3701  -0.4440   0.3618  -0.2747   0.00    0.0
2023/05/16 09:01:15.000  -2423816.9894   5386057.4254   2399883.2563        -0.0000         0.0000         0.0000         0.0000     0.0000     0.0000   2  22   0.4609   0.7091   0.3701  -0.4440   0.3618  -0.2747   0.00    0.0
2023/05/16 09:01:16.000  -2423816.9867   5386057.4051   2399883.2585        -0.0000         0.0000         0.0000         0.0000     0.0000     0.0000   2  22   0.4609   0.7092   0.3701  -0.4440   0.3618  -0.2746   0.00    0.0
2023/05/16 09:01:17.000  -2423816.9850   5386057.3945   2399883.2586        -0.0000         0.0000         0.0000         0.0000     0.0000     0.0000   2  22   0.4609   0.7092   0.3701  -0.4440   0.3618  -0.2746   0.00    0.0
2023/05/16 09:01:18.000  -2423816.9867   5386057.3937   2399883.2602        -0.0000         0.0000         0.0000         0.0000     0.0000     0.0000   2  22   0.4609   0.7092   0.3701  -0.4440   0.3618  -0.2746   0.00    0.0
2023/05/16 09:01:19.000  -2423816.9901   5386057.3980   2399883.2585        -0.0000         0.0000         0.0000         0.0000     0.0000     0.0000   2  22   0.4609   0.7092   0.3700  -0.4440   0.3618  -0.2746   0.00    0.0
2023/05/16 09:01:20.000  -2423816.9795   5386057.3810   2399883.2585        -0.0000         0.0000         0.0000         0.0000     0.0000     0.0000   2  22   0.4609   0.7092   0.3700  -0.4440   0.3618  -0.2746   0.00    0.0
2023/05/16 09:01:21.000  -2423816.9749   5386057.3733   2399883.2578        -0.0000         0.0000         0.0000         0.0000     0.0000     0.0000   2  22   0.4609   0.7092   0.3700  -0.4441   0.3618  -0.2746   0.00    0.0
2023/05/16 09:01:22.000  -2423816.9693   5386057.3520   2399883.2594        -0.0000         0.0000         0.0000         0.0000     0.0000     0.0000   2  22   0.4609   0.7092   0.3700  -0.4441   0.3618  -0.2746   0.00    0.0
2023/05/16 09:01:23.000  -2423816.9620   5386057.3369   2399883.2542        -0.0000         0.0000         0.0000         0.0000     0.0000     0.0000   2  22   0.4609   0.7092   0.3700  -0.4441   0.3618  -0.2746   0.00    0.0
2023/05/16 09:01:24.000  -2423816.9595   5386057.3183   2399883.2601        -0.0000         0.0000         0.0000         0.0000     0.0000     0.0000   2  22   0.4609   0.7092   0.3700  -0.4441   0.3618  -0.2746   0.00    0.0
2023/05/16 09:01:25.000  -2423816.9619   5386057.2995   2399883.2611        -0.0000         0.0000         0.0000         0.0000     0.0000     0.0000   2  22   0.4609   0.7092   0.3700  -0.4441   0.3618  -0.2746   0.00    0.0
2023/05/16 09:01:26.000  -2423816.9545   5386057.2901   2399883.2622        -0.0000         0.0000         0.0000         0.0000     0.0000     0.0000   2  22   0.4609   0.7092   0.3700  -0.4441   0.3618  -0.2746   0.00    0.0
2023/05/16 09:01:27.000  -2423816.9600   5386057.2840   2399883.2681        -0.0000         0.0000         0.0000         0.0000     0.0000     0.0000   2  22   0.4610   0.7092   0.3700  -0.4441   0.3618  -0.2746   0.00    0.0
2023/05/16 09:01:28.000  -2423816.9580   5386057.2599   2399883.2526        -0.0000         0.0000         0.0000         0.0000     0.0000     0.0000   2  22   0.4610   0.7092   0.3699  -0.4441   0.3618  -0.2746   0.00    0.0
2023/05/16 09:01:29.000  -2423816.9545   5386057.2501   2399883.2550        -0.0000         0.0000         0.0000         0.0000     0.0000     0.0000   2  22   0.4610   0.7092   0.3699  -0.4441   0.3618  -0.2746   0.00    0.0
2023/05/16 09:01:30.000  -2423816.9448   5386057.2392   2399883.2530        -0.0000         0.0000         0.0000         0.0000     0.0000     0.0000   2  22   0.4610   0.7092   0.3699  -0.4441   0.3618  -0.2746   0.00    0.0
2023/05/16 09:01:31.000  -2423816.9432   5386057.2291   2399883.2536        -0.0000         0.0000         0.0000         0.0000     0.0000     0.0000   2  22   0.4610   0.7092   0.3699  -0.4441   0.3618  -0.2746   0.00    0.0
2023/05/16 09:01:32.000  -2423816.9394   5386057.2160   2399883.2451        -0.0000         0.0000         0.0000         0.0000     0.0000     0.0000   2  22   0.4610   0.7092   0.3699  -0.4441   0.3618  -0.2746   0.00    0.0
2023/05/16 09:01:33.000  -2423816.9367   5386057.2053   2399883.2529        -0.0000         0.0000         0.0000         0.0000     0.0000     0.0000   2  22   0.4610   0.7093   0.3699  -0.4441   0.3618  -0.2746   0.00    0.0
2023/05/16 09:01:34.000  -2423816.9367   5386057.2079   2399883.2563        -0.0000         0.0000         0.0000         0.0000     0.0000     0.0000   2  22   0.4610   0.7093   0.3699  -0.4441   0.3618  -0.2746   0.00    0.0
2023/05/16 09:01:35.000  -2423816.9392   5386057.1969   2399883.2527        -0.0000         0.0000         0.0000         0.0000     0.0000     0.0000   2  22   0.4610   0.7093   0.3699  -0.4441   0.3618  -0.2746   0.00    0.0
2023/05/16 09:01:36.000  -2423816.9357   5386057.1878   2399883.2510        -0.0000         0.0000         0.0000         0.0000     0.0000     0.0000   2  22   0.4610   0.7093   0.3698  -0.4441   0.3618  -0.2746   0.00    0.0
2023/05/16 09:01:37.000  -2423816.9341   5386057.1700   2399883.2458        -0.0000         0.0000         0.0000         0.0000     0.0000     0.0000   2  22   0.4610   0.7093   0.3698  -0.4441   0.3618  -0.2746   0.00    0.0
2023/05/16 09:01:38.000  -2423816.9262   5386057.1646   2399883.2419        -0.0000         0.0000         0.0000         0.0000     0.0000     0.0000   2  22   0.4610   0.7093   0.3698  -0.4441   0.3618  -0.2745   0.00    0.0
2023/05/16 09:01:39.000  -2423816.9205   5386057.1379   2399883.2398        -0.0000         0.0000         0.0000         0.0000     0.0000     0.0000   2  22   0.4610   0.7093   0.3698  -0.4441   0.3618  -0.2745   0.00    0.0
2023/05/16 09:01:40.000  -2423816.9137   5386057.1174   2399883.2343        -0.0000         0.0000         0.0000         0.0000     0.0000     0.0000   2  22   0.4610   0.7093   0.3698  -0.4441   0.3618  -0.2745   0.00    0.0
2023/05/16 09:01:41.000  -2423816.9085   5386057.1087   2399883.2377        -0.0000         0.0000         0.0000         0.0000     0.0000     0.0000   2  22   0.4610   0.7093   0.3698  -0.4441   0.3618  -0.2745   0.00    0.0
2023/05/16 09:01:42.000  -2423816.9141   5386057.1034   2399883.2278        -0.0000         0.0000         0.0000         0.0000     0.0000     0.0000   2  22   0.4610   0.7093   0.3698  -0.4441   0.3618  -0.2745   0.00    0.0
2023/05/16 09:01:43.000  -2423816.9180   5386057.1039   2399883.2377        -0.0000         0.0000         0.0000         0.0000     0.0000     0.0000   2  22   0.4610   0.7093   0.3698  -0.4441   0.3618  -0.2745   0.00    0.0
2023/05/16 09:01:44.000  -2423816.9087   5386057.1091   2399883.2406        -0.0000         0.0000         0.0000         0.0000     0.0000     0.0000   2  22   0.4610   0.7093   0.3697  -0.4441   0.3618  -0.2745   0.00    0.0
2023/05/16 09:01:45.000  -2423816.9110   5386057.1038   2399883.2370        -0.0000         0.0000         0.0000         0.0000     0.0000     0.0000   2  22   0.4610   0.7093   0.3697  -0.4441   0.3618  -0.2745   0.00    0.0
2023/05/16 09:01:46.000  -2423816.9151   5386057.0995   2399883.2360        -0.0000         0.0000         0.0000         0.0000     0.0000     0.0000   2  22   0.4610   0.7093   0.3697  -0.4441   0.3618  -0.2745   0.00    0.0
2023/05/16 09:01:47.000  -2423816.9139   5386057.0855   2399883.2421        -0.0000         0.0000         0.0000         0.0000     0.0000     0.0000   2  22   0.4610   0.7093   0.3697  -0.4441   0.3618  -0.2745   0.00    0.0
2023/05/16 09:01:48.000  -2423816.9142   5386057.0785   2399883.2308        -0.0000         0.0000         0.0000         0.0000     0.0000     0.0000   2  22   0.4610   0.7093   0.3697  -0.4441   0.3618  -0.2745   0.00    0.0
2023/05/16 09:01:49.000  -2423816.9228   5386057.0775   2399883.2364        -0.0000         0.0000         0.0000         0.0000     0.0000     0.0000   2  22   0.4610   0.7094   0.3697  -0.4441   0.3618  -0.2745   0.00    0.0
2023/05/16 09:01:50.000  -2423816.9084   5386057.0696   2399883.2441        -0.0000         0.0000         0.0000         0.0000     0.0000     0.0000   2  22   0.4610   0.7094   0.3697  -0.4441   0.3618  -0.2745   0.00    0.0
2023/05/16 09:01:51.000  -2423816.9091   5386057.0527   2399883.2388        -0.0000         0.0000         0.0000         0.0000     0.0000     0.0000   2  22   0.4610   0.7094   0.3697  -0.4441   0.3618  -0.2745   0.00    0.0
2023/05/16 09:01:52.000  -2423816.9038   5386057.0375   2399883.2334        -0.0000         0.0000         0.0000         0.0000     0.0000     0.0000   2  22   0.4611   0.7094   0.3696  -0.4441   0.3618  -0.2745   0.00    0.0
2023/05/16 09:01:53.000  -2423816.8977   5386057.0368   2399883.2390        -0.0000         0.0000         0.0000         0.0000     0.0000     0.0000   2  22   0.4611   0.7094   0.3696  -0.4442   0.3618  -0.2745   0.00    0.0
2023/05/16 09:01:54.000  -2423816.8939   5386057.0125   2399883.2365        -0.0000         0.0000         0.0000         0.0000     0.0000     0.0000   2  22   0.4611   0.7094   0.3696  -0.4442   0.3618  -0.2745   0.00    0.0
2023/05/16 09:01:55.000  -2423816.8806   5386057.0042   2399883.2298        -0.0000         0.0000         0.0000         0.0000     0.0000     0.0000   2  22   0.4611   0.7094   0.3696  -0.4442   0.3618  -0.2745   0.00    0.0
2023/05/16 09:01:56.000  -2423816.8866   5386056.9958   2399883.2302        -0.0000         0.0000         0.0000         0.0000     0.0000     0.0000   2  22   0.4611   0.7094   0.3696  -0.4442   0.3618  -0.2745   0.00    0.0
2023/05/16 09:01:57.000  -2423816.8733   5386056.9758   2399883.2292        -0.0000         0.0000         0.0000         0.0000     0.0000     0.0000   2  22   0.4611   0.7094   0.3696  -0.4442   0.3618  -0.2745   0.00    0.0
2023/05/16 09:01:58.000  -2423816.8734   5386056.9695   2399883.2330        -0.0000         0.0000         0.0000         0.0000     0.0000     0.0000   2  22   0.4611   0.7094   0.3696  -0.4442   0.3618  -0.2744   0.00    0.0
2023/05/16 09:01:59.000  -2423816.8727   5386056.9631   2399883.2367        -0.0000         0.0000         0.0000         0.0000     0.0000     0.0000   2  22   0.4611   0.7094   0.3696  -0.4442   0.3618  -0.2744   0.00    0.0
2023/05/16 09:02:00.000  -2423816.8748   5386056.9580   2399883.2302        -0.0000         0.0000         0.0000         0.0000     0.0000     0.0000   2  22   0.4611   0.7094   0.3696  -0.4442   0.3618  -0.2744   0.00    0.0
2023/05/16 09:02:01.000  -2423816.8995   5386057.0287   2399883.3054        -0.0000         0.0000         0.0000         0.0000     0.0000     0.0000   2  20   0.4721   0.7487   0.4188  -0.4706   0.4219  -0.3086   0.00    0.0
2023/05/16 09:02:02.000  -2423816.9313   5386057.0879   2399883.3289        -0.0000         0.0000         0.0000         0.0000     0.0000     0.0000   2  20   0.4795   0.7687   0.4272  -0.4859   0.4389  -0.3198   0.00    0.0
2023/05/16 09:02:03.000  -2423816.9564   5386057.1323   2399883.3411        -0.0000         0.0000         0.0000         0.0000     0.0000     0.0000   2  20   0.4821   0.7750   0.4284  -0.4909   0.4427  -0.3224   0.00    0.0
2023/05/16 09:02:04.000  -2423816.9370   5386057.1027   2399883.3183        -0.0000         0.0000         0.0000         0.0000     0.0000     0.0000   2  21   0.4759   0.7501   0.3983  -0.4754   0.4062  -0.3027   0.00    0.0
2023/05/16 09:02:05.000  -2423816.9528   5386057.1235   2399883.3448        -0.0000         0.0000         0.0000         0.0000     0.0000     0.0000   2  21   0.4721   0.7399   0.3944  -0.4675   0.3977  -0.2972   0.00    0.0
2023/05/16 09:02:06.000  -2423816.9547   5386057.1396   2399883.3619        -0.0000         0.0000         0.0000         0.0000     0.0000     0.0000   2  21   0.4711   0.7374   0.3941  -0.4655   0.3964  -0.2963   0.00    0.0
2023/05/16 09:02:07.000  -2423816.9463   5386057.1399   2399883.3600        -0.0000         0.0000         0.0000         0.0000     0.0000     0.0000   2  21   0.4712   0.7377   0.3942  -0.4658   0.3967  -0.2964   0.00    0.0
2023/05/16 09:02:08.000  -2423816.9300   5386057.0952   2399883.3342        -0.0000         0.0000         0.0000         0.0000     0.0000     0.0000   2  21   0.4714   0.7382   0.3943  -0.4661   0.3970  -0.2966   0.00    0.0
2023/05/16 09:02:09.000  -2423816.9207   5386057.0774   2399883.3436        -0.0000         0.0000         0.0000         0.0000     0.0000     0.0000   2  21   0.4714   0.7382   0.3943  -0.4661   0.3970  -0.2966   0.00    0.0
2023/05/16 09:02:10.000  -2423816.8985   5386057.0204   2399883.3083        -0.0000         0.0000         0.0000         0.0000     0.0000     0.0000   2  22   0.4652   0.7201   0.3725  -0.4527   0.3697  -0.2796   0.00    0.0
2023/05/16 09:02:11.000  -2423816.8935   5386057.0113   2399883.3062        -0.0000         0.0000         0.0000         0.0000     0.0000     0.0000   2  20   0.4735   0.7522   0.4193  -0.4734   0.4239  -0.3099   0.00    0.0
2023/05/16 09:02:12.000  -2423816.8955   5386056.9970   2399883.3048        -0.0000         0.0000         0.0000         0.0000     0.0000     0.0000   2  20   0.4800   0.7699   0.4273  -0.4868   0.4397  -0.3202   0.00    0.0
2023/05/16 09:02:13.000  -2423816.9022   5386057.0012   2399883.3206        -0.0000         0.0000         0.0000         0.0000     0.0000     0.0000   2  20   0.4824   0.7759   0.4285  -0.4915   0.4431  -0.3226   0.00    0.0
2023/05/16 09:02:14.000  -2423816.9055   5386056.9991   2399883.3236        -0.0000         0.0000         0.0000         0.0000     0.0000     0.0000   2  20   0.4828   0.7767   0.4287  -0.4922   0.4437  -0.3230   0.00    0.0
2023/05/16 09:02:15.000  -2423816.9346   5386057.0950   2399883.4058        -0.0000         0.0000         0.0000         0.0000     0.0000     0.0000   2  21   0.4762   0.7508   0.3983  -0.4759   0.4066  -0.3029   0.00    0.0
2023/05/16 09:02:16.000  -2423816.8681   5386056.9429   2399883.2474        -0.0000         0.0000         0.0000         0.0000     0.0000     0.0000   2  22   0.4663   0.7225   0.3727  -0.4547   0.3708  -0.2804   0.00    0.0
2023/05/16 09:02:17.000  -2423816.8326   5386056.8653   2399883.2388        -0.0000         0.0000         0.0000         0.0000     0.0000     0.0000   2  22   0.4625   0.7130   0.3699  -0.4470   0.3636  -0.2756   0.00    0.0
2023/05/16 09:02:18.000  -2423816.8644   5386056.9371   2399883.3165        -0.0000         0.0000         0.0000         0.0000     0.0000     0.0000   2  21   0.4675   0.7281   0.3908  -0.4582   0.3891  -0.2913   0.00    0.0
2023/05/16 09:02:19.000  -2423816.8875   5386056.9908   2399883.3319        -0.0000         0.0000         0.0000         0.0000     0.0000     0.0000   2  21   0.4706   0.7361   0.3938  -0.4644   0.3958  -0.2958   0.00    0.0
2023/05/16 09:02:20.000  -2423816.8891   5386057.0173   2399883.3438        -0.0000         0.0000         0.0000         0.0000     0.0000     0.0000   2  21   0.4714   0.7381   0.3941  -0.4660   0.3969  -0.2965   0.00    0.0
2023/05/16 09:02:21.000  -2423816.9037   5386057.0260   2399883.3520        -0.0000         0.0000         0.0000         0.0000     0.0000     0.0000   2  21   0.4713   0.7378   0.3940  -0.4658   0.3967  -0.2964   0.00    0.0
2023/05/16 09:02:22.000  -2423816.8647   5386056.9453   2399883.2880        -0.0000         0.0000         0.0000         0.0000     0.0000     0.0000   2  22   0.4650   0.7195   0.3722  -0.4522   0.3692  -0.2793   0.00    0.0
2023/05/16 09:02:23.000  -2423816.8377   5386056.8908   2399883.2615        -0.0000         0.0000         0.0000         0.0000     0.0000     0.0000   2  22   0.4622   0.7120   0.3696  -0.4463   0.3630  -0.2752   0.00    0.0
2023/05/16 09:02:24.000  -2423816.8094   5386056.8351   2399883.2429        -0.0000         0.0000         0.0000         0.0000     0.0000     0.0000   2  22   0.4615   0.7103   0.3694  -0.4448   0.3622  -0.2746   0.00    0.0
2023/05/16 09:02:25.000  -2423816.7975   5386056.7939   2399883.2273        -0.0000         0.0000         0.0000         0.0000     0.0000     0.0000   2  22   0.4615   0.7103   0.3694  -0.4448   0.3622  -0.2746   0.00    0.0
2023/05/16 09:02:26.000  -2423816.7652   5386056.7551   2399883.2113        -0.0000         0.0000         0.0000         0.0000     0.0000     0.0000   2  22   0.4615   0.7104   0.3694  -0.4449   0.3623  -0.2747   0.00    0.0
2023/05/16 09:02:27.000  -2423816.7665   5386056.7354   2399883.1895        -0.0000         0.0000         0.0000         0.0000     0.0000     0.0000   2  22   0.4614   0.7102   0.3694  -0.4447   0.3621  -0.2746   0.00    0.0
2023/05/16 09:02:28.000  -2423816.7546   5386056.7127   2399883.1760        -0.0000         0.0000         0.0000         0.0000     0.0000     0.0000   2  22   0.4613   0.7099   0.3693  -0.4445   0.3620  -0.2745   0.00    0.0
2023/05/16 09:02:29.000  -2423816.7554   5386056.7184   2399883.1886        -0.0000         0.0000         0.0000         0.0000     0.0000     0.0000   2  22   0.4613   0.7097   0.3692  -0.4444   0.3618  -0.2744   0.00    0.0
2023/05/16 09:02:30.000  -2423816.7665   5386056.7396   2399883.1993        -0.0000         0.0000         0.0000         0.0000     0.0000     0.0000   2  22   0.4612   0.7096   0.3692  -0.4443   0.3618  -0.2743   0.00    0.0
2023/05/16 09:02:31.000  -2423816.7785   5386056.7533   2399883.2020        -0.0000         0.0000         0.0000         0.0000     0.0000     0.0000   2  22   0.4612   0.7096   0.3692  -0.4443   0.3617  -0.2743   0.00    0.0
2023/05/16 09:02:32.000  -2423816.7781   5386056.7556   2399883.1992        -0.0000         0.0000         0.0000         0.0000     0.0000     0.0000   2  22   0.4612   0.7096   0.3692  -0.4443   0.3617  -0.2743   0.00    0.0
2023/05/16 09:02:33.000  -2423816.7838   5386056.7750   2399883.2140        -0.0000         0.0000         0.0000         0.0000     0.0000     0.0000   2  22   0.4612   0.7096   0.3692  -0.4443   0.3617  -0.2743   0.00    0.0
2023/05/16 09:02:34.000  -2423816.7803   5386056.7803   2399883.2273        -0.0000         0.0000         0.0000         0.0000     0.0000     0.0000   2  22   0.4612   0.7096   0.3692  -0.4443   0.3617  -0.2743   0.00    0.0
2023/05/16 09:02:35.000  -2423816.7816   5386056.7801   2399883.2210        -0.0000         0.0000         0.0000         0.0000     0.0000     0.0000   2  22   0.4612   0.7096   0.3691  -0.4443   0.3617  -0.2743   0.00    0.0
2023/05/16 09:02:36.000  -2423816.7810   5386056.7614   2399883.2302        -0.0000         0.0000         0.0000         0.0000     0.0000     0.0000   2  22   0.4612   0.7096   0.3691  -0.4443   0.3617  -0.2743   0.00    0.0
2023/05/16 09:02:37.000  -2423816.7843   5386056.7687   2399883.2280        -0.0000         0.0000         0.0000         0.0000     0.0000     0.0000   2  22   0.4612   0.7096   0.3691  -0.4443   0.3617  -0.2743   0.00    0.0
2023/05/16 09:02:38.000  -2423816.7781   5386056.7534   2399883.2206        -0.0000         0.0000         0.0000         0.0000     0.0000     0.0000   2  22   0.4612   0.7096   0.3691  -0.4443   0.3617  -0.2742   0.00    0.0
2023/05/16 09:02:39.000  -2423816.7700   5386056.7388   2399883.2218        -0.0000         0.0000         0.0000         0.0000     0.0000     0.0000   2  22   0.4612   0.7096   0.3691  -0.4443   0.3617  -0.2742   0.00    0.0
2023/05/16 09:02:40.000  -2423816.7676   5386056.7321   2399883.2205        -0.0000         0.0000         0.0000         0.0000     0.0000     0.0000   2  22   0.4612   0.7096   0.3691  -0.4443   0.3617  -0.2742   0.00    0.0
2023/05/16 09:02:41.000  -2423816.7547   5386056.7165   2399883.2064        -0.0000         0.0000         0.0000         0.0000     0.0000     0.0000   2  22   0.4612   0.7096   0.3691  -0.4443   0.3617  -0.2742   0.00    0.0
2023/05/16 09:02:42.000  -2423816.7481   5386056.6991   2399883.2049        -0.0000         0.0000         0.0000         0.0000     0.0000     0.0000   2  22   0.4612   0.7096   0.3691  -0.4443   0.3617  -0.2742   0.00    0.0
2023/05/16 09:02:43.000  -2423816.7483   5386056.7104   2399883.2076        -0.0000         0.0000         0.0000         0.0000     0.0000     0.0000   2  22   0.4612   0.7097   0.3690  -0.4443   0.3617  -0.2742   0.00    0.0
2023/05/16 09:02:44.000  -2423816.7507   5386056.7102   2399883.2128        -0.0000         0.0000         0.0000         0.0000     0.0000     0.0000   2  22   0.4612   0.7097   0.3690  -0.4443   0.3617  -0.2742   0.00    0.0
2023/05/16 09:02:45.000  -2423816.7556   5386056.7149   2399883.2156        -0.0000         0.0000         0.0000         0.0000     0.0000     0.0000   2  22   0.4613   0.7097   0.3690  -0.4443   0.3617  -0.2742   0.00    0.0
2023/05/16 09:02:46.000  -2423816.7582   5386056.7203   2399883.2215        -0.0000         0.0000         0.0000         0.0000     0.0000     0.0000   2  22   0.4613   0.7097   0.3690  -0.4443   0.3617  -0.2742   0.00    0.0
2023/05/16 09:02:47.000  -2423816.7715   5386056.7291   2399883.2287        -0.0000         0.0000         0.0000         0.0000     0.0000     0.0000   2  22   0.4613   0.7097   0.3690  -0.4443   0.3617  -0.2742   0.00    0.0
2023/05/16 09:02:48.000  -2423816.7730   5386056.7321   2399883.2224        -0.0000         0.0000         0.0000         0.0000     0.0000     0.0000   2  22   0.4613   0.7097   0.3690  -0.4443   0.3617  -0.2742   0.00    0.0
2023/05/16 09:02:49.000  -2423816.7677   5386056.7189   2399883.2204        -0.0000         0.0000         0.0000         0.0000     0.0000     0.0000   2  22   0.4613   0.7097   0.3690  -0.4443   0.3617  -0.2742   0.00    0.0
2023/05/16 09:02:50.000  -2423816.7659   5386056.7231   2399883.2192        -0.0000         0.0000         0.0000         0.0000     0.0000     0.0000   2  22   0.4613   0.7097   0.3690  -0.4443   0.3617  -0.2742   0.00    0.0
2023/05/16 09:02:51.000  -2423816.7608   5386056.7253   2399883.2197        -0.0000         0.0000         0.0000         0.0000     0.0000     0.0000   2  22   0.4613   0.7097   0.3689  -0.4443   0.3617  -0.2742   0.00    0.0
2023/05/16 09:02:52.000  -2423816.7696   5386056.7196   2399883.2152        -0.0000         0.0000         0.0000         0.0000     0.0000     0.0000   2  22   0.4613   0.7097   0.3689  -0.4443   0.3617  -0.2742   0.00    0.0
2023/05/16 09:02:53.000  -2423816.7615   5386056.7183   2399883.2166        -0.0000         0.0000         0.0000         0.0000     0.0000     0.0000   2  22   0.4613   0.7097   0.3689  -0.4443   0.3617  -0.2742   0.00    0.0
2023/05/16 09:02:54.000  -2423816.7606   5386056.7179   2399883.2155        -0.0000         0.0000         0.0000         0.0000     0.0000     0.0000   2  22   0.4613   0.7097   0.3689  -0.4443   0.3617  -0.2742   0.00    0.0
2023/05/16 09:02:55.000  -2423816.7598   5386056.7127   2399883.2217        -0.0000         0.0000         0.0000         0.0000     0.0000     0.0000   2  22   0.4613   0.7097   0.3689  -0.4443   0.3617  -0.2742   0.00    0.0
2023/05/16 09:02:56.000  -2423816.7765   5386056.7166   2399883.2172        -0.0000         0.0000         0.0000         0.0000     0.0000     0.0000   2  22   0.4613   0.7097   0.3689  -0.4443   0.3617  -0.2742   0.00    0.0
2023/05/16 09:02:57.000  -2423816.7714   5386056.7082   2399883.2152        -0.0000         0.0000         0.0000         0.0000     0.0000     0.0000   2  22   0.4613   0.7097   0.3689  -0.4443   0.3617  -0.2741   0.00    0.0
2023/05/16 09:02:58.000  -2423816.7737   5386056.7209   2399883.2198        -0.0000         0.0000         0.0000         0.0000     0.0000     0.0000   2  22   0.4613   0.7097   0.3689  -0.4443   0.3617  -0.2741   0.00    0.0
2023/05/16 09:02:59.000  -2423816.7749   5386056.7157   2399883.2230        -0.0000         0.0000         0.0000         0.0000     0.0000     0.0000   2  22   0.4613   0.7097   0.3688  -0.4443   0.3617  -0.2741   0.00    0.0
2023/05/16 09:03:00.000  -2423816.7941   5386056.7256   2399883.2248        -0.0000         0.0000         0.0000         0.0000     0.0000     0.0000   2  22   0.4613   0.7097   0.3688  -0.4443   0.3617  -0.2741   0.00    0.0
2023/05/16 09:03:01.000  -2423816.7826   5386056.7277   2399883.2187        -0.0000         0.0000         0.0000         0.0000     0.0000     0.0000   2  22   0.4613   0.7097   0.3688  -0.4443   0.3617  -0.2741   0.00    0.0
2023/05/16 09:03:02.000  -2423816.7913   5386056.7428   2399883.2271        -0.0000         0.0000         0.0000         0.0000     0.0000     0.0000   2  22   0.4613   0.7097   0.3688  -0.4443   0.3617  -0.2741   0.00    0.0
2023/05/16 09:03:03.000  -2423816.7940   5386056.7397   2399883.2323        -0.0000         0.0000         0.0000         0.0000     0.0000     0.0000   2  22   0.4613   0.7098   0.3688  -0.4443   0.3617  -0.2741   0.00    0.0
2023/05/16 09:03:04.000  -2423816.7885   5386056.7568   2399883.2303        -0.0000         0.0000         0.0000         0.0000     0.0000     0.0000   2  22   0.4613   0.7098   0.3688  -0.4443   0.3617  -0.2741   0.00    0.0
2023/05/16 09:03:05.000  -2423816.7910   5386056.7568   2399883.2270        -0.0000         0.0000         0.0000         0.0000     0.0000     0.0000   2  22   0.4613   0.7098   0.3688  -0.4443   0.3617  -0.2741   0.00    0.0
2023/05/16 09:03:06.000  -2423816.8040   5386056.7650   2399883.2332        -0.0000         0.0000         0.0000         0.0000     0.0000     0.0000   2  22   0.4613   0.7098   0.3688  -0.4443   0.3617  -0.2741   0.00    0.0
2023/05/16 09:03:07.000  -2423816.7985   5386056.7513   2399883.2266        -0.0000         0.0000         0.0000         0.0000     0.0000     0.0000   2  22   0.4613   0.7098   0.3688  -0.4443   0.3617  -0.2741   0.00    0.0
2023/05/16 09:03:08.000  -2423816.8059   5386056.7510   2399883.2284        -0.0000         0.0000         0.0000         0.0000     0.0000     0.0000   2  22   0.4613   0.7098   0.3687  -0.4443   0.3617  -0.2741   0.00    0.0
2023/05/16 09:03:09.000  -2423816.7984   5386056.7412   2399883.2328        -0.0000         0.0000         0.0000         0.0000     0.0000     0.0000   2  22   0.4613   0.7098   0.3687  -0.4443   0.3617  -0.2741   0.00    0.0
2023/05/16 09:03:10.000  -2423816.8024   5386056.7186   2399883.2194        -0.0000         0.0000         0.0000         0.0000     0.0000     0.0000   2  22   0.4613   0.7098   0.3687  -0.4443   0.3617  -0.2741   0.00    0.0
2023/05/16 09:03:11.000  -2423816.7967   5386056.7202   2399883.2148        -0.0000         0.0000         0.0000         0.0000     0.0000     0.0000   2  22   0.4613   0.7098   0.3687  -0.4443   0.3617  -0.2741   0.00    0.0
2023/05/16 09:03:12.000  -2423816.7906   5386056.7111   2399883.2168        -0.0000         0.0000         0.0000         0.0000     0.0000     0.0000   2  22   0.4613   0.7098   0.3687  -0.4443   0.3617  -0.2741   0.00    0.0
2023/05/16 09:03:13.000  -2423816.7926   5386056.7101   2399883.2253        -0.0000         0.0000         0.0000         0.0000     0.0000     0.0000   2  22   0.4613   0.7098   0.3687  -0.4443   0.3617  -0.2741   0.00    0.0
2023/05/16 09:03:14.000  -2423816.8026   5386056.7181   2399883.2268        -0.0000         0.0000         0.0000         0.0000     0.0000     0.0000   2  22   0.4614   0.7098   0.3687  -0.4443   0.3616  -0.2741   0.00    0.0
2023/05/16 09:03:15.000  -2423816.8067   5386056.7278   2399883.2325        -0.0000         0.0000         0.0000         0.0000     0.0000     0.0000   2  22   0.4614   0.7098   0.3687  -0.4443   0.3616  -0.2740   0.00    0.0
2023/05/16 09:03:16.000  -2423816.8140   5386056.7419   2399883.2334        -0.0000         0.0000         0.0000         0.0000     0.0000     0.0000   2  22   0.4614   0.7098   0.3687  -0.4443   0.3616  -0.2740   0.00    0.0
2023/05/16 09:03:17.000  -2423816.8253   5386056.7365   2399883.2368        -0.0000         0.0000         0.0000         0.0000     0.0000     0.0000   2  22   0.4614   0.7098   0.3686  -0.4443   0.3616  -0.2740   0.00    0.0
2023/05/16 09:03:18.000  -2423816.8239   5386056.7422   2399883.2445        -0.0000         0.0000         0.0000         0.0000     0.0000     0.0000   2  22   0.4614   0.7098   0.3686  -0.4443   0.3616  -0.2740   0.00    0.0
2023/05/16 09:03:19.000  -2423816.8382   5386056.7629   2399883.2479        -0.0000         0.0000         0.0000         0.0000     0.0000     0.0000   2  22   0.4614   0.7098   0.3686  -0.4443   0.3616  -0.2740   0.00    0.0
2023/05/16 09:03:20.000  -2423816.8348   5386056.7667   2399883.2550        -0.0000         0.0000         0.0000         0.0000     0.0000     0.0000   2  22   0.4614   0.7098   0.3686  -0.4443   0.3616  -0.2740   0.00    0.0
2023/05/16 09:03:21.000  -2423816.8398   5386056.7739   2399883.2614        -0.0000         0.0000         0.0000         0.0000     0.0000     0.0000   2  22   0.4614   0.7098   0.3686  -0.4443   0.3616  -0.2740   0.00    0.0
2023/05/16 09:03:22.000  -2423816.8408   5386056.7731   2399883.2685        -0.0000         0.0000         0.0000         0.0000     0.0000     0.0000   2  22   0.4614   0.7098   0.3686  -0.4443   0.3616  -0.2740   0.00    0.0
2023/05/16 09:03:23.000  -2423816.8493   5386056.7883   2399883.2680        -0.0000         0.0000         0.0000         0.0000     0.0000     0.0000   2  22   0.4614   0.7099   0.3686  -0.4443   0.3616  -0.2740   0.00    0.0
2023/05/16 09:03:24.000  -2423816.8437   5386056.7859   2399883.2640        -0.0000         0.0000         0.0000         0.0000     0.0000     0.0000   2  22   0.4614   0.7099   0.3686  -0.4443   0.3616  -0.2740   0.00    0.0
2023/05/16 09:03:25.000  -2423816.8368   5386056.7652   2399883.2698        -0.0000         0.0000         0.0000         0.0000     0.0000     0.0000   2  22   0.4614   0.7099   0.3685  -0.4443   0.3616  -0.2740   0.00    0.0
2023/05/16 09:03:26.000  -2423816.8356   5386056.7711   2399883.2622        -0.0000         0.0000         0.0000         0.0000     0.0000     0.0000   2  22   0.4614   0.7099   0.3685  -0.4443   0.3616  -0.2740   0.00    0.0
2023/05/16 09:03:27.000  -2423816.8366   5386056.7703   2399883.2637        -0.0000         0.0000         0.0000         0.0000     0.0000     0.0000   2  22   0.4614   0.7099   0.3685  -0.4444   0.3616  -0.2740   0.00    0.0
2023/05/16 09:03:28.000  -2423816.8314   5386056.7665   2399883.2650        -0.0000         0.0000         0.0000         0.0000     0.0000     0.0000   2  22   0.4614   0.7099   0.3685  -0.4444   0.3616  -0.2740   0.00    0.0
2023/05/16 09:03:29.000  -2423816.8369   5386056.7717   2399883.2716        -0.0000         0.0000         0.0000         0.0000     0.0000     0.0000   2  22   0.4614   0.7099   0.3685  -0.4444   0.3616  -0.2740   0.00    0.0
2023/05/16 09:03:30.000  -2423816.8291   5386056.7727   2399883.2683        -0.0000         0.0000         0.0000         0.0000     0.0000     0.0000   2  22   0.4614   0.7099   0.3685  -0.4444   0.3616  -0.2740   0.00    0.0
2023/05/16 09:03:31.000  -2423816.8314   5386056.7655   2399883.2705        -0.0000         0.0000         0.0000         0.0000     0.0000     0.0000   2  22   0.4614   0.7099   0.3685  -0.4444   0.3616  -0.2740   0.00    0.0
2023/05/16 09:03:32.000  -2423816.8262   5386056.7628   2399883.2746        -0.0000         0.0000         0.0000         0.0000     0.0000     0.0000   2  22   0.4614   0.7099   0.3685  -0.4444   0.3616  -0.2740   0.00    0.0
2023/05/16 09:03:33.000  -2423816.8338   5386056.7772   2399883.2754        -0.0000         0.0000         0.0000         0.0000     0.0000     0.0000   2  22   0.4614   0.7099   0.3685  -0.4444   0.3616  -0.2740   0.00    0.0
2023/05/16 09:03:34.000  -2423816.8366   5386056.7728   2399883.2764        -0.0000         0.0000         0.0000         0.0000     0.0000     0.0000   2  22   0.4614   0.7099   0.3684  -0.4444   0.3616  -0.2739   0.00    0.0
2023/05/16 09:03:35.000  -2423816.8316   5386056.7817   2399883.2766        -0.0000         0.0000         0.0000         0.0000     0.0000     0.0000   2  22   0.4614   0.7099   0.3684  -0.4444   0.3616  -0.2739   0.00    0.0
2023/05/16 09:03:36.000  -2423816.8130   5386056.7504   2399883.2770        -0.0000         0.0000         0.0000         0.0000     0.0000     0.0000   2  22   0.4614   0.7099   0.3684  -0.4444   0.3616  -0.2739   0.00    0.0
2023/05/16 09:03:37.000  -2423816.8139   5386056.7493   2399883.2794        -0.0000         0.0000         0.0000         0.0000     0.0000     0.0000   2  22   0.4614   0.7099   0.3684  -0.4444   0.3616  -0.2739   0.00    0.0
2023/05/16 09:03:38.000  -2423816.8189   5386056.7293   2399883.2713        -0.0000         0.0000         0.0000         0.0000     0.0000     0.0000   2  22   0.4614   0.7099   0.3684  -0.4444   0.3616  -0.2739   0.00    0.0
2023/05/16 09:03:39.000  -2423816.8059   5386056.7381   2399883.2750        -0.0000         0.0000         0.0000         0.0000     0.0000     0.0000   2  22   0.4614   0.7099   0.3684  -0.4444   0.3616  -0.2739   0.00    0.0
2023/05/16 09:03:40.000  -2423816.7966   5386056.7236   2399883.2779        -0.0000         0.0000         0.0000         0.0000     0.0000     0.0000   2  22   0.4614   0.7099   0.3684  -0.4444   0.3616  -0.2739   0.00    0.0
2023/05/16 09:03:41.000  -2423816.8297   5386056.7720   2399883.3265        -0.0000         0.0000         0.0000         0.0000     0.0000     0.0000   2  21   0.4670   0.7266   0.3893  -0.4567   0.3875  -0.2899   0.00    0.0
2023/05/16 09:03:42.000  -2423816.8423   5386056.8096   2399883.3496        -0.0000         0.0000         0.0000         0.0000     0.0000     0.0000   2  21   0.4700   0.7344   0.3922  -0.4628   0.3941  -0.2943   0.00    0.0
2023/05/16 09:03:43.000  -2423816.8628   5386056.8375   2399883.3631        -0.0000         0.0000         0.0000         0.0000     0.0000     0.0000   2  21   0.4709   0.7367   0.3926  -0.4647   0.3954  -0.2951   0.00    0.0
2023/05/16 09:03:44.000  -2423816.8607   5386056.8256   2399883.3640        -0.0000         0.0000         0.0000         0.0000     0.0000     0.0000   2  21   0.4710   0.7370   0.3926  -0.4649   0.3955  -0.2952   0.00    0.0
2023/05/16 09:03:45.000  -2423816.8497   5386056.8089   2399883.3616        -0.0000         0.0000         0.0000         0.0000     0.0000     0.0000   2  21   0.4710   0.7370   0.3926  -0.4649   0.3955  -0.2952   0.00    0.0
2023/05/16 09:03:46.000  -2423816.8151   5386056.7300   2399883.3111        -0.0000         0.0000         0.0000         0.0000     0.0000     0.0000   2  22   0.4652   0.7195   0.3711  -0.4520   0.3688  -0.2786   0.00    0.0
2023/05/16 09:03:47.000  -2423816.7847   5386056.6816   2399883.3020        -0.0000         0.0000         0.0000         0.0000     0.0000     0.0000   2  22   0.4625   0.7125   0.3686  -0.4464   0.3629  -0.2748   0.00    0.0
2023/05/16 09:03:48.000  -2423816.7681   5386056.6426   2399883.2827        -0.0000         0.0000         0.0000         0.0000     0.0000     0.0000   2  22   0.4618   0.7108   0.3684  -0.4450   0.3621  -0.2742   0.00    0.0
2023/05/16 09:03:49.000  -2423816.7498   5386056.6035   2399883.2682        -0.0000         0.0000         0.0000         0.0000     0.0000     0.0000   2  22   0.4617   0.7107   0.3684  -0.4450   0.3621  -0.2742   0.00    0.0
2023/05/16 09:03:50.000  -2423816.7532   5386056.5861   2399883.2790        -0.0000         0.0000         0.0000         0.0000     0.0000     0.0000   2  22   0.4617   0.7107   0.3684  -0.4450   0.3621  -0.2742   0.00    0.0
2023/05/16 09:03:51.000  -2423816.7460   5386056.5882   2399883.2824        -0.0000         0.0000         0.0000         0.0000     0.0000     0.0000   2  22   0.4617   0.7105   0.3684  -0.4448   0.3619  -0.2741   0.00    0.0
2023/05/16 09:03:52.000  -2423816.7432   5386056.5830   2399883.2878        -0.0000         0.0000         0.0000         0.0000     0.0000     0.0000   2  22   0.4616   0.7103   0.3683  -0.4446   0.3618  -0.2740   0.00    0.0
2023/05/16 09:03:53.000  -2423816.7537   5386056.5944   2399883.2977        -0.0000         0.0000         0.0000         0.0000     0.0000     0.0000   2  22   0.4615   0.7101   0.3682  -0.4445   0.3617  -0.2739   0.00    0.0
2023/05/16 09:03:54.000  -2423816.7653   5386056.6082   2399883.3115        -0.0000         0.0000         0.0000         0.0000     0.0000     0.0000   2  22   0.4615   0.7100   0.3682  -0.4444   0.3616  -0.2739   0.00    0.0
2023/05/16 09:03:55.000  -2423816.7666   5386056.6125   2399883.3163        -0.0000         0.0000         0.0000         0.0000     0.0000     0.0000   2  22   0.4615   0.7100   0.3682  -0.4444   0.3616  -0.2738   0.00    0.0
2023/05/16 09:03:56.000  -2423816.7754   5386056.6236   2399883.3321        -0.0000         0.0000         0.0000         0.0000     0.0000     0.0000   2  22   0.4615   0.7100   0.3682  -0.4444   0.3616  -0.2738   0.00    0.0
2023/05/16 09:03:57.000  -2423816.7737   5386056.6176   2399883.3349        -0.0000         0.0000         0.0000         0.0000     0.0000     0.0000   2  22   0.4615   0.7100   0.3682  -0.4444   0.3616  -0.2738   0.00    0.0
2023/05/16 09:03:58.000  -2423816.7633   5386056.6277   2399883.3399        -0.0000         0.0000         0.0000         0.0000     0.0000     0.0000   2  22   0.4615   0.7100   0.3682  -0.4444   0.3616  -0.2738   0.00    0.0
2023/05/16 09:03:59.000  -2423816.7597   5386056.6226   2399883.3344        -0.0000         0.0000         0.0000         0.0000     0.0000     0.0000   2  22   0.4615   0.7100   0.3682  -0.4444   0.3616  -0.2738   0.00    0.0
2023/05/16 09:04:00.000  -2423816.7536   5386056.6206   2399883.3379        -0.0000         0.0000         0.0000         0.0000     0.0000     0.0000   2  22   0.4615   0.7100   0.3681  -0.4444   0.3616  -0.2738   0.00    0.0
2023/05/16 09:04:01.000  -2423816.7562   5386056.6331   2399883.3421        -0.0000         0.0000         0.0000         0.0000     0.0000     0.0000   2  22   0.4615   0.7100   0.3681  -0.4444   0.3616  -0.2738   0.00    0.0
2023/05/16 09:04:02.000  -2423816.7627   5386056.6273   2399883.3418        -0.0000         0.0000         0.0000         0.0000     0.0000     0.0000   2  22   0.4615   0.7100   0.3681  -0.4444   0.3616  -0.2738   0.00    0.0
2023/05/16 09:04:03.000  -2423816.7670   5386056.6284   2399883.3389        -0.0000         0.0000         0.0000         0.0000     0.0000     0.0000   2  22   0.4615   0.7100   0.3681  -0.4444   0.3616  -0.2738   0.00    0.0
2023/05/16 09:04:04.000  -2423816.7541   5386056.6348   2399883.3377        -0.0000         0.0000         0.0000         0.0000     0.0000     0.0000   2  22   0.4615   0.7100   0.3681  -0.4444   0.3616  -0.2738   0.00    0.0
2023/05/16 09:04:05.000  -2423816.7518   5386056.6355   2399883.3441        -0.0000         0.0000         0.0000         0.0000     0.0000     0.0000   2  22   0.4615   0.7100   0.3681  -0.4444   0.3616  -0.2738   0.00    0.0
2023/05/16 09:04:06.000  -2423816.7536   5386056.6407   2399883.3519        -0.0000         0.0000         0.0000         0.0000     0.0000     0.0000   2  22   0.4615   0.7100   0.3681  -0.4444   0.3616  -0.2738   0.00    0.0
2023/05/16 09:04:07.000  -2423816.7602   5386056.6604   2399883.3588        -0.0000         0.0000         0.0000         0.0000     0.0000     0.0000   2  22   0.4615   0.7101   0.3681  -0.4444   0.3616  -0.2738   0.00    0.0
2023/05/16 09:04:08.000  -2423816.7719   5386056.6875   2399883.3755        -0.0000         0.0000         0.0000         0.0000     0.0000     0.0000   2  22   0.4615   0.7101   0.3681  -0.4444   0.3616  -0.2738   0.00    0.0
2023/05/16 09:04:09.000  -2423816.7667   5386056.6881   2399883.3868        -0.0000         0.0000         0.0000         0.0000     0.0000     0.0000   2  22   0.4615   0.7101   0.3680  -0.4444   0.3616  -0.2737   0.00    0.0
2023/05/16 09:04:10.000  -2423816.7668   5386056.7013   2399883.3866        -0.0000         0.0000         0.0000         0.0000     0.0000     0.0000   2  22   0.4615   0.7101   0.3680  -0.4444   0.3616  -0.2737   0.00    0.0
2023/05/16 09:04:11.000  -2423816.7650   5386056.6940   2399883.3879        -0.0000         0.0000         0.0000         0.0000     0.0000     0.0000   2  22   0.4615   0.7101   0.3680  -0.4444   0.3616  -0.2737   0.00    0.0
2023/05/16 09:04:12.000  -2423816.7680   5386056.7023   2399883.3850        -0.0000         0.0000         0.0000         0.0000     0.0000     0.0000   2  22   0.4615   0.7101   0.3680  -0.4444   0.3615  -0.2737   0.00    0.0
2023/05/16 09:04:13.000  -2423816.7689   5386056.6998   2399883.3820        -0.0000         0.0000         0.0000         0.0000     0.0000     0.0000   2  22   0.4615   0.7101   0.3680  -0.4444   0.3615  -0.2737   0.00    0.0
2023/05/16 09:04:14.000  -2423816.7684   5386056.6987   2399883.3954        -0.0000         0.0000         0.0000         0.0000     0.0000     0.0000   2  22   0.4615   0.7101   0.3680  -0.4444   0.3615  -0.2737   0.00    0.0
2023/05/16 09:04:15.000  -2423816.7640   5386056.7048   2399883.4005        -0.0000         0.0000         0.0000         0.0000     0.0000     0.0000   2  22   0.4615   0.7101   0.3680  -0.4444   0.3615  -0.2737   0.00    0.0
2023/05/16 09:04:16.000  -2423816.7674   5386056.7145   2399883.4094        -0.0000         0.0000         0.0000         0.0000     0.0000     0.0000   2  22   0.4615   0.7101   0.3680  -0.4444   0.3615  -0.2737   0.00    0.0
2023/05/16 09:04:17.000  -2423816.7813   5386056.7134   2399883.4127        -0.0000         0.0000         0.0000         0.0000     0.0000     0.0000   2  22   0.4615   0.7101   0.3679  -0.4444   0.3615  -0.2737   0.00    0.0
2023/05/16 09:04:18.000  -2423816.7820   5386056.7262   2399883.4145        -0.0000         0.0000         0.0000         0.0000     0.0000     0.0000   2  22   0.4616   0.7101   0.3679  -0.4444   0.3615  -0.2737   0.00    0.0
2023/05/16 09:04:19.000  -2423816.7876   5386056.7397   2399883.4221        -0.0000         0.0000         0.0000         0.0000     0.0000     0.0000   2  22   0.4616   0.7101   0.3679  -0.4444   0.3615  -0.2737   0.00    0.0
2023/05/16 09:04:20.000  -2423816.7881   5386056.7462   2399883.4260        -0.0000         0.0000         0.0000         0.0000     0.0000     0.0000   2  22   0.4616   0.7101   0.3679  -0.4444   0.3615  -0.2737   0.00    0.0
2023/05/16 09:04:21.000  -2423816.8299   5386056.8282   2399883.4962        -0.0000         0.0000         0.0000         0.0000     0.0000     0.0000   2  21   0.4670   0.7267   0.3887  -0.4566   0.3874  -0.2896   0.00    0.0
2023/05/16 09:04:22.000  -2423816.8598   5386056.8727   2399883.5212        -0.0000         0.0000         0.0000         0.0000     0.0000     0.0000   2  21   0.4700   0.7345   0.3917  -0.4628   0.3939  -0.2939   0.00    0.0
