% ref pos   : -2414266.9231  5386768.9940  2407460.0342
%  GPST                      x-ecef(m)      y-ecef(m)      z-ecef(m)   Q  ns   sdx(m)   sdy(m)   sdz(m)  sdxy(m)  sdyz(m)  sdzx(m) age(s)  ratio
2023/05/16 09:00:00.000  -2421567.6550   5384910.6283   2404263.9992         0.0000         0.0000         0.0000         0.0000     0.0000     0.0000   2  17   0.5787   1.0681   0.5184  -0.6836   0.6007  -0.4145   0.00    0.0
2023/05/16 09:00:01.000  -2421567.6801   5384910.5636   2404264.1468         0.0000         0.0000         0.0000         0.0000     0.0000     0.0000   2  17   0.5760   1.0614   0.5165  -0.6788   0.5964  -0.4117   0.00    0.0
2023/05/16 09:00:02.000  -2421567.6201   5384910.3645   2404264.0119         0.0000         0.0000         0.0000         0.0000     0.0000     0.0000   2  17   0.5762   1.0618   0.5166  -0.6791   0.5967  -0.4119   0.00    0.0
2023/05/16 09:00:03.000  -2421567.5732   5384910.4814   2404264.0289         0.0000         0.0000         0.0000         0.0000     0.0000     0.0000   2  17   0.5649   1.0399   0.5065  -0.6648   0.5840  -0.4031   0.00    0.0
2023/05/16 09:00:04.000  -2421567.5895   5384910.5666   2404264.0000         0.0000         0.0000         0.0000         0.0000     0.0000     0.0000   2  17   0.5507   1.0062   0.4953  -0.6412   0.5627  -0.3887   0.00    0.0
2023/05/16 09:00:05.000  -2421567.5413   5384910.5996   2404263.9198         0.0000         0.0000         0.0000         0.0000     0.0000     0.0000   2  17   0.5372   0.9710   0.4855  -0.6158   0.5394  -0.3732   0.00    0.0
2023/05/16 09:00:06.000  -2421567.7090   5384910.5219   2404264.0548         0.0000         0.0000         0.0000         0.0000     0.0000     0.0000   2  17   0.5245   0.9375   0.4764  -0.5915   0.5170  -0.3584   0.00    0.0
2023/05/16 09:00:07.000  -2421567.7081   5384910.6490   2404264.0684         0.0000         0.0000         0.0000         0.0000     0.0000     0.0000   2  17   0.5131   0.9073   0.4684  -0.5694   0.4967  -0.3449   0.00    0.0
2023/05/16 09:00:08.000  -2421567.7142   5384910.7637   2404264.0282         0.0000         0.0000         0.0000         0.0000     0.0000     0.0000   2  17   0.5034   0.8812   0.4615  -0.5503   0.4791  -0.3333   0.00    0.0
2023/05/16 09:00:09.000  -2421567.7050   5384910.6178   2404264.0650         0.0000         0.0000         0.0000         0.0000     0.0000     0.0000   2  17   0.4957   0.8601   0.4561  -0.5347   0.4647  -0.3238   0.00    0.0
2023/05/16 09:00:10.000  -2421567.6530   5384910.6203   2404264.0844         0.0000         0.0000         0.0000         0.0000     0.0000     0.0000   2  17   0.4899   0.8443   0.4520  -0.5231   0.4539  -0.3167   0.00    0.0
2023/05/16 09:00:11.000  -2421567.7581   5384910.7471   2404264.1846         0.0000         0.0000         0.0000         0.0000     0.0000     0.0000   2  16   0.5278   0.8697   0.4567  -0.5624   0.4686  -0.3375   0.00    0.0
2023/05/16 09:00:12.000  -2421567.8346   5384910.8196   2404264.1556         0.0000         0.0000         0.0000         0.0000     0.0000     0.0000   2  17   0.4912   0.8429   0.4515  -0.5237   0.4527  -0.3169   0.00    0.0
2023/05/16 09:00:13.000  -2421567.8392   5384910.6953   2404264.0366         0.0000         0.0000         0.0000         0.0000     0.0000     0.0000   2  17   0.4843   0.8300   0.4485  -0.5120   0.4441  -0.3100   0.00    0.0
2023/05/16 09:00:14.000  -2421567.6690   5384910.4789   2404264.0329         0.0000         0.0000         0.0000         0.0000     0.0000     0.0000   2  17   0.4831   0.8256   0.4473  -0.5091   0.4410  -0.3082   0.00    0.0
2023/05/16 09:00:15.000  -2421567.6768   5384910.5307   2404263.9945         0.0000         0.0000         0.0000         0.0000     0.0000     0.0000   2  17   0.4830   0.8249   0.4471  -0.5087   0.4406  -0.3079   0.00    0.0
2023/05/16 09:00:16.000  -2421567.6816   5384910.6751   2404264.0465         0.0000         0.0000         0.0000         0.0000     0.0000     0.0000   2  17   0.4830   0.8252   0.4472  -0.5089   0.4408  -0.3081   0.00    0.0
2023/05/16 09:00:17.000  -2421567.6292   5384910.5251   2404263.9434         0.0000         0.0000         0.0000         0.0000     0.0000     0.0000   2  17   0.4831   0.8252   0.4472  -0.5089   0.4408  -0.3081   0.00    0.0
2023/05/16 09:00:18.000  -2421567.7319   5384910.6593   2404263.9222         0.0000         0.0000         0.0000         0.0000     0.0000     0.0000   2  17   0.4830   0.8249   0.4471  -0.5087   0.4406  -0.3080   0.00    0.0
2023/05/16 09:00:19.000  -2421567.6242   5384910.4829   2404264.0659         0.0000         0.0000         0.0000         0.0000     0.0000     0.0000   2  17   0.4829   0.8246   0.4471  -0.5085   0.4403  -0.3078   0.00    0.0
2023/05/16 09:00:20.000  -2421567.6719   5384910.4820   2404263.9860         0.0000         0.0000         0.0000         0.0000     0.0000     0.0000   2  17   0.4828   0.8243   0.4470  -0.5083   0.4401  -0.3077   0.00    0.0
2023/05/16 09:00:21.000  -2421567.7706   5384910.6443   2404264.0795         0.0000         0.0000         0.0000         0.0000     0.0000     0.0000   2  17   0.4827   0.8241   0.4469  -0.5082   0.4400  -0.3076   0.00    0.0
2023/05/16 09:00:22.000  -2421567.6950   5384910.6653   2404264.0822         0.0000         0.0000         0.0000         0.0000     0.0000     0.0000   2  17   0.4827   0.8241   0.4469  -0.5081   0.4400  -0.3076   0.00    0.0
2023/05/16 09:00:23.000  -2421567.7101   5384910.6589   2404264.2239         0.0000         0.0000         0.0000         0.0000     0.0000     0.0000   2  17   0.4827   0.8241   0.4469  -0.5081   0.4400  -0.3076   0.00    0.0
2023/05/16 09:00:24.000  -2421567.7519   5384910.6498   2404264.2103         0.0000         0.0000         0.0000         0.0000     0.0000     0.0000   2  17   0.4827   0.8241   0.4469  -0.5081   0.4400  -0.3076   0.00    0.0
2023/05/16 09:00:25.000  -2421567.6953   5384910.6931   2404264.0006         0.0000         0.0000         0.0000         0.0000     0.0000     0.0000   2  17   0.4827   0.8241   0.4469  -0.5081   0.4400  -0.3076   0.00    0.0
2023/05/16 09:00:26.000  -2421567.7459   5384910.6148   2404264.0854         0.0000         0.0000         0.0000         0.0000     0.0000     0.0000   2  17   0.4827   0.8241   0.4469  -0.5081   0.4400  -0.3076   0.00    0.0
2023/05/16 09:00:27.000  -2421567.7118   5384910.5710   2404264.0896         0.0000         0.0000         0.0000         0.0000     0.0000     0.0000   2  17   0.4827   0.8240   0.4469  -0.5081   0.4400  -0.3076   0.00    0.0
2023/05/16 09:00:28.000  -2421567.7982   5384910.8386   2404264.1501         0.0000         0.0000         0.0000         0.0000     0.0000     0.0000   2  17   0.4828   0.8240   0.4469  -0.5081   0.4400  -0.3076   0.00    0.0
2023/05/16 09:00:29.000  -2421567.8293   5384910.8382   2404264.1368         0.0000         0.0000         0.0000         0.0000     0.0000     0.0000   2  17   0.4828   0.8240   0.4469  -0.5081   0.4400  -0.3076   0.00    0.0
2023/05/16 09:00:30.000  -2421567.7853   5384910.7786   2404264.1001         0.0000         0.0000         0.0000         0.0000     0.0000     0.0000   2  17   0.4828   0.8240   0.4469  -0.5081   0.4400  -0.3076   0.00    0.0
2023/05/16 09:00:31.000  -2421567.6878   5384910.7575   2404264.1565         0.0000         0.0000         0.0000         0.0000     0.0000     0.0000   2  17   0.4828   0.8240   0.4469  -0.5081   0.4400  -0.3076   0.00    0.0
2023/05/16 09:00:32.000  -2421567.7689   5384910.5497   2404264.1521         0.0000         0.0000         0.0000         0.0000     0.0000     0.0000   2  17   0.4828   0.8240   0.4469  -0.5081   0.4400  -0.3076   0.00    0.0
2023/05/16 09:00:33.000  -2421567.6876   5384910.5520   2404264.0889         0.0000         0.0000         0.0000         0.0000     0.0000     0.0000   2  17   0.4828   0.8239   0.4469  -0.5081   0.4399  -0.3076   0.00    0.0
2023/05/16 09:00:34.000  -2421567.5671   5384910.3967   2404264.0408         0.0000         0.0000         0.0000         0.0000     0.0000     0.0000   2  17   0.4828   0.8239   0.4469  -0.5081   0.4399  -0.3076   0.00    0.0
2023/05/16 09:00:35.000  -2421567.6042   5384910.3794   2404264.0178         0.0000         0.0000         0.0000         0.0000     0.0000     0.0000   2  17   0.4828   0.8239   0.4469  -0.5081   0.4399  -0.3076   0.00    0.0
2023/05/16 09:00:36.000  -2421567.6015   5384910.5450   2404264.1290         0.0000         0.0000         0.0000         0.0000     0.0000     0.0000   2  17   0.4828   0.8239   0.4469  -0.5081   0.4399  -0.3076   0.00    0.0
2023/05/16 09:00:37.000  -2421567.7330   5384910.7275   2404264.1608         0.0000         0.0000         0.0000         0.0000     0.0000     0.0000   2  17   0.4828   0.8239   0.4469  -0.5081   0.4399  -0.3076   0.00    0.0
2023/05/16 09:00:38.000  -2421567.7620   5384910.6938   2404264.1712         0.0000         0.0000         0.0000         0.0000     0.0000     0.0000   2  17   0.4828   0.8239   0.4469  -0.5081   0.4399  -0.3076   0.00    0.0
2023/05/16 09:00:39.000  -2421567.8224   5384910.8942   2404264.0570         0.0000         0.0000         0.0000         0.0000     0.0000     0.0000   2  17   0.4828   0.8239   0.4469  -0.5081   0.4399  -0.3076   0.00    0.0
2023/05/16 09:00:40.000  -2421567.6858   5384910.6981   2404264.1012         0.0000         0.0000         0.0000         0.0000     0.0000     0.0000   2  17   0.4828   0.8239   0.4469  -0.5081   0.4399  -0.3076   0.00    0.0
2023/05/16 09:00:41.000  -2421567.6640   5384910.6488   2404264.0433         0.0000         0.0000         0.0000         0.0000     0.0000     0.0000   2  17   0.4828   0.8238   0.4469  -0.5081   0.4399  -0.3076   0.00    0.0
2023/05/16 09:00:42.000  -2421567.7040   5384910.7440   2404264.0529         0.0000         0.0000         0.0000         0.0000     0.0000     0.0000   2  17   0.4828   0.8238   0.4469  -0.5081   0.4399  -0.3077   0.00    0.0
2023/05/16 09:00:43.000  -2421567.6718   5384910.6260   2404264.0459         0.0000         0.0000         0.0000         0.0000     0.0000     0.0000   2  17   0.4828   0.8238   0.4469  -0.5081   0.4399  -0.3077   0.00    0.0
2023/05/16 09:00:44.000  -2421567.8110   5384910.5963   2404264.1215         0.0000         0.0000         0.0000         0.0000     0.0000     0.0000   2  17   0.4828   0.8238   0.4469  -0.5081   0.4399  -0.3077   0.00    0.0
2023/05/16 09:00:45.000  -2421567.6087   5384910.6236   2404264.1640         0.0000         0.0000         0.0000         0.0000     0.0000     0.0000   2  17   0.4828   0.8238   0.4469  -0.5081   0.4399  -0.3077   0.00    0.0
2023/05/16 09:00:46.000  -2421567.7464   5384910.8210   2404264.1007         0.0000         0.0000         0.0000         0.0000     0.0000     0.0000   2  17   0.4828   0.8238   0.4469  -0.5081   0.4399  -0.3077   0.00    0.0
2023/05/16 09:00:47.000  -2421567.7581   5384910.6948   2404264.0461         0.0000         0.0000         0.0000         0.0000     0.0000     0.0000   2  17   0.4828   0.8238   0.4469  -0.5081   0.4399  -0.3077   0.00    0.0
2023/05/16 09:00:48.000  -2421567.7817   5384910.7358   2404264.0375         0.0000         0.0000         0.0000         0.0000     0.0000     0.0000   2  17   0.4829   0.8238   0.4469  -0.5081   0.4399  -0.3077   0.00    0.0
2023/05/16 09:00:49.000  -2421567.6805   5384910.7014   2404264.0065         0.0000         0.0000         0.0000         0.0000     0.0000     0.0000   2  17   0.4829   0.8238   0.4469  -0.5081   0.4399  -0.3077   0.00    0.0
2023/05/16 09:00:50.000  -2421567.5882   5384910.5358   2404263.9571         0.0000         0.0000         0.0000         0.0000     0.0000     0.0000   2  17   0.4829   0.8237   0.4469  -0.5081   0.4399  -0.3077   0.00    0.0
2023/05/16 09:00:51.000  -2421567.7028   5384910.6056   2404264.0225         0.0000         0.0000         0.0000         0.0000     0.0000     0.0000   2  17   0.4829   0.8237   0.4469  -0.5081   0.4399  -0.3077   0.00    0.0
2023/05/16 09:00:52.000  -2421567.7196   5384910.5323   2404264.1264         0.0000         0.0000         0.0000         0.0000     0.0000     0.0000   2  17   0.4829   0.8237   0.4469  -0.5081   0.4399  -0.3077   0.00    0.0
2023/05/16 09:00:53.000  -2421567.6862   5384910.5955   2404263.9895         0.0000         0.0000         0.0000         0.0000     0.0000     0.0000   2  17   0.4829   0.8237   0.4469  -0.5081   0.4399  -0.3077   0.00    0.0
2023/05/16 09:00:54.000  -2421567.7168   5384910.5722   2404264.0453         0.0000         0.0000         0.0000         0.0000     0.0000     0.0000   2  17   0.4829   0.8237   0.4469  -0.5081   0.4398  -0.3077   0.00    0.0
2023/05/16 09:00:55.000  -2421567.7360   5384910.7044   2404264.0772         0.0000         0.0000         0.0000         0.0000     0.0000     0.0000   2  17   0.4829   0.8237   0.4469  -0.5081   0.4398  -0.3077   0.00    0.0
2023/05/16 09:00:56.000  -2421567.6941   5384910.7201   2404264.1128         0.0000         0.0000         0.0000         0.0000     0.0000     0.0000   2  17   0.4829   0.8237   0.4469  -0.5081   0.4398  -0.3077   0.00    0.0
2023/05/16 09:00:57.000  -2421567.7608   5384910.7460   2404264.1331         0.0000         0.0000         0.0000         0.0000     0.0000     0.0000   2  17   0.4829   0.8237   0.4469  -0.5081   0.4398  -0.3077   0.00    0.0
2023/05/16 09:00:58.000  -2421567.7222   5384910.6344   2404264.0639         0.0000         0.0000         0.0000         0.0000     0.0000     0.0000   2  17   0.4829   0.8236   0.4469  -0.5081   0.4398  -0.3077   0.00    0.0
2023/05/16 09:00:59.000  -2421567.6783   5384910.7746   2404263.9819         0.0000         0.0000         0.0000         0.0000     0.0000     0.0000   2  17   0.4829   0.8236   0.4469  -0.5081   0.4398  -0.3077   0.00    0.0
2023/05/16 09:01:00.000  -2421567.6011   5384910.7054   2404263.9896         0.0000         0.0000         0.0000         0.0000     0.0000     0.0000   2  17   0.4829   0.8236   0.4469  -0.5081   0.4398  -0.3077   0.00    0.0
2023/05/16 09:01:01.000  -2421567.6645   5384910.6927   2404264.0201         0.0000         0.0000         0.0000         0.0000     0.0000     0.0000   2  17   0.4829   0.8236   0.4469  -0.5081   0.4398  -0.3077   0.00    0.0
2023/05/16 09:01:02.000  -2421567.6795   5384910.7274   2404264.0910         0.0000         0.0000         0.0000         0.0000     0.0000     0.0000   2  17   0.4829   0.8236   0.4468  -0.5081   0.4398  -0.3077   0.00    0.0
2023/05/16 09:01:03.000  -2421567.7110   5384910.6524   2404264.0655         0.0000         0.0000         0.0000         0.0000     0.0000     0.0000   2  17   0.4829   0.8236   0.4468  -0.5081   0.4398  -0.3077   0.00    0.0
2023/05/16 09:01:04.000  -2421567.8120   5384910.6615   2404264.0576         0.0000         0.0000         0.0000         0.0000     0.0000     0.0000   2  17   0.4829   0.8236   0.4468  -0.5081   0.4398  -0.3077   0.00    0.0
2023/05/16 09:01:05.000  -2421567.7127   5384910.7169   2404264.0591         0.0000         0.0000         0.0000         0.0000     0.0000     0.0000   2  17   0.4829   0.8236   0.4468  -0.5081   0.4398  -0.3077   0.00    0.0
2023/05/16 09:01:06.000  -2421567.7453   5384910.8382   2404264.1091         0.0000         0.0000         0.0000         0.0000     0.0000     0.0000   2  17   0.4829   0.8236   0.4468  -0.5081   0.4398  -0.3077   0.00    0.0
2023/05/16 09:01:07.000  -2421567.7735   5384910.8042   2404264.0797         0.0000         0.0000         0.0000         0.0000     0.0000     0.0000   2  17   0.4830   0.8235   0.4468  -0.5081   0.4398  -0.3077   0.00    0.0
2023/05/16 09:01:08.000  -2421567.7309   5384910.7450   2404264.1692         0.0000         0.0000         0.0000         0.0000     0.0000     0.0000   2  17   0.4830   0.8235   0.4468  -0.5081   0.4398  -0.3077   0.00    0.0
2023/05/16 09:01:09.000  -2421567.6982   5384910.6359   2404264.0846         0.0000         0.0000         0.0000         0.0000     0.0000     0.0000   2  17   0.4830   0.8235   0.4468  -0.5080   0.4398  -0.3077   0.00    0.0
2023/05/16 09:01:10.000  -2421567.6890   5384910.6420   2404263.9684         0.0000         0.0000         0.0000         0.0000     0.0000     0.0000   2  17   0.4830   0.8235   0.4468  -0.5080   0.4398  -0.3077   0.00    0.0
2023/05/16 09:01:11.000  -2421567.7192   5384910.5227   2404264.0196         0.0000         0.0000         0.0000         0.0000     0.0000     0.0000   2  17   0.4830   0.8235   0.4468  -0.5080   0.4398  -0.3077   0.00    0.0
2023/05/16 09:01:12.000  -2421567.6180   5384910.4311   2404263.9882         0.0000         0.0000         0.0000         0.0000     0.0000     0.0000   2  17   0.4830   0.8235   0.4468  -0.5080   0.4398  -0.3077   0.00    0.0
2023/05/16 09:01:13.000  -2421567.5170   5384910.6405   2404264.0859         0.0000         0.0000         0.0000         0.0000     0.0000     0.0000   2  17   0.4830   0.8235   0.4468  -0.5080   0.4397  -0.3077   0.00    0.0
2023/05/16 09:01:14.000  -2421567.6755   5384910.5823   2404264.1114         0.0000         0.0000         0.0000         0.0000     0.0000     0.0000   2  17   0.4830   0.8235   0.4468  -0.5080   0.4397  -0.3077   0.00    0.0
2023/05/16 09:01:15.000  -2421567.7014   5384910.7204   2404264.1038         0.0000         0.0000         0.0000         0.0000     0.0000     0.0000   2  17   0.4830   0.8234   0.4468  -0.5080   0.4397  -0.3077   0.00    0.0
2023/05/16 09:01:16.000  -2421567.8185   5384910.6708   2404264.1205         0.0000         0.0000         0.0000         0.0000     0.0000     0.0000   2  17   0.4830   0.8234   0.4468  -0.5080   0.4397  -0.3077   0.00    0.0
2023/05/16 09:01:17.000  -2421567.6800   5384910.6697   2404264.0296         0.0000         0.0000         0.0000         0.0000     0.0000     0.0000   2  17   0.4830   0.8234   0.4468  -0.5080   0.4397  -0.3077   0.00    0.0
2023/05/16 09:01:18.000  -2421567.7287   5384910.5569   2404264.0821         0.0000         0.0000         0.0000         0.0000     0.0000     0.0000   2  17   0.4830   0.8234   0.4468  -0.5080   0.4397  -0.3077   0.00    0.0
2023/05/16 09:01:19.000  -2421567.8641   5384910.7557   2404264.1733         0.0000         0.0000         0.0000         0.0000     0.0000     0.0000   2  17   0.4830   0.8234   0.4468  -0.5080   0.4397  -0.3077   0.00    0.0
2023/05/16 09:01:20.000  -2421567.8111   5384910.7856   2404264.2361         0.0000         0.0000         0.0000         0.0000     0.0000     0.0000   2  17   0.4830   0.8234   0.4468  -0.5080   0.4397  -0.3077   0.00    0.0
2023/05/16 09:01:21.000  -2421567.8379   5384910.6768   2404264.1510         0.0000         0.0000         0.0000         0.0000     0.0000     0.0000   2  17   0.4830   0.8234   0.4468  -0.5080   0.4397  -0.3077   0.00    0.0
2023/05/16 09:01:22.000  -2421567.7168   5384910.4552   2404264.0265         0.0000         0.0000         0.0000         0.0000     0.0000     0.0000   2  17   0.4830   0.8234   0.4468  -0.5080   0.4397  -0.3077   0.00    0.0
2023/05/16 09:01:23.000  -2421567.6844   5384910.5619   2404264.0190         0.0000         0.0000         0.0000         0.0000     0.0000     0.0000   2  17   0.4830   0.8233   0.4468  -0.5080   0.4397  -0.3077   0.00    0.0
2023/05/16 09:01:24.000  -2421567.6126   5384910.5084   2404264.0396         0.0000         0.0000         0.0000         0.0000     0.0000     0.0000   2  17   0.4830   0.8233   0.4468  -0.5080   0.4397  -0.3077   0.00    0.0
2023/05/16 09:01:25.000  -2421567.6158   5384910.5038   2404264.0689         0.0000         0.0000         0.0000         0.0000     0.0000     0.0000   2  17   0.4830   0.8233   0.4468  -0.5080   0.4397  -0.3077   0.00    0.0
2023/05/16 09:01:26.000  -2421567.6937   5384910.4106   2404264.1568         0.0000         0.0000         0.0000         0.0000     0.0000     0.0000   2  17   0.4830   0.8233   0.4468  -0.5080   0.4397  -0.3077   0.00    0.0
2023/05/16 09:01:27.000  -2421567.7311   5384910.4750   2404264.1520         0.0000         0.0000         0.0000         0.0000     0.0000     0.0000   2  17   0.4830   0.8233   0.4468  -0.5080   0.4397  -0.3077   0.00    0.0
2023/05/16 09:01:28.000  -2421567.7362   5384910.5955   2404264.1142         0.0000         0.0000         0.0000         0.0000     0.0000     0.0000   2  17   0.4831   0.8233   0.4468  -0.5080   0.4397  -0.3077   0.00    0.0
2023/05/16 09:01:29.000  -2421567.6856   5384910.6206   2404264.1999         0.0000         0.0000         0.0000         0.0000     0.0000     0.0000   2  17   0.4831   0.8233   0.4468  -0.5080   0.4397  -0.3077   0.00    0.0
2023/05/16 09:01:30.000  -2421567.6771   5384910.5099   2404264.1044         0.0000         0.0000         0.0000         0.0000     0.0000     0.0000   2  17   0.4831   0.8233   0.4468  -0.5080   0.4397  -0.3078   0.00    0.0
2023/05/16 09:01:31.000  -2421567.7351   5384910.4848   2404264.0699         0.0000         0.0000         0.0000         0.0000     0.0000     0.0000   2  17   0.4831   0.8232   0.4468  -0.5080   0.4397  -0.3078   0.00    0.0
2023/05/16 09:01:32.000  -2421567.7729   5384910.5083   2404264.1065         0.0000         0.0000         0.0000         0.0000     0.0000     0.0000   2  17   0.4831   0.8232   0.4468  -0.5080   0.4396  -0.3078   0.00    0.0
2023/05/16 09:01:33.000  -2421567.6506   5384910.4297   2404264.1298         0.0000         0.0000         0.0000         0.0000     0.0000     0.0000   2  17   0.4831   0.8232   0.4468  -0.5080   0.4396  -0.3078   0.00    0.0
2023/05/16 09:01:34.000  -2421567.6575   5384910.5001   2404264.1719         0.0000         0.0000         0.0000         0.0000     0.0000     0.0000   2  17   0.4831   0.8232   0.4468  -0.5080   0.4396  -0.3078   0.00    0.0
2023/05/16 09:01:35.000  -2421567.6415   5384910.5135   2404264.1372         0.0000         0.0000         0.0000         0.0000     0.0000     0.0000   2  17   0.4831   0.8232   0.4468  -0.5080   0.4396  -0.3078   0.00    0.0
2023/05/16 09:01:36.000  -2421567.6482   5384910.5151   2404264.1743         0.0000         0.0000         0.0000         0.0000     0.0000     0.0000   2  17   0.4831   0.8232   0.4468  -0.5080   0.4396  -0.3078   0.00    0.0
2023/05/16 09:01:37.000  -2421567.6284   5384910.4342   2404264.1153         0.0000         0.0000         0.0000         0.0000     0.0000     0.0000   2  18   0.4740   0.8124   0.4222  -0.4957   0.4170  -0.2848   0.00    0.0
2023/05/16 09:01:38.000  -2421567.6914   5384910.4682   2404264.0938         0.0000         0.0000         0.0000         0.0000     0.0000     0.0000   2  18   0.4715   0.8063   0.4196  -0.4907   0.4114  -0.2808   0.00    0.0
2023/05/16 09:01:39.000  -2421567.5534   5384910.3766   2404264.0978         0.0000         0.0000         0.0000         0.0000     0.0000     0.0000   2  18   0.4709   0.8043   0.4194  -0.4894   0.4106  -0.2803   0.00    0.0
2023/05/16 09:01:40.000  -2421567.5720   5384910.4704   2404264.0632         0.0000         0.0000         0.0000         0.0000     0.0000     0.0000   2  18   0.4709   0.8041   0.4194  -0.4892   0.4105  -0.2802   0.00    0.0
2023/05/16 09:01:41.000  -2421567.5716   5384910.4869   2404264.0899         0.0000         0.0000         0.0000         0.0000     0.0000     0.0000   2  18   0.4709   0.8040   0.4194  -0.4892   0.4105  -0.2802   0.00    0.0
2023/05/16 09:01:42.000  -2421567.6056   5384910.3985   2404264.0542         0.0000         0.0000         0.0000         0.0000     0.0000     0.0000   2  18   0.4708   0.8039   0.4194  -0.4891   0.4104  -0.2802   0.00    0.0
2023/05/16 09:01:43.000  -2421567.6869   5384910.3798   2404264.1481         0.0000         0.0000         0.0000         0.0000     0.0000     0.0000   2  18   0.4708   0.8037   0.4193  -0.4890   0.4103  -0.2801   0.00    0.0
2023/05/16 09:01:44.000  -2421567.7176   5384910.4510   2404264.2205         0.0000         0.0000         0.0000         0.0000     0.0000     0.0000   2  18   0.4707   0.8035   0.4193  -0.4888   0.4101  -0.2800   0.00    0.0
2023/05/16 09:01:45.000  -2421567.6914   5384910.3696   2404264.2027         0.0000         0.0000         0.0000         0.0000     0.0000     0.0000   2  18   0.4707   0.8034   0.4193  -0.4888   0.4101  -0.2799   0.00    0.0
2023/05/16 09:01:46.000  -2421567.5286   5384910.3619   2404264.0972         0.0000         0.0000         0.0000         0.0000     0.0000     0.0000   2  18   0.4707   0.8033   0.4192  -0.4888   0.4100  -0.2799   0.00    0.0
2023/05/16 09:01:47.000  -2421567.6693   5384910.3666   2404263.9680         0.0000         0.0000         0.0000         0.0000     0.0000     0.0000   2  18   0.4707   0.8033   0.4192  -0.4887   0.4100  -0.2799   0.00    0.0
2023/05/16 09:01:48.000  -2421567.6723   5384910.3434   2404264.0929         0.0000         0.0000         0.0000         0.0000     0.0000     0.0000   2  18   0.4707   0.8033   0.4192  -0.4887   0.4100  -0.2799   0.00    0.0
2023/05/16 09:01:49.000  -2421567.6994   5384910.3417   2404264.1719         0.0000         0.0000         0.0000         0.0000     0.0000     0.0000   2  18   0.4707   0.8033   0.4192  -0.4887   0.4100  -0.2799   0.00    0.0
2023/05/16 09:01:50.000  -2421567.6191   5384910.3099   2404264.1173         0.0000         0.0000         0.0000         0.0000     0.0000     0.0000   2  18   0.4707   0.8033   0.4192  -0.4887   0.4100  -0.2799   0.00    0.0
2023/05/16 09:01:51.000  -2421567.6142   5384910.3123   2404264.0993         0.0000         0.0000         0.0000         0.0000     0.0000     0.0000   2  18   0.4707   0.8033   0.4192  -0.4887   0.4100  -0.2799   0.00    0.0
2023/05/16 09:01:52.000  -2421567.5625   5384910.4428   2404264.2094         0.0000         0.0000         0.0000         0.0000     0.0000     0.0000   2  18   0.4707   0.8033   0.4192  -0.4887   0.4100  -0.2799   0.00    0.0
2023/05/16 09:01:53.000  -2421567.5694   5384910.3893   2404264.2107         0.0000         0.0000         0.0000         0.0000     0.0000     0.0000   2  18   0.4707   0.8032   0.4192  -0.4887   0.4100  -0.2799   0.00    0.0
2023/05/16 09:01:54.000  -2421567.5875   5384910.1823   2404264.0335         0.0000         0.0000         0.0000         0.0000     0.0000     0.0000   2  18   0.4707   0.8032   0.4192  -0.4887   0.4100  -0.2799   0.00    0.0
2023/05/16 09:01:55.000  -2421567.4932   5384910.1679   2404264.0683         0.0000         0.0000         0.0000         0.0000     0.0000     0.0000   2  18   0.4707   0.8032   0.4192  -0.4887   0.4100  -0.2799   0.00    0.0
2023/05/16 09:01:56.000  -2421567.5303   5384910.2433   2404264.0549         0.0000         0.0000         0.0000         0.0000     0.0000     0.0000   2  18   0.4707   0.8032   0.4192  -0.4887   0.4100  -0.2799   0.00    0.0
2023/05/16 09:01:57.000  -2421567.6016   5384910.3220   2404264.1706         0.0000         0.0000         0.0000         0.0000     0.0000     0.0000   2  18   0.4707   0.8032   0.4192  -0.4887   0.4100  -0.2799   0.00    0.0
2023/05/16 09:01:58.000  -2421567.6664   5384910.3253   2404264.1194         0.0000         0.0000         0.0000         0.0000     0.0000     0.0000   2  18   0.4707   0.8032   0.4192  -0.4887   0.4100  -0.2799   0.00    0.0
2023/05/16 09:01:59.000  -2421567.7108   5384910.3780   2404264.1061         0.0000         0.0000         0.0000         0.0000     0.0000     0.0000   2  18   0.4707   0.8032   0.4192  -0.4887   0.4100  -0.2799   0.00    0.0
2023/05/16 09:02:00.000  -2421567.6235   5384910.3877   2404264.1235         0.0000         0.0000         0.0000         0.0000     0.0000     0.0000   2  18   0.4707   0.8032   0.4192  -0.4887   0.4100  -0.2799   0.00    0.0
2023/05/16 09:02:01.000  -2421567.7085   5384910.3471   2404264.1809         0.0000         0.0000         0.0000         0.0000     0.0000     0.0000   2  18   0.4707   0.8032   0.4192  -0.4887   0.4100  -0.2799   0.00    0.0
2023/05/16 09:02:02.000  -2421567.5585   5384910.2814   2404264.1097         0.0000         0.0000         0.0000         0.0000     0.0000     0.0000   2  18   0.4707   0.8032   0.4192  -0.4887   0.4100  -0.2799   0.00    0.0
2023/05/16 09:02:03.000  -2421567.5793   5384910.2237   2404264.0621         0.0000         0.0000         0.0000         0.0000     0.0000     0.0000   2  18   0.4707   0.8032   0.4191  -0.4887   0.4100  -0.2799   0.00    0.0
2023/05/16 09:02:04.000  -2421567.5958   5384910.2861   2404264.1001         0.0000         0.0000         0.0000         0.0000     0.0000     0.0000   2  18   0.4707   0.8032   0.4191  -0.4887   0.4100  -0.2799   0.00    0.0
2023/05/16 09:02:05.000  -2421567.6528   5384910.3101   2404264.0914         0.0000         0.0000         0.0000         0.0000     0.0000     0.0000   2  18   0.4707   0.8032   0.4191  -0.4887   0.4100  -0.2799   0.00    0.0
2023/05/16 09:02:06.000  -2421567.7062   5384910.3596   2404264.0645         0.0000         0.0000         0.0000         0.0000     0.0000     0.0000   2  18   0.4707   0.8031   0.4191  -0.4887   0.4100  -0.2799   0.00    0.0
2023/05/16 09:02:07.000  -2421567.6238   5384910.3276   2404264.0940         0.0000         0.0000         0.0000         0.0000     0.0000     0.0000   2  18   0.4708   0.8031   0.4191  -0.4887   0.4100  -0.2799   0.00    0.0
2023/05/16 09:02:08.000  -2421567.6175   5384910.2413   2404264.1266         0.0000         0.0000         0.0000         0.0000     0.0000     0.0000   2  18   0.4708   0.8031   0.4191  -0.4887   0.4100  -0.2799   0.00    0.0
2023/05/16 09:02:09.000  -2421567.6294   5384910.1207   2404264.0133         0.0000         0.0000         0.0000         0.0000     0.0000     0.0000   2  18   0.4708   0.8031   0.4191  -0.4887   0.4100  -0.2799   0.00    0.0
2023/05/16 09:02:10.000  -2421567.5697   5384910.1918   2404264.0006         0.0000         0.0000         0.0000         0.0000     0.0000     0.0000   2  18   0.4708   0.8031   0.4191  -0.4887   0.4100  -0.2799   0.00    0.0
2023/05/16 09:02:11.000  -2421567.6320   5384910.1730   2404264.0737         0.0000         0.0000         0.0000         0.0000     0.0000     0.0000   2  18   0.4708   0.8031   0.4191  -0.4887   0.4100  -0.2799   0.00    0.0
2023/05/16 09:02:12.000  -2421567.6273   5384910.0759   2404264.0519         0.0000         0.0000         0.0000         0.0000     0.0000     0.0000   2  18   0.4708   0.8031   0.4191  -0.4887   0.4100  -0.2799   0.00    0.0
2023/05/16 09:02:13.000  -2421567.6675   5384910.2784   2404264.1391         0.0000         0.0000         0.0000         0.0000     0.0000     0.0000   2  18   0.4708   0.8031   0.4191  -0.4887   0.4100  -0.2799   0.00    0.0
2023/05/16 09:02:14.000  -2421567.6736   5384910.4406   2404264.1372         0.0000         0.0000         0.0000         0.0000     0.0000     0.0000   2  18   0.4708   0.8031   0.4191  -0.4887   0.4100  -0.2799   0.00    0.0
2023/05/16 09:02:15.000  -2421567.7276   5384910.5171   2404264.1298         0.0000         0.0000         0.0000         0.0000     0.0000     0.0000   2  18   0.4708   0.8031   0.4191  -0.4887   0.4100  -0.2799   0.00    0.0
2023/05/16 09:02:16.000  -2421567.6445   5384910.4783   2404264.0502         0.0000         0.0000         0.0000         0.0000     0.0000     0.0000   2  18   0.4708   0.8031   0.4191  -0.4887   0.4100  -0.2799   0.00    0.0
2023/05/16 09:02:17.000  -2421567.5971   5384910.2072   2404264.0609         0.0000         0.0000         0.0000         0.0000     0.0000     0.0000   2  18   0.4708   0.8031   0.4191  -0.4887   0.4100  -0.2799   0.00    0.0
2023/05/16 09:02:18.000  -2421567.5551   5384910.3344   2404264.1210         0.0000         0.0000         0.0000         0.0000     0.0000     0.0000   2  18   0.4708   0.8030   0.4191  -0.4887   0.4099  -0.2799   0.00    0.0
2023/05/16 09:02:19.000  -2421567.5368   5384910.2043   2404264.0311         0.0000         0.0000         0.0000         0.0000     0.0000     0.0000   2  18   0.4708   0.8030   0.4191  -0.4887   0.4099  -0.2799   0.00    0.0
2023/05/16 09:02:20.000  -2421567.6359   5384910.3453   2404264.0165         0.0000         0.0000         0.0000         0.0000     0.0000     0.0000   2  18   0.4708   0.8030   0.4191  -0.4887   0.4099  -0.2799   0.00    0.0
2023/05/16 09:02:21.000  -2421567.7626   5384910.3556   2404264.0868         0.0000         0.0000         0.0000         0.0000     0.0000     0.0000   2  18   0.4708   0.8030   0.4191  -0.4887   0.4099  -0.2799   0.00    0.0
2023/05/16 09:02:22.000  -2421567.6290   5384910.3213   2404264.1314         0.0000         0.0000         0.0000         0.0000     0.0000     0.0000   2  18   0.4708   0.8030   0.4191  -0.4887   0.4099  -0.2799   0.00    0.0
2023/05/16 09:02:23.000  -2421567.6448   5384910.2934   2404264.1100         0.0000         0.0000         0.0000         0.0000     0.0000     0.0000   2  18   0.4708   0.8030   0.4191  -0.4887   0.4099  -0.2799   0.00    0.0
2023/05/16 09:02:24.000  -2421567.7250   5384910.3447   2404264.0653         0.0000         0.0000         0.0000         0.0000     0.0000     0.0000   2  18   0.4708   0.8030   0.4190  -0.4887   0.4099  -0.2799   0.00    0.0
2023/05/16 09:02:25.000  -2421567.6396   5384910.4359   2404264.1109         0.0000         0.0000         0.0000         0.0000     0.0000     0.0000   2  18   0.4708   0.8030   0.4190  -0.4887   0.4099  -0.2799   0.00    0.0
2023/05/16 09:02:26.000  -2421567.6074   5384910.4767   2404264.0819         0.0000         0.0000         0.0000         0.0000     0.0000     0.0000   2  18   0.4708   0.8030   0.4190  -0.4887   0.4099  -0.2799   0.00    0.0
2023/05/16 09:02:27.000  -2421567.6469   5384910.5682   2404264.2077         0.0000         0.0000         0.0000         0.0000     0.0000     0.0000   2  18   0.4708   0.8030   0.4190  -0.4887   0.4099  -0.2799   0.00    0.0
2023/05/16 09:02:28.000  -2421567.7312   5384910.5307   2404264.1752         0.0000         0.0000         0.0000         0.0000     0.0000     0.0000   2  18   0.4708   0.8030   0.4190  -0.4887   0.4099  -0.2799   0.00    0.0
2023/05/16 09:02:29.000  -2421567.7284   5384910.4120   2404264.1051         0.0000         0.0000         0.0000         0.0000     0.0000     0.0000   2  18   0.4708   0.8030   0.4190  -0.4887   0.4099  -0.2799   0.00    0.0
2023/05/16 09:02:30.000  -2421567.7638   5384910.3419   2404264.1156         0.0000         0.0000         0.0000         0.0000     0.0000     0.0000   2  18   0.4709   0.8030   0.4190  -0.4887   0.4099  -0.2799   0.00    0.0
2023/05/16 09:02:31.000  -2421567.5875   5384910.3747   2404264.0135         0.0000         0.0000         0.0000         0.0000     0.0000     0.0000   2  18   0.4709   0.8029   0.4190  -0.4887   0.4099  -0.2799   0.00    0.0
2023/05/16 09:02:32.000  -2421567.5690   5384910.2056   2404264.0333         0.0000         0.0000         0.0000         0.0000     0.0000     0.0000   2  18   0.4709   0.8029   0.4190  -0.4887   0.4099  -0.2799   0.00    0.0
2023/05/16 09:02:33.000  -2421567.6837   5384910.2349   2404264.0882         0.0000         0.0000         0.0000         0.0000     0.0000     0.0000   2  18   0.4709   0.8029   0.4190  -0.4887   0.4099  -0.2799   0.00    0.0
2023/05/16 09:02:34.000  -2421567.6558   5384910.3875   2404264.0319         0.0000         0.0000         0.0000         0.0000     0.0000     0.0000   2  18   0.4709   0.8029   0.4190  -0.4887   0.4099  -0.2799   0.00    0.0
2023/05/16 09:02:35.000  -2421567.6442   5384910.4262   2404264.0648         0.0000         0.0000         0.0000         0.0000     0.0000     0.0000   2  18   0.4709   0.8029   0.4190  -0.4887   0.4099  -0.2799   0.00    0.0
2023/05/16 09:02:36.000  -2421567.6925   5384910.4302   2404264.0979         0.0000         0.0000         0.0000         0.0000     0.0000     0.0000   2  18   0.4709   0.8029   0.4190  -0.4887   0.4099  -0.2799   0.00    0.0
2023/05/16 09:02:37.000  -2421567.6384   5384910.4726   2404264.0970         0.0000         0.0000         0.0000         0.0000     0.0000     0.0000   2  18   0.4709   0.8029   0.4190  -0.4887   0.4099  -0.2799   0.00    0.0
2023/05/16 09:02:38.000  -2421567.6379   5384910.5063   2404264.1740         0.0000         0.0000         0.0000         0.0000     0.0000     0.0000   2  18   0.4709   0.8029   0.4190  -0.4887   0.4099  -0.2799   0.00    0.0
2023/05/16 09:02:39.000  -2421567.7413   5384910.5395   2404264.2505         0.0000         0.0000         0.0000         0.0000     0.0000     0.0000   2  18   0.4709   0.8029   0.4190  -0.4887   0.4099  -0.2799   0.00    0.0
2023/05/16 09:02:40.000  -2421567.6069   5384910.4326   2404264.1672         0.0000         0.0000         0.0000         0.0000     0.0000     0.0000   2  18   0.4709   0.8029   0.4190  -0.4887   0.4099  -0.2799   0.00    0.0
2023/05/16 09:02:41.000  -2421567.6002   5384910.4111   2404264.1043         0.0000         0.0000         0.0000         0.0000     0.0000     0.0000   2  18   0.4709   0.8029   0.4190  -0.4887   0.4099  -0.2799   0.00    0.0
2023/05/16 09:02:42.000  -2421567.7956   5384910.4481   2404264.0632         0.0000         0.0000         0.0000         0.0000     0.0000     0.0000   2  18   0.4709   0.8029   0.4190  -0.4887   0.4099  -0.2799   0.00    0.0
2023/05/16 09:02:43.000  -2421567.7789   5384910.5351   2404264.1230         0.0000         0.0000         0.0000         0.0000     0.0000     0.0000   2  18   0.4709   0.8028   0.4190  -0.4887   0.4099  -0.2799   0.00    0.0
2023/05/16 09:02:44.000  -2421567.8418   5384910.4883   2404264.1954         0.0000         0.0000         0.0000         0.0000     0.0000     0.0000   2  18   0.4709   0.8028   0.4190  -0.4887   0.4099  -0.2799   0.00    0.0
2023/05/16 09:02:45.000  -2421567.8461   5384910.6942   2404264.2489         0.0000         0.0000         0.0000         0.0000     0.0000     0.0000   2  18   0.4709   0.8028   0.4190  -0.4887   0.4099  -0.2799   0.00    0.0
2023/05/16 09:02:46.000  -2421567.7367   5384910.5465   2404264.1712         0.0000         0.0000         0.0000         0.0000     0.0000     0.0000   2  18   0.4709   0.8028   0.4190  -0.4887   0.4099  -0.2799   0.00    0.0
2023/05/16 09:02:47.000  -2421567.7624   5384910.5707   2404264.1305         0.0000         0.0000         0.0000         0.0000     0.0000     0.0000   2  18   0.4709   0.8028   0.4189  -0.4887   0.4099  -0.2799   0.00    0.0
2023/05/16 09:02:48.000  -2421567.7563   5384910.5863   2404264.1298         0.0000         0.0000         0.0000         0.0000     0.0000     0.0000   2  18   0.4709   0.8028   0.4189  -0.4887   0.4099  -0.2799   0.00    0.0
2023/05/16 09:02:49.000  -2421567.8153   5384910.6923   2404264.0927         0.0000         0.0000         0.0000         0.0000     0.0000     0.0000   2  18   0.4709   0.8028   0.4189  -0.4887   0.4099  -0.2799   0.00    0.0
2023/05/16 09:02:50.000  -2421567.7737   5384910.6521   2404264.0917         0.0000         0.0000         0.0000         0.0000     0.0000     0.0000   2  18   0.4709   0.8028   0.4189  -0.4887   0.4099  -0.2799   0.00    0.0
2023/05/16 09:02:51.000  -2421567.7291   5384910.4998   2404264.1382         0.0000         0.0000         0.0000         0.0000     0.0000     0.0000   2  18   0.4709   0.8028   0.4189  -0.4887   0.4099  -0.2799   0.00    0.0
2023/05/16 09:02:52.000  -2421567.7160   5384910.4429   2404264.2158         0.0000         0.0000         0.0000         0.0000     0.0000     0.0000   2  18   0.4709   0.8028   0.4189  -0.4887   0.4099  -0.2799   0.00    0.0
2023/05/16 09:02:53.000  -2421567.7874   5384910.4675   2404264.2089         0.0000         0.0000         0.0000         0.0000     0.0000     0.0000   2  18   0.4709   0.8028   0.4189  -0.4887   0.4099  -0.2799   0.00    0.0
2023/05/16 09:02:54.000  -2421567.8429   5384910.5058   2404264.0343         0.0000         0.0000         0.0000         0.0000     0.0000     0.0000   2  18   0.4710   0.8027   0.4189  -0.4887   0.4099  -0.2799   0.00    0.0
2023/05/16 09:02:55.000  -2421567.8061   5384910.5350   2404264.1077         0.0000         0.0000         0.0000         0.0000     0.0000     0.0000   2  18   0.4710   0.8027   0.4189  -0.4887   0.4099  -0.2799   0.00    0.0
2023/05/16 09:02:56.000  -2421567.6849   5384910.5619   2404264.0738         0.0000         0.0000         0.0000         0.0000     0.0000     0.0000   2  18   0.4710   0.8027   0.4189  -0.4887   0.4099  -0.2799   0.00    0.0
2023/05/16 09:02:57.000  -2421567.7388   5384910.5944   2404264.0945         0.0000         0.0000         0.0000         0.0000     0.0000     0.0000   2  18   0.4710   0.8027   0.4189  -0.4887   0.4099  -0.2799   0.00    0.0
2023/05/16 09:02:58.000  -2421567.6559   5384910.4317   2404264.1342         0.0000         0.0000         0.0000         0.0000     0.0000     0.0000   2  18   0.4710   0.8027   0.4189  -0.4887   0.4099  -0.2799   0.00    0.0
2023/05/16 09:02:59.000  -2421567.6446   5384910.4101   2404264.1472         0.0000         0.0000         0.0000         0.0000     0.0000     0.0000   2  18   0.4710   0.8027   0.4189  -0.4887   0.4099  -0.2799   0.00    0.0
2023/05/16 09:03:00.000  -2421567.7319   5384910.6299   2404264.1144         0.0000         0.0000         0.0000         0.0000     0.0000     0.0000   2  18   0.4710   0.8027   0.4189  -0.4887   0.4099  -0.2799   0.00    0.0
2023/05/16 09:03:01.000  -2421567.7671   5384910.5619   2404264.1634         0.0000         0.0000         0.0000         0.0000     0.0000     0.0000   2  18   0.4710   0.8027   0.4189  -0.4887   0.4099  -0.2799   0.00    0.0
2023/05/16 09:03:02.000  -2421567.6737   5384910.6245   2404264.2338         0.0000         0.0000         0.0000         0.0000     0.0000     0.0000   2  18   0.4710   0.8027   0.4189  -0.4887   0.4099  -0.2799   0.00    0.0
2023/05/16 09:03:03.000  -2421567.7917   5384910.5833   2404264.1569         0.0000         0.0000         0.0000         0.0000     0.0000     0.0000   2  18   0.4710   0.8027   0.4189  -0.4887   0.4099  -0.2799   0.00    0.0
2023/05/16 09:03:04.000  -2421567.6957   5384910.4009   2404264.0934         0.0000         0.0000         0.0000         0.0000     0.0000     0.0000   2  18   0.4710   0.8027   0.4189  -0.4887   0.4098  -0.2799   0.00    0.0
2023/05/16 09:03:05.000  -2421567.6560   5384910.5091   2404264.0719         0.0000         0.0000         0.0000         0.0000     0.0000     0.0000   2  18   0.4710   0.8027   0.4189  -0.4887   0.4098  -0.2799   0.00    0.0
2023/05/16 09:03:06.000  -2421567.6841   5384910.6683   2404264.1283         0.0000         0.0000         0.0000         0.0000     0.0000     0.0000   2  18   0.4710   0.8026   0.4189  -0.4887   0.4098  -0.2799   0.00    0.0
2023/05/16 09:03:07.000  -2421567.7424   5384910.5941   2404264.0399         0.0000         0.0000         0.0000         0.0000     0.0000     0.0000   2  18   0.4710   0.8026   0.4189  -0.4887   0.4098  -0.2799   0.00    0.0
2023/05/16 09:03:08.000  -2421567.8296   5384910.6911   2404264.1757         0.0000         0.0000         0.0000         0.0000     0.0000     0.0000   2  18   0.4710   0.8026   0.4189  -0.4887   0.4098  -0.2799   0.00    0.0
2023/05/16 09:03:09.000  -2421567.8290   5384910.6995   2404264.2225         0.0000         0.0000         0.0000         0.0000     0.0000     0.0000   2  18   0.4710   0.8026   0.4188  -0.4887   0.4098  -0.2799   0.00    0.0
2023/05/16 09:03:10.000  -2421567.8469   5384910.6561   2404264.1116         0.0000         0.0000         0.0000         0.0000     0.0000     0.0000   2  18   0.4710   0.8026   0.4188  -0.4887   0.4098  -0.2799   0.00    0.0
2023/05/16 09:03:11.000  -2421567.8047   5384910.3899   2404264.0922         0.0000         0.0000         0.0000         0.0000     0.0000     0.0000   2  18   0.4710   0.8026   0.4188  -0.4887   0.4098  -0.2799   0.00    0.0
2023/05/16 09:03:12.000  -2421567.7070   5384910.4903   2404264.1299         0.0000         0.0000         0.0000         0.0000     0.0000     0.0000   2  18   0.4710   0.8026   0.4188  -0.4887   0.4098  -0.2799   0.00    0.0
2023/05/16 09:03:13.000  -2421567.6602   5384910.4515   2404264.0750         0.0000         0.0000         0.0000         0.0000     0.0000     0.0000   2  18   0.4710   0.8026   0.4188  -0.4887   0.4098  -0.2799   0.00    0.0
2023/05/16 09:03:14.000  -2421567.6323   5384910.5276   2404264.0604         0.0000         0.0000         0.0000         0.0000     0.0000     0.0000   2  18   0.4710   0.8026   0.4188  -0.4887   0.4098  -0.2799   0.00    0.0
2023/05/16 09:03:15.000  -2421567.7177   5384910.6098   2404264.1316         0.0000         0.0000         0.0000         0.0000     0.0000     0.0000   2  18   0.4710   0.8026   0.4188  -0.4887   0.4098  -0.2799   0.00    0.0
2023/05/16 09:03:16.000  -2421567.7479   5384910.6881   2404264.0992         0.0000         0.0000         0.0000         0.0000     0.0000     0.0000   2  18   0.4710   0.8026   0.4188  -0.4887   0.4098  -0.2799   0.00    0.0
2023/05/16 09:03:17.000  -2421567.7836   5384910.7428   2404264.0961         0.0000         0.0000         0.0000         0.0000     0.0000     0.0000   2  18   0.4710   0.8025   0.4188  -0.4887   0.4098  -0.2799   0.00    0.0
2023/05/16 09:03:18.000  -2421567.7612   5384910.6191   2404264.1741         0.0000         0.0000         0.0000         0.0000     0.0000     0.0000   2  18   0.4710   0.8025   0.4188  -0.4887   0.4098  -0.2799   0.00    0.0
2023/05/16 09:03:19.000  -2421567.7629   5384910.5719   2404264.1262         0.0000         0.0000         0.0000         0.0000     0.0000     0.0000   2  18   0.4711   0.8025   0.4188  -0.4887   0.4098  -0.2799   0.00    0.0
2023/05/16 09:03:20.000  -2421567.7545   5384910.7049   2404264.0484         0.0000         0.0000         0.0000         0.0000     0.0000     0.0000   2  18   0.4711   0.8025   0.4188  -0.4887   0.4098  -0.2799   0.00    0.0
2023/05/16 09:03:21.000  -2421567.7785   5384910.7569   2404264.1596         0.0000         0.0000         0.0000         0.0000     0.0000     0.0000   2  18   0.4711   0.8025   0.4188  -0.4887   0.4098  -0.2799   0.00    0.0
2023/05/16 09:03:22.000  -2421567.8443   5384910.7058   2404264.2679         0.0000         0.0000         0.0000         0.0000     0.0000     0.0000   2  18   0.4711   0.8025   0.4188  -0.4887   0.4098  -0.2799   0.00    0.0
2023/05/16 09:03:23.000  -2421567.8349   5384910.8066   2404264.1655         0.0000         0.0000         0.0000         0.0000     0.0000     0.0000   2  18   0.4711   0.8025   0.4188  -0.4887   0.4098  -0.2799   0.00    0.0
2023/05/16 09:03:24.000  -2421567.8601   5384910.8815   2404264.1641         0.0000         0.0000         0.0000         0.0000     0.0000     0.0000   2  18   0.4711   0.8025   0.4188  -0.4887   0.4098  -0.2799   0.00    0.0
2023/05/16 09:03:25.000  -2421567.8302   5384910.8637   2404264.1608         0.0000         0.0000         0.0000         0.0000     0.0000     0.0000   2  18   0.4711   0.8025   0.4188  -0.4886   0.4098  -0.2799   0.00    0.0
2023/05/16 09:03:26.000  -2421567.7732   5384910.7430   2404264.0559         0.0000         0.0000         0.0000         0.0000     0.0000     0.0000   2  18   0.4711   0.8025   0.4188  -0.4886   0.4098  -0.2799   0.00    0.0
2023/05/16 09:03:27.000  -2421567.8006   5384910.7362   2404264.1099         0.0000         0.0000         0.0000         0.0000     0.0000     0.0000   2  18   0.4711   0.8024   0.4188  -0.4886   0.4098  -0.2799   0.00    0.0
2023/05/16 09:03:28.000  -2421567.8889   5384910.8164   2404264.1798         0.0000         0.0000         0.0000         0.0000     0.0000     0.0000   2  18   0.4711   0.8024   0.4188  -0.4886   0.4098  -0.2799   0.00    0.0
2023/05/16 09:03:29.000  -2421567.7383   5384910.6832   2404264.1414         0.0000         0.0000         0.0000         0.0000     0.0000     0.0000   2  18   0.4711   0.8024   0.4188  -0.4886   0.4098  -0.2799   0.00    0.0
2023/05/16 09:03:30.000  -2421567.6453   5384910.5919   2404264.1327         0.0000         0.0000         0.0000         0.0000     0.0000     0.0000   2  18   0.4711   0.8024   0.4188  -0.4886   0.4098  -0.2799   0.00    0.0
2023/05/16 09:03:31.000  -2421567.6980   5384910.6284   2404264.0462         0.0000         0.0000         0.0000         0.0000     0.0000     0.0000   2  18   0.4711   0.8024   0.4188  -0.4886   0.4098  -0.2799   0.00    0.0
2023/05/16 09:03:32.000  -2421567.7727   5384910.5444   2404264.0509         0.0000         0.0000         0.0000         0.0000     0.0000     0.0000   2  18   0.4711   0.8024   0.4188  -0.4886   0.4098  -0.2799   0.00    0.0
2023/05/16 09:03:33.000  -2421567.7337   5384910.6877   2404264.0762         0.0000         0.0000         0.0000         0.0000     0.0000     0.0000   2  18   0.4711   0.8024   0.4187  -0.4886   0.4098  -0.2799   0.00    0.0
2023/05/16 09:03:34.000  -2421567.6976   5384910.6422   2404264.1108         0.0000         0.0000         0.0000         0.0000     0.0000     0.0000   2  18   0.4711   0.8024   0.4187  -0.4886   0.4098  -0.2799   0.00    0.0
2023/05/16 09:03:35.000  -2421567.7659   5384910.6518   2404264.1580         0.0000         0.0000         0.0000         0.0000     0.0000     0.0000   2  18   0.4711   0.8024   0.4187  -0.4886   0.4098  -0.2799   0.00    0.0
2023/05/16 09:03:36.000  -2421567.8260   5384910.8527   2404264.1751         0.0000         0.0000         0.0000         0.0000     0.0000     0.0000   2  18   0.4711   0.8024   0.4187  -0.4886   0.4098  -0.2799   0.00    0.0
2023/05/16 09:03:37.000  -2421567.8802   5384910.8987   2404264.0933         0.0000         0.0000         0.0000         0.0000     0.0000     0.0000   2  18   0.4711   0.8024   0.4187  -0.4886   0.4098  -0.2799   0.00    0.0
2023/05/16 09:03:38.000  -2421567.9433   5384910.7454   2404264.1378         0.0000         0.0000         0.0000         0.0000     0.0000     0.0000   2  18   0.4711   0.8023   0.4187  -0.4886   0.4098  -0.2799   0.00    0.0
2023/05/16 09:03:39.000  -2421567.7651   5384910.8928   2404264.1399         0.0000         0.0000         0.0000         0.0000     0.0000     0.0000   2  18   0.4711   0.8023   0.4187  -0.4886   0.4098  -0.2799   0.00    0.0
2023/05/16 09:03:40.000  -2421567.7736   5384910.7376   2404264.1344         0.0000         0.0000         0.0000         0.0000     0.0000     0.0000   2  18   0.4711   0.8023   0.4187  -0.4886   0.4098  -0.2799   0.00    0.0
2023/05/16 09:03:41.000  -2421567.7311   5384910.6787   2404264.1401         0.0000         0.0000         0.0000         0.0000     0.0000     0.0000   2  18   0.4711   0.8023   0.4187  -0.4886   0.4098  -0.2799   0.00    0.0
2023/05/16 09:03:42.000  -2421567.7417   5384910.5569   2404264.0743         0.0000         0.0000         0.0000         0.0000     0.0000     0.0000   2  18   0.4711   0.8023   0.4187  -0.4886   0.4098  -0.2799   0.00    0.0
2023/05/16 09:03:43.000  -2421567.8120   5384910.7271   2404264.1763         0.0000         0.0000         0.0000         0.0000     0.0000     0.0000   2  18   0.4711   0.8023   0.4187  -0.4886   0.4098  -0.2799   0.00    0.0
2023/05/16 09:03:44.000  -2421567.7833   5384910.8223   2404264.1272         0.0000         0.0000         0.0000         0.0000     0.0000     0.0000   2  18   0.4711   0.8023   0.4187  -0.4886   0.4097  -0.2799   0.00    0.0
2023/05/16 09:03:45.000  -2421567.7972   5384910.9295   2404264.1517         0.0000         0.0000         0.0000         0.0000     0.0000     0.0000   2  18   0.4711   0.8023   0.4187  -0.4886   0.4097  -0.2799   0.00    0.0
2023/05/16 09:03:46.000  -2421567.9191   5384910.8272   2404264.1299         0.0000         0.0000         0.0000         0.0000     0.0000     0.0000   2  18   0.4712   0.8023   0.4187  -0.4886   0.4097  -0.2799   0.00    0.0
2023/05/16 09:03:47.000  -2421567.7503   5384910.6802   2404264.1346         0.0000         0.0000         0.0000         0.0000     0.0000     0.0000   2  18   0.4712   0.8023   0.4187  -0.4886   0.4097  -0.2799   0.00    0.0
2023/05/16 09:03:48.000  -2421567.8149   5384910.8873   2404264.1660         0.0000         0.0000         0.0000         0.0000     0.0000     0.0000   2  18   0.4712   0.8022   0.4187  -0.4886   0.4097  -0.2799   0.00    0.0
2023/05/16 09:03:49.000  -2421567.8032   5384910.8017   2404264.2419         0.0000         0.0000         0.0000         0.0000     0.0000     0.0000   2  18   0.4712   0.8022   0.4187  -0.4886   0.4097  -0.2799   0.00    0.0
2023/05/16 09:03:50.000  -2421567.7204   5384910.6710   2404264.1370         0.0000         0.0000         0.0000         0.0000     0.0000     0.0000   2  18   0.4712   0.8022   0.4187  -0.4886   0.4097  -0.2799   0.00    0.0
2023/05/16 09:03:51.000  -2421567.7405   5384910.6332   2404264.1488         0.0000         0.0000         0.0000         0.0000     0.0000     0.0000   2  18   0.4712   0.8022   0.4187  -0.4886   0.4097  -0.2799   0.00    0.0
2023/05/16 09:03:52.000  -2421567.6204   5384910.6069   2404264.1378         0.0000         0.0000         0.0000         0.0000     0.0000     0.0000   2  18   0.4712   0.8022   0.4187  -0.4886   0.4097  -0.2799   0.00    0.0
2023/05/16 09:03:53.000  -2421567.6671   5384910.6297   2404264.1599         0.0000         0.0000         0.0000         0.0000     0.0000     0.0000   2  18   0.4712   0.8022   0.4187  -0.4886   0.4097  -0.2799   0.00    0.0
2023/05/16 09:03:54.000  -2421567.7557   5384910.8098   2404264.1179         0.0000         0.0000         0.0000         0.0000     0.0000     0.0000   2  18   0.4712   0.8022   0.4187  -0.4886   0.4097  -0.2799   0.00    0.0
2023/05/16 09:03:55.000  -2421567.7946   5384910.8640   2404264.2127         0.0000         0.0000         0.0000         0.0000     0.0000     0.0000   2  18   0.4712   0.8022   0.4187  -0.4886   0.4097  -0.2799   0.00    0.0
2023/05/16 09:03:56.000  -2421567.6824   5384910.7550   2404264.1712         0.0000         0.0000         0.0000         0.0000     0.0000     0.0000   2  18   0.4712   0.8022   0.4187  -0.4886   0.4097  -0.2799   0.00    0.0
2023/05/16 09:03:57.000  -2421567.8240   5384910.7495   2404264.1278         0.0000         0.0000         0.0000         0.0000     0.0000     0.0000   2  18   0.4712   0.8022   0.4187  -0.4886   0.4097  -0.2799   0.00    0.0
2023/05/16 09:03:58.000  -2421567.7476   5384910.6628   2404264.1310         0.0000         0.0000         0.0000         0.0000     0.0000     0.0000   2  18   0.4712   0.8021   0.4186  -0.4886   0.4097  -0.2799   0.00    0.0
2023/05/16 09:03:59.000  -2421567.7220   5384910.7687   2404264.1620         0.0000         0.0000         0.0000         0.0000     0.0000     0.0000   2  18   0.4712   0.8021   0.4186  -0.4886   0.4097  -0.2799   0.00    0.0
2023/05/16 09:04:00.000  -2421567.7160   5384910.8020   2404264.0777         0.0000         0.0000         0.0000         0.0000     0.0000     0.0000   2  18   0.4712   0.8021   0.4186  -0.4886   0.4097  -0.2799   0.00    0.0
2023/05/16 09:04:01.000  -2421567.7363   5384910.8107   2404264.2179         0.0000         0.0000         0.0000         0.0000     0.0000     0.0000   2  18   0.4712   0.8021   0.4186  -0.4886   0.4097  -0.2799   0.00    0.0
2023/05/16 09:04:02.000  -2421567.6985   5384910.8580   2404264.2819         0.0000         0.0000         0.0000         0.0000     0.0000     0.0000   2  18   0.4712   0.8021   0.4186  -0.4886   0.4097  -0.2799   0.00    0.0
2023/05/16 09:04:03.000  -2421567.7681   5384910.8971   2404264.2633         0.0000         0.0000         0.0000         0.0000     0.0000     0.0000   2  18   0.4712   0.8021   0.4186  -0.4886   0.4097  -0.2799   0.00    0.0
2023/05/16 09:04:04.000  -2421567.7248   5384910.9319   2404264.1876         0.0000         0.0000         0.0000         0.0000     0.0000     0.0000   2  18   0.4712   0.8021   0.4186  -0.4886   0.4097  -0.2799   0.00    0.0
2023/05/16 09:04:05.000  -2421567.7490   5384910.6261   2404264.1349         0.0000         0.0000         0.0000         0.0000     0.0000     0.0000   2  18   0.4712   0.8021   0.4186  -0.4886   0.4097  -0.2799   0.00    0.0
2023/05/16 09:04:06.000  -2421567.5979   5384910.5736   2404264.0945         0.0000         0.0000         0.0000         0.0000     0.0000     0.0000   2  18   0.4712   0.8021   0.4186  -0.4886   0.4097  -0.2799   0.00    0.0
2023/05/16 09:04:07.000  -2421567.6186   5384910.5524   2404264.1923         0.0000         0.0000         0.0000         0.0000     0.0000     0.0000   2  18   0.4712   0.8021   0.4186  -0.4886   0.4097  -0.2799   0.00    0.0
2023/05/16 09:04:08.000  -2421567.7962   5384910.6309   2404264.2309         0.0000         0.0000         0.0000         0.0000     0.0000     0.0000   2  18   0.4712   0.8020   0.4186  -0.4886   0.4097  -0.2799   0.00    0.0
2023/05/16 09:04:09.000  -2421567.7615   5384910.6965   2404264.2198         0.0000         0.0000         0.0000         0.0000     0.0000     0.0000   2  18   0.4712   0.8020   0.4186  -0.4886   0.4097  -0.2799   0.00    0.0
2023/05/16 09:04:10.000  -2421567.7119   5384910.8843   2404264.3330         0.0000         0.0000         0.0000         0.0000     0.0000     0.0000   2  18   0.4712   0.8020   0.4186  -0.4886   0.4097  -0.2799   0.00    0.0
2023/05/16 09:04:11.000  -2421567.7707   5384911.0501   2404264.2638         0.0000         0.0000         0.0000         0.0000     0.0000     0.0000   2  18   0.4712   0.8020   0.4186  -0.4886   0.4097  -0.2799   0.00    0.0
2023/05/16 09:04:12.000  -2421567.8195   5384910.9767   2404264.2846         0.0000         0.0000         0.0000         0.0000     0.0000     0.0000   2  18   0.4712   0.8020   0.4186  -0.4886   0.4097  -0.2799   0.00    0.0
2023/05/16 09:04:13.000  -2421567.7130   5384910.9604   2404264.2664         0.0000         0.0000         0.0000         0.0000     0.0000     0.0000   2  18   0.4712   0.8020   0.4186  -0.4885   0.4097  -0.2799   0.00    0.0
2023/05/16 09:04:14.000  -2421567.6676   5384910.7536   2404264.2515         0.0000         0.0000         0.0000         0.0000     0.0000     0.0000   2  18   0.4712   0.8020   0.4186  -0.4885   0.4097  -0.2799   0.00    0.0
2023/05/16 09:04:15.000  -2421567.8132   5384910.7620   2404264.1686         0.0000         0.0000         0.0000         0.0000     0.0000     0.0000   2  18   0.4713   0.8020   0.4186  -0.4885   0.4097  -0.2799   0.00    0.0
2023/05/16 09:04:16.000  -2421567.7293   5384910.7362   2404264.0486         0.0000         0.0000         0.0000         0.0000     0.0000     0.0000   2  18   0.4713   0.8020   0.4186  -0.4885   0.4097  -0.2799   0.00    0.0
2023/05/16 09:04:17.000  -2421567.7890   5384910.6779   2404264.0937         0.0000         0.0000         0.0000         0.0000     0.0000     0.0000   2  18   0.4713   0.8020   0.4186  -0.4885   0.4097  -0.2799   0.00    0.0
2023/05/16 09:04:18.000  -2421567.7534   5384910.8608   2404264.1806         0.0000         0.0000         0.0000         0.0000     0.0000     0.0000   2  18   0.4713   0.8019   0.4186  -0.4885   0.4097  -0.2799   0.00    0.0
2023/05/16 09:04:19.000  -2421567.7366   5384910.7853   2404264.2745         0.0000         0.0000         0.0000         0.0000     0.0000     0.0000   2  18   0.4713   0.8019   0.4186  -0.4885   0.4097  -0.2799   0.00    0.0
2023/05/16 09:04:20.000  -2421567.8361   5384910.9303   2404264.2433         0.0000         0.0000         0.0000         0.0000     0.0000     0.0000   2  18   0.4713   0.8019   0.4186  -0.4885   0.4097  -0.2799   0.00    0.0
2023/05/16 09:04:21.000  -2421567.7895   5384910.9087   2404264.2546         0.0000         0.0000         0.0000         0.0000     0.0000     0.0000   2  18   0.4713   0.8019   0.4186  -0.4885   0.4096  -0.2799   0.00    0.0
2023/05/16 09:04:22.000  -2421567.8038   5384910.8553   2404264.1688         0.0000         0.0000         0.0000         0.0000     0.0000     0.0000   2  18   0.4713   0.8019   0.4186  -0.4885   0.4096  -0.2799   0.00    0.0
