% ref pos   : -2421567.8945  5384910.5699  2404264.3972
%  GPST                      x-ecef(m)      y-ecef(m)      z-ecef(m)   Q  ns   sdx(m)   sdy(m)   sdz(m)  sdxy(m)  sdyz(m)  sdzx(m) age(s)  ratio
2023/05/16 09:00:00.000  -2414267.1697   5386768.9477   2407460.4392        -0.0000         0.0000         0.0000         0.0000     0.0000     0.0000   2  17   0.5784   1.0678   0.5183  -0.6831   0.6003  -0.4141   0.00    0.0
2023/05/16 09:00:01.000  -2414267.1378   5386769.0004   2407460.2850        -0.0000         0.0000         0.0000         0.0000     0.0000     0.0000   2  17   0.5757   1.0611   0.5163  -0.6784   0.5961  -0.4113   0.00    0.0
2023/05/16 09:00:02.000  -2414267.1974   5386769.1984   2407460.4194        -0.0000         0.0000         0.0000         0.0000     0.0000     0.0000   2  17   0.5758   1.0615   0.5165  -0.6787   0.5964  -0.4115   0.00    0.0
2023/05/16 09:00:03.000  -2414267.2446   5386769.0820   2407460.4029        -0.0000         0.0000         0.0000         0.0000     0.0000     0.0000   2  17   0.5645   1.0396   0.5063  -0.6644   0.5837  -0.4027   0.00    0.0
2023/05/16 09:00:04.000  -2414267.2286   5386768.9973   2407460.4318        -0.0000         0.0000         0.0000         0.0000     0.0000     0.0000   2  17   0.5504   1.0059   0.4951  -0.6408   0.5623  -0.3883   0.00    0.0
2023/05/16 09:00:05.000  -2414267.2768   5386768.9642   2407460.5119        -0.0000         0.0000         0.0000         0.0000     0.0000     0.0000   2  17   0.5369   0.9707   0.4854  -0.6154   0.5391  -0.3728   0.00    0.0
2023/05/16 09:00:06.000  -2414267.1092   5386769.0426   2407460.3769        -0.0000         0.0000         0.0000         0.0000     0.0000     0.0000   2  17   0.5242   0.9372   0.4763  -0.5911   0.5168  -0.3580   0.00    0.0
2023/05/16 09:00:07.000  -2414267.1103   5386768.9157   2407460.3635        -0.0000         0.0000         0.0000         0.0000     0.0000     0.0000   2  17   0.5129   0.9070   0.4682  -0.5691   0.4964  -0.3446   0.00    0.0
2023/05/16 09:00:08.000  -2414267.1042   5386768.8011   2407460.4037        -0.0000         0.0000         0.0000         0.0000     0.0000     0.0000   2  17   0.5032   0.8809   0.4614  -0.5500   0.4788  -0.3330   0.00    0.0
2023/05/16 09:00:09.000  -2414267.1134   5386768.9468   2407460.3669        -0.0000         0.0000         0.0000         0.0000     0.0000     0.0000   2  17   0.4955   0.8598   0.4560  -0.5344   0.4644  -0.3235   0.00    0.0
2023/05/16 09:00:10.000  -2414267.1652   5386768.9441   2407460.3475        -0.0000         0.0000         0.0000         0.0000     0.0000     0.0000   2  17   0.4897   0.8441   0.4519  -0.5228   0.4537  -0.3164   0.00    0.0
2023/05/16 09:00:11.000  -2414267.0600   5386768.8169   2407460.2472        -0.0000         0.0000         0.0000         0.0000     0.0000     0.0000   2  16   0.5278   0.8696   0.4566  -0.5624   0.4684  -0.3373   0.00    0.0
2023/05/16 09:00:12.000  -2414266.9832   5386768.7437   2407460.2760        -0.0000         0.0000         0.0000         0.0000     0.0000     0.0000   2  17   0.4910   0.8427   0.4514  -0.5235   0.4525  -0.3166   0.00    0.0
2023/05/16 09:00:13.000  -2414266.9787   5386768.8681   2407460.3949        -0.0000         0.0000         0.0000         0.0000     0.0000     0.0000   2  17   0.4841   0.8298   0.4484  -0.5117   0.4439  -0.3097   0.00    0.0
2023/05/16 09:00:14.000  -2414267.1488   5386769.0844   2407460.3985        -0.0000         0.0000         0.0000         0.0000     0.0000     0.0000   2  17   0.4829   0.8253   0.4472  -0.5088   0.4408  -0.3079   0.00    0.0
2023/05/16 09:00:15.000  -2414267.1408   5386769.0323   2407460.4369        -0.0000         0.0000         0.0000         0.0000     0.0000     0.0000   2  17   0.4828   0.8247   0.4470  -0.5084   0.4403  -0.3076   0.00    0.0
2023/05/16 09:00:16.000  -2414267.1359   5386768.8879   2407460.3848        -0.0000         0.0000         0.0000         0.0000     0.0000     0.0000   2  17   0.4829   0.8249   0.4471  -0.5086   0.4405  -0.3078   0.00    0.0
2023/05/16 09:00:17.000  -2414267.1882   5386769.0375   2407460.4875        -0.0000         0.0000         0.0000         0.0000     0.0000     0.0000   2  17   0.4829   0.8250   0.4471  -0.5086   0.4405  -0.3078   0.00    0.0
2023/05/16 09:00:18.000  -2414267.0855   5386768.9034   2407460.5088        -0.0000         0.0000         0.0000         0.0000     0.0000     0.0000   2  17   0.4828   0.8247   0.4470  -0.5085   0.4403  -0.3077   0.00    0.0
2023/05/16 09:00:19.000  -2414267.1933   5386769.0799   2407460.3654        -0.0000         0.0000         0.0000         0.0000     0.0000     0.0000   2  17   0.4827   0.8243   0.4469  -0.5082   0.4401  -0.3075   0.00    0.0
2023/05/16 09:00:20.000  -2414267.1458   5386769.0809   2407460.4452        -0.0000         0.0000         0.0000         0.0000     0.0000     0.0000   2  17   0.4826   0.8240   0.4469  -0.5080   0.4399  -0.3074   0.00    0.0
2023/05/16 09:00:21.000  -2414267.0470   5386768.9189   2407460.3519        -0.0000         0.0000         0.0000         0.0000     0.0000     0.0000   2  17   0.4825   0.8239   0.4468  -0.5079   0.4398  -0.3073   0.00    0.0
2023/05/16 09:00:22.000  -2414267.1225   5386768.8977   2407460.3492        -0.0000         0.0000         0.0000         0.0000     0.0000     0.0000   2  17   0.4825   0.8238   0.4468  -0.5078   0.4398  -0.3073   0.00    0.0
2023/05/16 09:00:23.000  -2414267.1073   5386768.9038   2407460.2074        -0.0000         0.0000         0.0000         0.0000     0.0000     0.0000   2  17   0.4825   0.8238   0.4468  -0.5079   0.4398  -0.3073   0.00    0.0
2023/05/16 09:00:24.000  -2414267.0654   5386768.9128   2407460.2210        -0.0000         0.0000         0.0000         0.0000     0.0000     0.0000   2  17   0.4826   0.8238   0.4468  -0.5079   0.4398  -0.3073   0.00    0.0
2023/05/16 09:00:25.000  -2414267.1222   5386768.8694   2407460.4306        -0.0000         0.0000         0.0000         0.0000     0.0000     0.0000   2  17   0.4826   0.8238   0.4468  -0.5079   0.4398  -0.3073   0.00    0.0
2023/05/16 09:00:26.000  -2414267.0716   5386768.9480   2407460.3458        -0.0000         0.0000         0.0000         0.0000     0.0000     0.0000   2  17   0.4826   0.8238   0.4468  -0.5079   0.4397  -0.3073   0.00    0.0
2023/05/16 09:00:27.000  -2414267.1054   5386768.9916   2407460.3415        -0.0000         0.0000         0.0000         0.0000     0.0000     0.0000   2  17   0.4826   0.8238   0.4468  -0.5078   0.4397  -0.3073   0.00    0.0
2023/05/16 09:00:28.000  -2414267.0192   5386768.7243   2407460.2811        -0.0000         0.0000         0.0000         0.0000     0.0000     0.0000   2  17   0.4826   0.8238   0.4468  -0.5078   0.4397  -0.3073   0.00    0.0
2023/05/16 09:00:29.000  -2414266.9880   5386768.7244   2407460.2944        -0.0000         0.0000         0.0000         0.0000     0.0000     0.0000   2  17   0.4826   0.8237   0.4468  -0.5078   0.4397  -0.3073   0.00    0.0
2023/05/16 09:00:30.000  -2414267.0321   5386768.7838   2407460.3310        -0.0000         0.0000         0.0000         0.0000     0.0000     0.0000   2  17   0.4826   0.8237   0.4468  -0.5078   0.4397  -0.3073   0.00    0.0
2023/05/16 09:00:31.000  -2414267.1294   5386768.8048   2407460.2745        -0.0000         0.0000         0.0000         0.0000     0.0000     0.0000   2  17   0.4826   0.8237   0.4468  -0.5078   0.4397  -0.3073   0.00    0.0
2023/05/16 09:00:32.000  -2414267.0483   5386769.0126   2407460.2789        -0.0000         0.0000         0.0000         0.0000     0.0000     0.0000   2  17   0.4826   0.8237   0.4468  -0.5078   0.4397  -0.3073   0.00    0.0
2023/05/16 09:00:33.000  -2414267.1296   5386769.0105   2407460.3421        -0.0000         0.0000         0.0000         0.0000     0.0000     0.0000   2  17   0.4826   0.8237   0.4468  -0.5078   0.4397  -0.3073   0.00    0.0
2023/05/16 09:00:34.000  -2414267.2502   5386769.1660   2407460.3901        -0.0000         0.0000         0.0000         0.0000     0.0000     0.0000   2  17   0.4826   0.8237   0.4468  -0.5078   0.4397  -0.3073   0.00    0.0
2023/05/16 09:00:35.000  -2414267.2131   5386769.1832   2407460.4133        -0.0000         0.0000         0.0000         0.0000     0.0000     0.0000   2  17   0.4826   0.8237   0.4468  -0.5078   0.4397  -0.3073   0.00    0.0
2023/05/16 09:00:36.000  -2414267.2158   5386769.0176   2407460.3021        -0.0000         0.0000         0.0000         0.0000     0.0000     0.0000   2  17   0.4826   0.8237   0.4468  -0.5078   0.4397  -0.3073   0.00    0.0
2023/05/16 09:00:37.000  -2414267.0840   5386768.8348   2407460.2702        -0.0000         0.0000         0.0000         0.0000     0.0000     0.0000   2  17   0.4826   0.8237   0.4468  -0.5078   0.4397  -0.3073   0.00    0.0
2023/05/16 09:00:38.000  -2414267.0550   5386768.8684   2407460.2597        -0.0000         0.0000         0.0000         0.0000     0.0000     0.0000   2  17   0.4826   0.8236   0.4468  -0.5078   0.4397  -0.3073   0.00    0.0
2023/05/16 09:00:39.000  -2414266.9947   5386768.6682   2407460.3738        -0.0000         0.0000         0.0000         0.0000     0.0000     0.0000   2  17   0.4826   0.8236   0.4468  -0.5078   0.4397  -0.3073   0.00    0.0
2023/05/16 09:00:40.000  -2414267.1314   5386768.8642   2407460.3298        -0.0000         0.0000         0.0000         0.0000     0.0000     0.0000   2  17   0.4826   0.8236   0.4468  -0.5078   0.4397  -0.3073   0.00    0.0
2023/05/16 09:00:41.000  -2414267.1534   5386768.9137   2407460.3878        -0.0000         0.0000         0.0000         0.0000     0.0000     0.0000   2  17   0.4826   0.8236   0.4468  -0.5078   0.4397  -0.3073   0.00    0.0
2023/05/16 09:00:42.000  -2414267.1134   5386768.8188   2407460.3783        -0.0000         0.0000         0.0000         0.0000     0.0000     0.0000   2  17   0.4826   0.8236   0.4468  -0.5078   0.4397  -0.3073   0.00    0.0
2023/05/16 09:00:43.000  -2414267.1457   5386768.9368   2407460.3854        -0.0000         0.0000         0.0000         0.0000     0.0000     0.0000   2  17   0.4826   0.8236   0.4468  -0.5078   0.4396  -0.3073   0.00    0.0
2023/05/16 09:00:44.000  -2414267.0062   5386768.9662   2407460.3095        -0.0000         0.0000         0.0000         0.0000     0.0000     0.0000   2  17   0.4827   0.8236   0.4468  -0.5078   0.4396  -0.3074   0.00    0.0
2023/05/16 09:00:45.000  -2414267.2085   5386768.9391   2407460.2670        -0.0000         0.0000         0.0000         0.0000     0.0000     0.0000   2  17   0.4827   0.8236   0.4468  -0.5078   0.4396  -0.3074   0.00    0.0
2023/05/16 09:00:46.000  -2414267.0706   5386768.7414   2407460.3303        -0.0000         0.0000         0.0000         0.0000     0.0000     0.0000   2  17   0.4827   0.8236   0.4468  -0.5078   0.4396  -0.3074   0.00    0.0
2023/05/16 09:00:47.000  -2414267.0590   5386768.8676   2407460.3849        -0.0000         0.0000         0.0000         0.0000     0.0000     0.0000   2  17   0.4827   0.8235   0.4468  -0.5078   0.4396  -0.3074   0.00    0.0
2023/05/16 09:00:48.000  -2414267.0354   5386768.8267   2407460.3935        -0.0000         0.0000         0.0000         0.0000     0.0000     0.0000   2  17   0.4827   0.8235   0.4468  -0.5078   0.4396  -0.3074   0.00    0.0
2023/05/16 09:00:49.000  -2414267.1366   5386768.8611   2407460.4245        -0.0000         0.0000         0.0000         0.0000     0.0000     0.0000   2  17   0.4827   0.8235   0.4468  -0.5078   0.4396  -0.3074   0.00    0.0
2023/05/16 09:00:50.000  -2414267.2289   5386769.0263   2407460.4740        -0.0000         0.0000         0.0000         0.0000     0.0000     0.0000   2  17   0.4827   0.8235   0.4468  -0.5078   0.4396  -0.3074   0.00    0.0
2023/05/16 09:00:51.000  -2414267.1142   5386768.9567   2407460.4086        -0.0000         0.0000         0.0000         0.0000     0.0000     0.0000   2  17   0.4827   0.8235   0.4468  -0.5078   0.4396  -0.3074   0.00    0.0
2023/05/16 09:00:52.000  -2414267.0976   5386769.0303   2407460.3045        -0.0000         0.0000         0.0000         0.0000     0.0000     0.0000   2  17   0.4827   0.8235   0.4468  -0.5078   0.4396  -0.3074   0.00    0.0
2023/05/16 09:00:53.000  -2414267.1311   5386768.9672   2407460.4415        -0.0000         0.0000         0.0000         0.0000     0.0000     0.0000   2  17   0.4827   0.8235   0.4468  -0.5078   0.4396  -0.3074   0.00    0.0
2023/05/16 09:00:54.000  -2414267.1004   5386768.9904   2407460.3857        -0.0000         0.0000         0.0000         0.0000     0.0000     0.0000   2  17   0.4827   0.8235   0.4468  -0.5078   0.4396  -0.3074   0.00    0.0
2023/05/16 09:00:55.000  -2414267.0811   5386768.8580   2407460.3538        -0.0000         0.0000         0.0000         0.0000     0.0000     0.0000   2  17   0.4827   0.8234   0.4468  -0.5078   0.4396  -0.3074   0.00    0.0
2023/05/16 09:00:56.000  -2414267.1231   5386768.8424   2407460.3182        -0.0000         0.0000         0.0000         0.0000     0.0000     0.0000   2  17   0.4827   0.8234   0.4468  -0.5078   0.4396  -0.3074   0.00    0.0
2023/05/16 09:00:57.000  -2414267.0566   5386768.8169   2407460.2981        -0.0000         0.0000         0.0000         0.0000     0.0000     0.0000   2  17   0.4827   0.8234   0.4468  -0.5078   0.4396  -0.3074   0.00    0.0
2023/05/16 09:00:58.000  -2414267.0954   5386768.9287   2407460.3674        -0.0000         0.0000         0.0000         0.0000     0.0000     0.0000   2  17   0.4827   0.8234   0.4468  -0.5078   0.4396  -0.3074   0.00    0.0
2023/05/16 09:00:59.000  -2414267.1391   5386768.7882   2407460.4491        -0.0000         0.0000         0.0000         0.0000     0.0000     0.0000   2  17   0.4827   0.8234   0.4468  -0.5078   0.4396  -0.3074   0.00    0.0
2023/05/16 09:01:00.000  -2414267.2162   5386768.8572   2407460.4414        -0.0000         0.0000         0.0000         0.0000     0.0000     0.0000   2  17   0.4827   0.8234   0.4467  -0.5078   0.4396  -0.3074   0.00    0.0
2023/05/16 09:01:01.000  -2414267.1527   5386768.8699   2407460.4109        -0.0000         0.0000         0.0000         0.0000     0.0000     0.0000   2  17   0.4827   0.8234   0.4467  -0.5078   0.4396  -0.3074   0.00    0.0
2023/05/16 09:01:02.000  -2414267.1375   5386768.8349   2407460.3400        -0.0000         0.0000         0.0000         0.0000     0.0000     0.0000   2  17   0.4827   0.8234   0.4467  -0.5078   0.4396  -0.3074   0.00    0.0
2023/05/16 09:01:03.000  -2414267.1061   5386768.9101   2407460.3654        -0.0000         0.0000         0.0000         0.0000     0.0000     0.0000   2  17   0.4827   0.8234   0.4467  -0.5078   0.4396  -0.3074   0.00    0.0
2023/05/16 09:01:04.000  -2414267.0054   5386768.9013   2407460.3735        -0.0000         0.0000         0.0000         0.0000     0.0000     0.0000   2  17   0.4828   0.8233   0.4467  -0.5078   0.4395  -0.3074   0.00    0.0
2023/05/16 09:01:05.000  -2414267.1048   5386768.8460   2407460.3720        -0.0000         0.0000         0.0000         0.0000     0.0000     0.0000   2  17   0.4828   0.8233   0.4467  -0.5078   0.4395  -0.3074   0.00    0.0
2023/05/16 09:01:06.000  -2414267.0721   5386768.7247   2407460.3220        -0.0000         0.0000         0.0000         0.0000     0.0000     0.0000   2  17   0.4828   0.8233   0.4467  -0.5078   0.4395  -0.3074   0.00    0.0
2023/05/16 09:01:07.000  -2414267.0439   5386768.7586   2407460.3512        -0.0000         0.0000         0.0000         0.0000     0.0000     0.0000   2  17   0.4828   0.8233   0.4467  -0.5078   0.4395  -0.3074   0.00    0.0
2023/05/16 09:01:08.000  -2414267.0865   5386768.8176   2407460.2618        -0.0000         0.0000         0.0000         0.0000     0.0000     0.0000   2  17   0.4828   0.8233   0.4467  -0.5078   0.4395  -0.3074   0.00    0.0
2023/05/16 09:01:09.000  -2414267.1191   5386768.9267   2407460.3463        -0.0000         0.0000         0.0000         0.0000     0.0000     0.0000   2  17   0.4828   0.8233   0.4467  -0.5078   0.4395  -0.3074   0.00    0.0
2023/05/16 09:01:10.000  -2414267.1282   5386768.9207   2407460.4625        -0.0000         0.0000         0.0000         0.0000     0.0000     0.0000   2  17   0.4828   0.8233   0.4467  -0.5078   0.4395  -0.3074   0.00    0.0
2023/05/16 09:01:11.000  -2414267.0982   5386769.0402   2407460.4114        -0.0000         0.0000         0.0000         0.0000     0.0000     0.0000   2  17   0.4828   0.8233   0.4467  -0.5078   0.4395  -0.3074   0.00    0.0
2023/05/16 09:01:12.000  -2414267.1993   5386769.1315   2407460.4427        -0.0000         0.0000         0.0000         0.0000     0.0000     0.0000   2  17   0.4828   0.8232   0.4467  -0.5078   0.4395  -0.3074   0.00    0.0
2023/05/16 09:01:13.000  -2414267.3003   5386768.9221   2407460.3452        -0.0000         0.0000         0.0000         0.0000     0.0000     0.0000   2  17   0.4828   0.8232   0.4467  -0.5078   0.4395  -0.3074   0.00    0.0
2023/05/16 09:01:14.000  -2414267.1418   5386768.9802   2407460.3196        -0.0000         0.0000         0.0000         0.0000     0.0000     0.0000   2  17   0.4828   0.8232   0.4467  -0.5078   0.4395  -0.3074   0.00    0.0
2023/05/16 09:01:15.000  -2414267.1160   5386768.8427   2407460.3273        -0.0000         0.0000         0.0000         0.0000     0.0000     0.0000   2  17   0.4828   0.8232   0.4467  -0.5078   0.4395  -0.3074   0.00    0.0
2023/05/16 09:01:16.000  -2414266.9991   5386768.8927   2407460.3108        -0.0000         0.0000         0.0000         0.0000     0.0000     0.0000   2  17   0.4828   0.8232   0.4467  -0.5078   0.4395  -0.3074   0.00    0.0
2023/05/16 09:01:17.000  -2414267.1375   5386768.8933   2407460.4016        -0.0000         0.0000         0.0000         0.0000     0.0000     0.0000   2  17   0.4828   0.8232   0.4467  -0.5077   0.4395  -0.3074   0.00    0.0
2023/05/16 09:01:18.000  -2414267.0887   5386769.0059   2407460.3490        -0.0000         0.0000         0.0000         0.0000     0.0000     0.0000   2  17   0.4828   0.8232   0.4467  -0.5077   0.4395  -0.3074   0.00    0.0
2023/05/16 09:01:19.000  -2414266.9535   5386768.8075   2407460.2579        -0.0000         0.0000         0.0000         0.0000     0.0000     0.0000   2  17   0.4828   0.8232   0.4467  -0.5077   0.4395  -0.3074   0.00    0.0
2023/05/16 09:01:20.000  -2414267.0064   5386768.7775   2407460.1950        -0.0000         0.0000         0.0000         0.0000     0.0000     0.0000   2  17   0.4828   0.8231   0.4467  -0.5077   0.4395  -0.3074   0.00    0.0
2023/05/16 09:01:21.000  -2414266.9795   5386768.8862   2407460.2802        -0.0000         0.0000         0.0000         0.0000     0.0000     0.0000   2  17   0.4828   0.8231   0.4467  -0.5077   0.4395  -0.3074   0.00    0.0
2023/05/16 09:01:22.000  -2414267.1007   5386769.1078   2407460.4046        -0.0000         0.0000         0.0000         0.0000     0.0000     0.0000   2  17   0.4828   0.8231   0.4467  -0.5077   0.4395  -0.3074   0.00    0.0
2023/05/16 09:01:23.000  -2414267.1331   5386769.0012   2407460.4122        -0.0000         0.0000         0.0000         0.0000     0.0000     0.0000   2  17   0.4828   0.8231   0.4467  -0.5077   0.4394  -0.3074   0.00    0.0
2023/05/16 09:01:24.000  -2414267.2048   5386769.0544   2407460.3916        -0.0000         0.0000         0.0000         0.0000     0.0000     0.0000   2  17   0.4829   0.8231   0.4467  -0.5077   0.4394  -0.3074   0.00    0.0
2023/05/16 09:01:25.000  -2414267.2015   5386769.0591   2407460.3620        -0.0000         0.0000         0.0000         0.0000     0.0000     0.0000   2  17   0.4829   0.8231   0.4467  -0.5077   0.4394  -0.3074   0.00    0.0
2023/05/16 09:01:26.000  -2414267.1234   5386769.1519   2407460.2740        -0.0000         0.0000         0.0000         0.0000     0.0000     0.0000   2  17   0.4829   0.8231   0.4467  -0.5077   0.4394  -0.3074   0.00    0.0
2023/05/16 09:01:27.000  -2414267.0860   5386769.0876   2407460.2788        -0.0000         0.0000         0.0000         0.0000     0.0000     0.0000   2  17   0.4829   0.8231   0.4467  -0.5077   0.4394  -0.3074   0.00    0.0
2023/05/16 09:01:28.000  -2414267.0809   5386768.9671   2407460.3166        -0.0000         0.0000         0.0000         0.0000     0.0000     0.0000   2  17   0.4829   0.8230   0.4467  -0.5077   0.4394  -0.3074   0.00    0.0
2023/05/16 09:01:29.000  -2414267.1319   5386768.9424   2407460.2313        -0.0000         0.0000         0.0000         0.0000     0.0000     0.0000   2  17   0.4829   0.8230   0.4467  -0.5077   0.4394  -0.3074   0.00    0.0
2023/05/16 09:01:30.000  -2414267.1405   5386769.0531   2407460.3267        -0.0000         0.0000         0.0000         0.0000     0.0000     0.0000   2  17   0.4829   0.8230   0.4467  -0.5077   0.4394  -0.3074   0.00    0.0
2023/05/16 09:01:31.000  -2414267.0822   5386769.0780   2407460.3613        -0.0000         0.0000         0.0000         0.0000     0.0000     0.0000   2  17   0.4829   0.8230   0.4467  -0.5077   0.4394  -0.3074   0.00    0.0
2023/05/16 09:01:32.000  -2414267.0444   5386769.0546   2407460.3246        -0.0000         0.0000         0.0000         0.0000     0.0000     0.0000   2  17   0.4829   0.8230   0.4467  -0.5077   0.4394  -0.3074   0.00    0.0
2023/05/16 09:01:33.000  -2414267.1667   5386769.1332   2407460.3011        -0.0000         0.0000         0.0000         0.0000     0.0000     0.0000   2  17   0.4829   0.8230   0.4467  -0.5077   0.4394  -0.3075   0.00    0.0
2023/05/16 09:01:34.000  -2414267.1599   5386769.0630   2407460.2590        -0.0000         0.0000         0.0000         0.0000     0.0000     0.0000   2  17   0.4829   0.8230   0.4467  -0.5077   0.4394  -0.3075   0.00    0.0
2023/05/16 09:01:35.000  -2414267.1760   5386769.0496   2407460.2938        -0.0000         0.0000         0.0000         0.0000     0.0000     0.0000   2  17   0.4829   0.8230   0.4467  -0.5077   0.4394  -0.3075   0.00    0.0
2023/05/16 09:01:36.000  -2414267.1691   5386769.0478   2407460.2566        -0.0000         0.0000         0.0000         0.0000     0.0000     0.0000   2  17   0.4829   0.8229   0.4467  -0.5077   0.4394  -0.3075   0.00    0.0
2023/05/16 09:01:37.000  -2414267.1887   5386769.1282   2407460.3156        -0.0000         0.0000         0.0000         0.0000     0.0000     0.0000   2  18   0.4739   0.8122   0.4221  -0.4954   0.4168  -0.2845   0.00    0.0
2023/05/16 09:01:38.000  -2414267.1256   5386769.0942   2407460.3371        -0.0000         0.0000         0.0000         0.0000     0.0000     0.0000   2  18   0.4714   0.8061   0.4195  -0.4905   0.4112  -0.2805   0.00    0.0
2023/05/16 09:01:39.000  -2414267.2638   5386769.1858   2407460.3330        -0.0000         0.0000         0.0000         0.0000     0.0000     0.0000   2  18   0.4708   0.8041   0.4193  -0.4892   0.4104  -0.2800   0.00    0.0
2023/05/16 09:01:40.000  -2414267.2452   5386769.0922   2407460.3677        -0.0000         0.0000         0.0000         0.0000     0.0000     0.0000   2  18   0.4707   0.8039   0.4193  -0.4890   0.4103  -0.2799   0.00    0.0
2023/05/16 09:01:41.000  -2414267.2455   5386769.0759   2407460.3409        -0.0000         0.0000         0.0000         0.0000     0.0000     0.0000   2  18   0.4707   0.8038   0.4193  -0.4890   0.4103  -0.2799   0.00    0.0
2023/05/16 09:01:42.000  -2414267.2118   5386769.1643   2407460.3768        -0.0000         0.0000         0.0000         0.0000     0.0000     0.0000   2  18   0.4707   0.8037   0.4193  -0.4889   0.4102  -0.2799   0.00    0.0
2023/05/16 09:01:43.000  -2414267.1305   5386769.1835   2407460.2830        -0.0000         0.0000         0.0000         0.0000     0.0000     0.0000   2  18   0.4706   0.8035   0.4192  -0.4887   0.4100  -0.2798   0.00    0.0
2023/05/16 09:01:44.000  -2414267.0999   5386769.1123   2407460.2107        -0.0000         0.0000         0.0000         0.0000     0.0000     0.0000   2  18   0.4706   0.8033   0.4192  -0.4886   0.4099  -0.2797   0.00    0.0
2023/05/16 09:01:45.000  -2414267.1262   5386769.1937   2407460.2285        -0.0000         0.0000         0.0000         0.0000     0.0000     0.0000   2  18   0.4705   0.8032   0.4192  -0.4885   0.4099  -0.2797   0.00    0.0
2023/05/16 09:01:46.000  -2414267.2890   5386769.2014   2407460.3340        -0.0000         0.0000         0.0000         0.0000     0.0000     0.0000   2  18   0.4705   0.8032   0.4192  -0.4885   0.4098  -0.2797   0.00    0.0
2023/05/16 09:01:47.000  -2414267.1482   5386769.1966   2407460.4631        -0.0000         0.0000         0.0000         0.0000     0.0000     0.0000   2  18   0.4705   0.8031   0.4191  -0.4885   0.4098  -0.2797   0.00    0.0
2023/05/16 09:01:48.000  -2414267.1449   5386769.2193   2407460.3382        -0.0000         0.0000         0.0000         0.0000     0.0000     0.0000   2  18   0.4705   0.8031   0.4191  -0.4885   0.4098  -0.2797   0.00    0.0
2023/05/16 09:01:49.000  -2414267.1178   5386769.2209   2407460.2590        -0.0000         0.0000         0.0000         0.0000     0.0000     0.0000   2  18   0.4705   0.8031   0.4191  -0.4885   0.4098  -0.2797   0.00    0.0
2023/05/16 09:01:50.000  -2414267.1980   5386769.2528   2407460.3136        -0.0000         0.0000         0.0000         0.0000     0.0000     0.0000   2  18   0.4705   0.8031   0.4191  -0.4885   0.4098  -0.2797   0.00    0.0
2023/05/16 09:01:51.000  -2414267.2029   5386769.2505   2407460.3317        -0.0000         0.0000         0.0000         0.0000     0.0000     0.0000   2  18   0.4705   0.8031   0.4191  -0.4885   0.4098  -0.2797   0.00    0.0
2023/05/16 09:01:52.000  -2414267.2550   5386769.1204   2407460.2218        -0.0000         0.0000         0.0000         0.0000     0.0000     0.0000   2  18   0.4706   0.8031   0.4191  -0.4885   0.4098  -0.2797   0.00    0.0
2023/05/16 09:01:53.000  -2414267.2481   5386769.1738   2407460.2203        -0.0000         0.0000         0.0000         0.0000     0.0000     0.0000   2  18   0.4706   0.8031   0.4191  -0.4885   0.4098  -0.2797   0.00    0.0
2023/05/16 09:01:54.000  -2414267.2298   5386769.3804   2407460.3973        -0.0000         0.0000         0.0000         0.0000     0.0000     0.0000   2  18   0.4706   0.8030   0.4191  -0.4885   0.4098  -0.2797   0.00    0.0
2023/05/16 09:01:55.000  -2414267.3241   5386769.3949   2407460.3626        -0.0000         0.0000         0.0000         0.0000     0.0000     0.0000   2  18   0.4706   0.8030   0.4191  -0.4885   0.4098  -0.2797   0.00    0.0
2023/05/16 09:01:56.000  -2414267.2872   5386769.3197   2407460.3762        -0.0000         0.0000         0.0000         0.0000     0.0000     0.0000   2  18   0.4706   0.8030   0.4191  -0.4885   0.4098  -0.2797   0.00    0.0
2023/05/16 09:01:57.000  -2414267.2159   5386769.2415   2407460.2606        -0.0000         0.0000         0.0000         0.0000     0.0000     0.0000   2  18   0.4706   0.8030   0.4191  -0.4885   0.4098  -0.2797   0.00    0.0
2023/05/16 09:01:58.000  -2414267.1512   5386769.2379   2407460.3119        -0.0000         0.0000         0.0000         0.0000     0.0000     0.0000   2  18   0.4706   0.8030   0.4191  -0.4885   0.4098  -0.2797   0.00    0.0
2023/05/16 09:01:59.000  -2414267.1069   5386769.1855   2407460.3252        -0.0000         0.0000         0.0000         0.0000     0.0000     0.0000   2  18   0.4706   0.8030   0.4191  -0.4885   0.4098  -0.2797   0.00    0.0
2023/05/16 09:02:00.000  -2414267.1942   5386769.1756   2407460.3076        -0.0000         0.0000         0.0000         0.0000     0.0000     0.0000   2  18   0.4706   0.8030   0.4191  -0.4885   0.4098  -0.2797   0.00    0.0
2023/05/16 09:02:01.000  -2414267.1090   5386769.2163   2407460.2504        -0.0000         0.0000         0.0000         0.0000     0.0000     0.0000   2  18   0.4706   0.8030   0.4191  -0.4885   0.4098  -0.2797   0.00    0.0
2023/05/16 09:02:02.000  -2414267.2590   5386769.2815   2407460.3213        -0.0000         0.0000         0.0000         0.0000     0.0000     0.0000   2  18   0.4706   0.8030   0.4191  -0.4885   0.4098  -0.2797   0.00    0.0
2023/05/16 09:02:03.000  -2414267.2380   5386769.3390   2407460.3689        -0.0000         0.0000         0.0000         0.0000     0.0000     0.0000   2  18   0.4706   0.8030   0.4191  -0.4885   0.4098  -0.2797   0.00    0.0
2023/05/16 09:02:04.000  -2414267.2214   5386769.2766   2407460.3309        -0.0000         0.0000         0.0000         0.0000     0.0000     0.0000   2  18   0.4706   0.8030   0.4191  -0.4885   0.4098  -0.2797   0.00    0.0
2023/05/16 09:02:05.000  -2414267.1646   5386769.2527   2407460.3396        -0.0000         0.0000         0.0000         0.0000     0.0000     0.0000   2  18   0.4706   0.8030   0.4191  -0.4885   0.4098  -0.2797   0.00    0.0
2023/05/16 09:02:06.000  -2414267.1114   5386769.2035   2407460.3666        -0.0000         0.0000         0.0000         0.0000     0.0000     0.0000   2  18   0.4706   0.8030   0.4190  -0.4885   0.4098  -0.2797   0.00    0.0
2023/05/16 09:02:07.000  -2414267.1939   5386769.2355   2407460.3373        -0.0000         0.0000         0.0000         0.0000     0.0000     0.0000   2  18   0.4706   0.8029   0.4190  -0.4885   0.4098  -0.2797   0.00    0.0
2023/05/16 09:02:08.000  -2414267.2001   5386769.3222   2407460.3047        -0.0000         0.0000         0.0000         0.0000     0.0000     0.0000   2  18   0.4706   0.8029   0.4190  -0.4885   0.4098  -0.2797   0.00    0.0
2023/05/16 09:02:09.000  -2414267.1882   5386769.4425   2407460.4179        -0.0000         0.0000         0.0000         0.0000     0.0000     0.0000   2  18   0.4706   0.8029   0.4190  -0.4885   0.4098  -0.2797   0.00    0.0
2023/05/16 09:02:10.000  -2414267.2477   5386769.3713   2407460.4307        -0.0000         0.0000         0.0000         0.0000     0.0000     0.0000   2  18   0.4706   0.8029   0.4190  -0.4885   0.4098  -0.2797   0.00    0.0
2023/05/16 09:02:11.000  -2414267.1855   5386769.3903   2407460.3576        -0.0000         0.0000         0.0000         0.0000     0.0000     0.0000   2  18   0.4706   0.8029   0.4190  -0.4885   0.4097  -0.2797   0.00    0.0
2023/05/16 09:02:12.000  -2414267.1902   5386769.4870   2407460.3791        -0.0000         0.0000         0.0000         0.0000     0.0000     0.0000   2  18   0.4706   0.8029   0.4190  -0.4885   0.4097  -0.2797   0.00    0.0
2023/05/16 09:02:13.000  -2414267.1497   5386769.2843   2407460.2919        -0.0000         0.0000         0.0000         0.0000     0.0000     0.0000   2  18   0.4706   0.8029   0.4190  -0.4885   0.4097  -0.2797   0.00    0.0
2023/05/16 09:02:14.000  -2414267.1437   5386769.1223   2407460.2941        -0.0000         0.0000         0.0000         0.0000     0.0000     0.0000   2  18   0.4706   0.8029   0.4190  -0.4885   0.4097  -0.2797   0.00    0.0
2023/05/16 09:02:15.000  -2414267.0897   5386769.0458   2407460.3015        -0.0000         0.0000         0.0000         0.0000     0.0000     0.0000   2  18   0.4707   0.8029   0.4190  -0.4885   0.4097  -0.2797   0.00    0.0
2023/05/16 09:02:16.000  -2414267.1730   5386769.0846   2407460.3811        -0.0000         0.0000         0.0000         0.0000     0.0000     0.0000   2  18   0.4707   0.8029   0.4190  -0.4885   0.4097  -0.2797   0.00    0.0
2023/05/16 09:02:17.000  -2414267.2207   5386769.3561   2407460.3704        -0.0000         0.0000         0.0000         0.0000     0.0000     0.0000   2  18   0.4707   0.8029   0.4190  -0.4885   0.4097  -0.2797   0.00    0.0
2023/05/16 09:02:18.000  -2414267.2626   5386769.2290   2407460.3104        -0.0000         0.0000         0.0000         0.0000     0.0000     0.0000   2  18   0.4707   0.8029   0.4190  -0.4885   0.4097  -0.2797   0.00    0.0
2023/05/16 09:02:19.000  -2414267.2806   5386769.3588   2407460.4001        -0.0000         0.0000         0.0000         0.0000     0.0000     0.0000   2  18   0.4707   0.8029   0.4190  -0.4885   0.4097  -0.2797   0.00    0.0
2023/05/16 09:02:20.000  -2414267.1815   5386769.2178   2407460.4148        -0.0000         0.0000         0.0000         0.0000     0.0000     0.0000   2  18   0.4707   0.8028   0.4190  -0.4885   0.4097  -0.2797   0.00    0.0
2023/05/16 09:02:21.000  -2414267.0550   5386769.2076   2407460.3444        -0.0000         0.0000         0.0000         0.0000     0.0000     0.0000   2  18   0.4707   0.8028   0.4190  -0.4885   0.4097  -0.2797   0.00    0.0
2023/05/16 09:02:22.000  -2414267.1887   5386769.2422   2407460.3000        -0.0000         0.0000         0.0000         0.0000     0.0000     0.0000   2  18   0.4707   0.8028   0.4190  -0.4885   0.4097  -0.2797   0.00    0.0
2023/05/16 09:02:23.000  -2414267.1729   5386769.2700   2407460.3214        -0.0000         0.0000         0.0000         0.0000     0.0000     0.0000   2  18   0.4707   0.8028   0.4190  -0.4885   0.4097  -0.2797   0.00    0.0
2023/05/16 09:02:24.000  -2414267.0925   5386769.2187   2407460.3661        -0.0000         0.0000         0.0000         0.0000     0.0000     0.0000   2  18   0.4707   0.8028   0.4190  -0.4885   0.4097  -0.2797   0.00    0.0
2023/05/16 09:02:25.000  -2414267.1780   5386769.1274   2407460.3205        -0.0000         0.0000         0.0000         0.0000     0.0000     0.0000   2  18   0.4707   0.8028   0.4190  -0.4885   0.4097  -0.2797   0.00    0.0
2023/05/16 09:02:26.000  -2414267.2103   5386769.0866   2407460.3494        -0.0000         0.0000         0.0000         0.0000     0.0000     0.0000   2  18   0.4707   0.8028   0.4190  -0.4885   0.4097  -0.2797   0.00    0.0
2023/05/16 09:02:27.000  -2414267.1706   5386768.9953   2407460.2237        -0.0000         0.0000         0.0000         0.0000     0.0000     0.0000   2  18   0.4707   0.8028   0.4189  -0.4885   0.4097  -0.2797   0.00    0.0
2023/05/16 09:02:28.000  -2414267.0865   5386769.0327   2407460.2562        -0.0000         0.0000         0.0000         0.0000     0.0000     0.0000   2  18   0.4707   0.8028   0.4189  -0.4885   0.4097  -0.2797   0.00    0.0
2023/05/16 09:02:29.000  -2414267.0892   5386769.1510   2407460.3262        -0.0000         0.0000         0.0000         0.0000     0.0000     0.0000   2  18   0.4707   0.8028   0.4189  -0.4885   0.4097  -0.2797   0.00    0.0
2023/05/16 09:02:30.000  -2414267.0537   5386769.2211   2407460.3156        -0.0000         0.0000         0.0000         0.0000     0.0000     0.0000   2  18   0.4707   0.8028   0.4189  -0.4885   0.4097  -0.2796   0.00    0.0
2023/05/16 09:02:31.000  -2414267.2300   5386769.1883   2407460.4178        -0.0000         0.0000         0.0000         0.0000     0.0000     0.0000   2  18   0.4707   0.8028   0.4189  -0.4885   0.4097  -0.2796   0.00    0.0
2023/05/16 09:02:32.000  -2414267.2485   5386769.3574   2407460.3980        -0.0000         0.0000         0.0000         0.0000     0.0000     0.0000   2  18   0.4707   0.8028   0.4189  -0.4885   0.4097  -0.2796   0.00    0.0
2023/05/16 09:02:33.000  -2414267.1336   5386769.3281   2407460.3431        -0.0000         0.0000         0.0000         0.0000     0.0000     0.0000   2  18   0.4707   0.8027   0.4189  -0.4885   0.4097  -0.2796   0.00    0.0
2023/05/16 09:02:34.000  -2414267.1614   5386769.1754   2407460.3993        -0.0000         0.0000         0.0000         0.0000     0.0000     0.0000   2  18   0.4707   0.8027   0.4189  -0.4885   0.4097  -0.2796   0.00    0.0
2023/05/16 09:02:35.000  -2414267.1732   5386769.1370   2407460.3665        -0.0000         0.0000         0.0000         0.0000     0.0000     0.0000   2  18   0.4707   0.8027   0.4189  -0.4885   0.4097  -0.2796   0.00    0.0
2023/05/16 09:02:36.000  -2414267.1252   5386769.1333   2407460.3336        -0.0000         0.0000         0.0000         0.0000     0.0000     0.0000   2  18   0.4707   0.8027   0.4189  -0.4885   0.4097  -0.2796   0.00    0.0
2023/05/16 09:02:37.000  -2414267.1794   5386769.0910   2407460.3345        -0.0000         0.0000         0.0000         0.0000     0.0000     0.0000   2  18   0.4707   0.8027   0.4189  -0.4885   0.4097  -0.2796   0.00    0.0
2023/05/16 09:02:38.000  -2414267.1797   5386769.0572   2407460.2577        -0.0000         0.0000         0.0000         0.0000     0.0000     0.0000   2  18   0.4708   0.8027   0.4189  -0.4885   0.4097  -0.2796   0.00    0.0
2023/05/16 09:02:39.000  -2414267.0762   5386769.0239   2407460.1810        -0.0000         0.0000         0.0000         0.0000     0.0000     0.0000   2  18   0.4708   0.8027   0.4189  -0.4885   0.4097  -0.2796   0.00    0.0
2023/05/16 09:02:40.000  -2414267.2108   5386769.1307   2407460.2642        -0.0000         0.0000         0.0000         0.0000     0.0000     0.0000   2  18   0.4708   0.8027   0.4189  -0.4885   0.4097  -0.2796   0.00    0.0
2023/05/16 09:02:41.000  -2414267.2173   5386769.1522   2407460.3272        -0.0000         0.0000         0.0000         0.0000     0.0000     0.0000   2  18   0.4708   0.8027   0.4189  -0.4885   0.4097  -0.2796   0.00    0.0
2023/05/16 09:02:42.000  -2414267.0217   5386769.1150   2407460.3682        -0.0000         0.0000         0.0000         0.0000     0.0000     0.0000   2  18   0.4708   0.8027   0.4189  -0.4885   0.4097  -0.2796   0.00    0.0
2023/05/16 09:02:43.000  -2414267.0383   5386769.0278   2407460.3084        -0.0000         0.0000         0.0000         0.0000     0.0000     0.0000   2  18   0.4708   0.8027   0.4189  -0.4885   0.4097  -0.2796   0.00    0.0
2023/05/16 09:02:44.000  -2414266.9754   5386769.0746   2407460.2359        -0.0000         0.0000         0.0000         0.0000     0.0000     0.0000   2  18   0.4708   0.8027   0.4189  -0.4885   0.4097  -0.2796   0.00    0.0
2023/05/16 09:02:45.000  -2414266.9713   5386768.8691   2407460.1826        -0.0000         0.0000         0.0000         0.0000     0.0000     0.0000   2  18   0.4708   0.8026   0.4189  -0.4885   0.4097  -0.2796   0.00    0.0
2023/05/16 09:02:46.000  -2414267.0810   5386769.0168   2407460.2603        -0.0000         0.0000         0.0000         0.0000     0.0000     0.0000   2  18   0.4708   0.8026   0.4189  -0.4885   0.4097  -0.2796   0.00    0.0
2023/05/16 09:02:47.000  -2414267.0554   5386768.9932   2407460.3010        -0.0000         0.0000         0.0000         0.0000     0.0000     0.0000   2  18   0.4708   0.8026   0.4189  -0.4885   0.4097  -0.2796   0.00    0.0
2023/05/16 09:02:48.000  -2414267.0616   5386768.9775   2407460.3018        -0.0000         0.0000         0.0000         0.0000     0.0000     0.0000   2  18   0.4708   0.8026   0.4189  -0.4885   0.4097  -0.2796   0.00    0.0
2023/05/16 09:02:49.000  -2414267.0023   5386768.8711   2407460.3389        -0.0000         0.0000         0.0000         0.0000     0.0000     0.0000   2  18   0.4708   0.8026   0.4188  -0.4885   0.4097  -0.2796   0.00    0.0
2023/05/16 09:02:50.000  -2414267.0436   5386768.9110   2407460.3397        -0.0000         0.0000         0.0000         0.0000     0.0000     0.0000   2  18   0.4708   0.8026   0.4188  -0.4885   0.4097  -0.2796   0.00    0.0
2023/05/16 09:02:51.000  -2414267.0884   5386769.0633   2407460.2933        -0.0000         0.0000         0.0000         0.0000     0.0000     0.0000   2  18   0.4708   0.8026   0.4188  -0.4885   0.4097  -0.2796   0.00    0.0
2023/05/16 09:02:52.000  -2414267.1014   5386769.1200   2407460.2156        -0.0000         0.0000         0.0000         0.0000     0.0000     0.0000   2  18   0.4708   0.8026   0.4188  -0.4885   0.4097  -0.2796   0.00    0.0
2023/05/16 09:02:53.000  -2414267.0301   5386769.0959   2407460.2225        -0.0000         0.0000         0.0000         0.0000     0.0000     0.0000   2  18   0.4708   0.8026   0.4188  -0.4885   0.4097  -0.2796   0.00    0.0
2023/05/16 09:02:54.000  -2414266.9747   5386769.0575   2407460.3973        -0.0000         0.0000         0.0000         0.0000     0.0000     0.0000   2  18   0.4708   0.8026   0.4188  -0.4885   0.4097  -0.2796   0.00    0.0
2023/05/16 09:02:55.000  -2414267.0114   5386769.0283   2407460.3238        -0.0000         0.0000         0.0000         0.0000     0.0000     0.0000   2  18   0.4708   0.8026   0.4188  -0.4885   0.4097  -0.2796   0.00    0.0
2023/05/16 09:02:56.000  -2414267.1325   5386769.0012   2407460.3576        -0.0000         0.0000         0.0000         0.0000     0.0000     0.0000   2  18   0.4708   0.8025   0.4188  -0.4885   0.4097  -0.2796   0.00    0.0
2023/05/16 09:02:57.000  -2414267.0787   5386768.9687   2407460.3368        -0.0000         0.0000         0.0000         0.0000     0.0000     0.0000   2  18   0.4708   0.8025   0.4188  -0.4885   0.4097  -0.2796   0.00    0.0
2023/05/16 09:02:58.000  -2414267.1618   5386769.1315   2407460.2973        -0.0000         0.0000         0.0000         0.0000     0.0000     0.0000   2  18   0.4708   0.8025   0.4188  -0.4885   0.4097  -0.2796   0.00    0.0
2023/05/16 09:02:59.000  -2414267.1731   5386769.1533   2407460.2842        -0.0000         0.0000         0.0000         0.0000     0.0000     0.0000   2  18   0.4708   0.8025   0.4188  -0.4885   0.4097  -0.2796   0.00    0.0
2023/05/16 09:03:00.000  -2414267.0859   5386768.9340   2407460.3173        -0.0000         0.0000         0.0000         0.0000     0.0000     0.0000   2  18   0.4708   0.8025   0.4188  -0.4885   0.4096  -0.2796   0.00    0.0
2023/05/16 09:03:01.000  -2414267.0510   5386769.0022   2407460.2684        -0.0000         0.0000         0.0000         0.0000     0.0000     0.0000   2  18   0.4708   0.8025   0.4188  -0.4885   0.4096  -0.2796   0.00    0.0
2023/05/16 09:03:02.000  -2414267.1445   5386768.9397   2407460.1979        -0.0000         0.0000         0.0000         0.0000     0.0000     0.0000   2  18   0.4709   0.8025   0.4188  -0.4885   0.4096  -0.2796   0.00    0.0
2023/05/16 09:03:03.000  -2414267.0263   5386768.9805   2407460.2746        -0.0000         0.0000         0.0000         0.0000     0.0000     0.0000   2  18   0.4709   0.8025   0.4188  -0.4885   0.4096  -0.2796   0.00    0.0
2023/05/16 09:03:04.000  -2414267.1221   5386769.1627   2407460.3381        -0.0000         0.0000         0.0000         0.0000     0.0000     0.0000   2  18   0.4709   0.8025   0.4188  -0.4885   0.4096  -0.2796   0.00    0.0
2023/05/16 09:03:05.000  -2414267.1615   5386769.0543   2407460.3597        -0.0000         0.0000         0.0000         0.0000     0.0000     0.0000   2  18   0.4709   0.8025   0.4188  -0.4885   0.4096  -0.2796   0.00    0.0
2023/05/16 09:03:06.000  -2414267.1334   5386768.8951   2407460.3032        -0.0000         0.0000         0.0000         0.0000     0.0000     0.0000   2  18   0.4709   0.8025   0.4188  -0.4885   0.4096  -0.2796   0.00    0.0
2023/05/16 09:03:07.000  -2414267.0756   5386768.9695   2407460.3916        -0.0000         0.0000         0.0000         0.0000     0.0000     0.0000   2  18   0.4709   0.8025   0.4188  -0.4885   0.4096  -0.2796   0.00    0.0
2023/05/16 09:03:08.000  -2414266.9882   5386768.8726   2407460.2560        -0.0000         0.0000         0.0000         0.0000     0.0000     0.0000   2  18   0.4709   0.8024   0.4188  -0.4885   0.4096  -0.2796   0.00    0.0
2023/05/16 09:03:09.000  -2414266.9887   5386768.8642   2407460.2092        -0.0000         0.0000         0.0000         0.0000     0.0000     0.0000   2  18   0.4709   0.8024   0.4188  -0.4884   0.4096  -0.2796   0.00    0.0
2023/05/16 09:03:10.000  -2414266.9709   5386768.9076   2407460.3199        -0.0000         0.0000         0.0000         0.0000     0.0000     0.0000   2  18   0.4709   0.8024   0.4188  -0.4884   0.4096  -0.2796   0.00    0.0
2023/05/16 09:03:11.000  -2414267.0131   5386769.1738   2407460.3395        -0.0000         0.0000         0.0000         0.0000     0.0000     0.0000   2  18   0.4709   0.8024   0.4188  -0.4884   0.4096  -0.2796   0.00    0.0
2023/05/16 09:03:12.000  -2414267.1108   5386769.0736   2407460.3018        -0.0000         0.0000         0.0000         0.0000     0.0000     0.0000   2  18   0.4709   0.8024   0.4187  -0.4884   0.4096  -0.2796   0.00    0.0
2023/05/16 09:03:13.000  -2414267.1578   5386769.1124   2407460.3567        -0.0000         0.0000         0.0000         0.0000     0.0000     0.0000   2  18   0.4709   0.8024   0.4187  -0.4884   0.4096  -0.2796   0.00    0.0
2023/05/16 09:03:14.000  -2414267.1859   5386769.0367   2407460.3713        -0.0000         0.0000         0.0000         0.0000     0.0000     0.0000   2  18   0.4709   0.8024   0.4187  -0.4884   0.4096  -0.2796   0.00    0.0
2023/05/16 09:03:15.000  -2414267.1000   5386768.9541   2407460.3001        -0.0000         0.0000         0.0000         0.0000     0.0000     0.0000   2  18   0.4709   0.8024   0.4187  -0.4884   0.4096  -0.2796   0.00    0.0
2023/05/16 09:03:16.000  -2414267.0697   5386768.8756   2407460.3324        -0.0000         0.0000         0.0000         0.0000     0.0000     0.0000   2  18   0.4709   0.8024   0.4187  -0.4884   0.4096  -0.2796   0.00    0.0
2023/05/16 09:03:17.000  -2414267.0342   5386768.8211   2407460.3356        -0.0000         0.0000         0.0000         0.0000     0.0000     0.0000   2  18   0.4709   0.8024   0.4187  -0.4884   0.4096  -0.2796   0.00    0.0
2023/05/16 09:03:18.000  -2414267.0569   5386768.9448   2407460.2577        -0.0000         0.0000         0.0000         0.0000     0.0000     0.0000   2  18   0.4709   0.8024   0.4187  -0.4884   0.4096  -0.2796   0.00    0.0
2023/05/16 09:03:19.000  -2414267.0553   5386768.9921   2407460.3056        -0.0000         0.0000         0.0000         0.0000     0.0000     0.0000   2  18   0.4709   0.8023   0.4187  -0.4884   0.4096  -0.2796   0.00    0.0
2023/05/16 09:03:20.000  -2414267.0639   5386768.8596   2407460.3833        -0.0000         0.0000         0.0000         0.0000     0.0000     0.0000   2  18   0.4709   0.8023   0.4187  -0.4884   0.4096  -0.2796   0.00    0.0
2023/05/16 09:03:21.000  -2414267.0394   5386768.8071   2407460.2721        -0.0000         0.0000         0.0000         0.0000     0.0000     0.0000   2  18   0.4709   0.8023   0.4187  -0.4884   0.4096  -0.2796   0.00    0.0
2023/05/16 09:03:22.000  -2414266.9734   5386768.8580   2407460.1637        -0.0000         0.0000         0.0000         0.0000     0.0000     0.0000   2  18   0.4709   0.8023   0.4187  -0.4884   0.4096  -0.2796   0.00    0.0
2023/05/16 09:03:23.000  -2414266.9827   5386768.7568   2407460.2663        -0.0000         0.0000         0.0000         0.0000     0.0000     0.0000   2  18   0.4709   0.8023   0.4187  -0.4884   0.4096  -0.2796   0.00    0.0
2023/05/16 09:03:24.000  -2414266.9575   5386768.6818   2407460.2674        -0.0000         0.0000         0.0000         0.0000     0.0000     0.0000   2  18   0.4709   0.8023   0.4187  -0.4884   0.4096  -0.2796   0.00    0.0
2023/05/16 09:03:25.000  -2414266.9874   5386768.6997   2407460.2707        -0.0000         0.0000         0.0000         0.0000     0.0000     0.0000   2  18   0.4709   0.8023   0.4187  -0.4884   0.4096  -0.2796   0.00    0.0
2023/05/16 09:03:26.000  -2414267.0445   5386768.8206   2407460.3757        -0.0000         0.0000         0.0000         0.0000     0.0000     0.0000   2  18   0.4709   0.8023   0.4187  -0.4884   0.4096  -0.2796   0.00    0.0
2023/05/16 09:03:27.000  -2414267.0172   5386768.8275   2407460.3217        -0.0000         0.0000         0.0000         0.0000     0.0000     0.0000   2  18   0.4709   0.8023   0.4187  -0.4884   0.4096  -0.2796   0.00    0.0
2023/05/16 09:03:28.000  -2414266.9288   5386768.7475   2407460.2519        -0.0000         0.0000         0.0000         0.0000     0.0000     0.0000   2  18   0.4710   0.8023   0.4187  -0.4884   0.4096  -0.2796   0.00    0.0
2023/05/16 09:03:29.000  -2414267.0796   5386768.8808   2407460.2903        -0.0000         0.0000         0.0000         0.0000     0.0000     0.0000   2  18   0.4710   0.8023   0.4187  -0.4884   0.4096  -0.2796   0.00    0.0
2023/05/16 09:03:30.000  -2414267.1726   5386768.9721   2407460.2989        -0.0000         0.0000         0.0000         0.0000     0.0000     0.0000   2  18   0.4710   0.8022   0.4187  -0.4884   0.4096  -0.2796   0.00    0.0
2023/05/16 09:03:31.000  -2414267.1198   5386768.9352   2407460.3854        -0.0000         0.0000         0.0000         0.0000     0.0000     0.0000   2  18   0.4710   0.8022   0.4187  -0.4884   0.4096  -0.2796   0.00    0.0
2023/05/16 09:03:32.000  -2414267.0449   5386769.0188   2407460.3806        -0.0000         0.0000         0.0000         0.0000     0.0000     0.0000   2  18   0.4710   0.8022   0.4187  -0.4884   0.4096  -0.2796   0.00    0.0
2023/05/16 09:03:33.000  -2414267.0841   5386768.8760   2407460.3555        -0.0000         0.0000         0.0000         0.0000     0.0000     0.0000   2  18   0.4710   0.8022   0.4187  -0.4884   0.4096  -0.2796   0.00    0.0
2023/05/16 09:03:34.000  -2414267.1204   5386768.9216   2407460.3208        -0.0000         0.0000         0.0000         0.0000     0.0000     0.0000   2  18   0.4710   0.8022   0.4187  -0.4884   0.4096  -0.2796   0.00    0.0
2023/05/16 09:03:35.000  -2414267.0519   5386768.9118   2407460.2736        -0.0000         0.0000         0.0000         0.0000     0.0000     0.0000   2  18   0.4710   0.8022   0.4187  -0.4884   0.4096  -0.2796   0.00    0.0
2023/05/16 09:03:36.000  -2414266.9916   5386768.7108   2407460.2566        -0.0000         0.0000         0.0000         0.0000     0.0000     0.0000   2  18   0.4710   0.8022   0.4186  -0.4884   0.4096  -0.2796   0.00    0.0
2023/05/16 09:03:37.000  -2414266.9375   5386768.6649   2407460.3384        -0.0000         0.0000         0.0000         0.0000     0.0000     0.0000   2  18   0.4710   0.8022   0.4186  -0.4884   0.4096  -0.2796   0.00    0.0
2023/05/16 09:03:38.000  -2414266.8743   5386768.8179   2407460.2938        -0.0000         0.0000         0.0000         0.0000     0.0000     0.0000   2  18   0.4710   0.8022   0.4186  -0.4884   0.4096  -0.2796   0.00    0.0
2023/05/16 09:03:39.000  -2414267.0525   5386768.6707   2407460.2917        -0.0000         0.0000         0.0000         0.0000     0.0000     0.0000   2  18   0.4710   0.8022   0.4186  -0.4884   0.4096  -0.2796   0.00    0.0
2023/05/16 09:03:40.000  -2414267.0443   5386768.8262   2407460.2973        -0.0000         0.0000         0.0000         0.0000     0.0000     0.0000   2  18   0.4710   0.8022   0.4186  -0.4884   0.4096  -0.2796   0.00    0.0
2023/05/16 09:03:41.000  -2414267.0869   5386768.8852   2407460.2916        -0.0000         0.0000         0.0000         0.0000     0.0000     0.0000   2  18   0.4710   0.8021   0.4186  -0.4884   0.4095  -0.2796   0.00    0.0
2023/05/16 09:03:42.000  -2414267.0761   5386769.0069   2407460.3573        -0.0000         0.0000         0.0000         0.0000     0.0000     0.0000   2  18   0.4710   0.8021   0.4186  -0.4884   0.4095  -0.2796   0.00    0.0
2023/05/16 09:03:43.000  -2414267.0059   5386768.8368   2407460.2554        -0.0000         0.0000         0.0000         0.0000     0.0000     0.0000   2  18   0.4710   0.8021   0.4186  -0.4884   0.4095  -0.2796   0.00    0.0
2023/05/16 09:03:44.000  -2414267.0344   5386768.7414   2407460.3045        -0.0000         0.0000         0.0000         0.0000     0.0000     0.0000   2  18   0.4710   0.8021   0.4186  -0.4884   0.4095  -0.2796   0.00    0.0
2023/05/16 09:03:45.000  -2414267.0203   5386768.6340   2407460.2798        -0.0000         0.0000         0.0000         0.0000     0.0000     0.0000   2  18   0.4710   0.8021   0.4186  -0.4884   0.4095  -0.2796   0.00    0.0
2023/05/16 09:03:46.000  -2414266.8984   5386768.7359   2407460.3015        -0.0000         0.0000         0.0000         0.0000     0.0000     0.0000   2  18   0.4710   0.8021   0.4186  -0.4884   0.4095  -0.2796   0.00    0.0
2023/05/16 09:03:47.000  -2414267.0675   5386768.8833   2407460.2969        -0.0000         0.0000         0.0000         0.0000     0.0000     0.0000   2  18   0.4710   0.8021   0.4186  -0.4884   0.4095  -0.2796   0.00    0.0
2023/05/16 09:03:48.000  -2414267.0027   5386768.6762   2407460.2656        -0.0000         0.0000         0.0000         0.0000     0.0000     0.0000   2  18   0.4710   0.8021   0.4186  -0.4884   0.4095  -0.2796   0.00    0.0
2023/05/16 09:03:49.000  -2414267.0144   5386768.7618   2407460.1895        -0.0000         0.0000         0.0000         0.0000     0.0000     0.0000   2  18   0.4710   0.8021   0.4186  -0.4884   0.4095  -0.2796   0.00    0.0
2023/05/16 09:03:50.000  -2414267.0974   5386768.8924   2407460.2944        -0.0000         0.0000         0.0000         0.0000     0.0000     0.0000   2  18   0.4710   0.8021   0.4186  -0.4884   0.4095  -0.2796   0.00    0.0
2023/05/16 09:03:51.000  -2414267.0774   5386768.9306   2407460.2829        -0.0000         0.0000         0.0000         0.0000     0.0000     0.0000   2  18   0.4710   0.8020   0.4186  -0.4884   0.4095  -0.2796   0.00    0.0
2023/05/16 09:03:52.000  -2414267.1976   5386768.9570   2407460.2938        -0.0000         0.0000         0.0000         0.0000     0.0000     0.0000   2  18   0.4710   0.8020   0.4186  -0.4884   0.4095  -0.2796   0.00    0.0
2023/05/16 09:03:53.000  -2414267.1510   5386768.9343   2407460.2717        -0.0000         0.0000         0.0000         0.0000     0.0000     0.0000   2  18   0.4710   0.8020   0.4186  -0.4884   0.4095  -0.2796   0.00    0.0
2023/05/16 09:03:54.000  -2414267.0623   5386768.7542   2407460.3138        -0.0000         0.0000         0.0000         0.0000     0.0000     0.0000   2  18   0.4710   0.8020   0.4186  -0.4884   0.4095  -0.2796   0.00    0.0
2023/05/16 09:03:55.000  -2414267.0233   5386768.6999   2407460.2190        -0.0000         0.0000         0.0000         0.0000     0.0000     0.0000   2  18   0.4711   0.8020   0.4186  -0.4884   0.4095  -0.2796   0.00    0.0
2023/05/16 09:03:56.000  -2414267.1355   5386768.8085   2407460.2603        -0.0000         0.0000         0.0000         0.0000     0.0000     0.0000   2  18   0.4711   0.8020   0.4186  -0.4884   0.4095  -0.2796   0.00    0.0
2023/05/16 09:03:57.000  -2414266.9935   5386768.8137   2407460.3036        -0.0000         0.0000         0.0000         0.0000     0.0000     0.0000   2  18   0.4711   0.8020   0.4186  -0.4884   0.4095  -0.2796   0.00    0.0
2023/05/16 09:03:58.000  -2414267.0701   5386768.9007   2407460.3006        -0.0000         0.0000         0.0000         0.0000     0.0000     0.0000   2  18   0.4711   0.8020   0.4186  -0.4884   0.4095  -0.2796   0.00    0.0
2023/05/16 09:03:59.000  -2414267.0957   5386768.7949   2407460.2695        -0.0000         0.0000         0.0000         0.0000     0.0000     0.0000   2  18   0.4711   0.8020   0.4186  -0.4884   0.4095  -0.2796   0.00    0.0
2023/05/16 09:04:00.000  -2414267.1017   5386768.7615   2407460.3537        -0.0000         0.0000         0.0000         0.0000     0.0000     0.0000   2  18   0.4711   0.8020   0.4186  -0.4884   0.4095  -0.2796   0.00    0.0
2023/05/16 09:04:01.000  -2414267.0813   5386768.7527   2407460.2136        -0.0000         0.0000         0.0000         0.0000     0.0000     0.0000   2  18   0.4711   0.8019   0.4185  -0.4884   0.4095  -0.2796   0.00    0.0
2023/05/16 09:04:02.000  -2414267.1190   5386768.7051   2407460.1496        -0.0000         0.0000         0.0000         0.0000     0.0000     0.0000   2  18   0.4711   0.8019   0.4185  -0.4884   0.4095  -0.2796   0.00    0.0
2023/05/16 09:04:03.000  -2414267.0496   5386768.6661   2407460.1682        -0.0000         0.0000         0.0000         0.0000     0.0000     0.0000   2  18   0.4711   0.8019   0.4185  -0.4884   0.4095  -0.2796   0.00    0.0
2023/05/16 09:04:04.000  -2414267.0930   5386768.6316   2407460.2438        -0.0000         0.0000         0.0000         0.0000     0.0000     0.0000   2  18   0.4711   0.8019   0.4185  -0.4883   0.4095  -0.2796   0.00    0.0
2023/05/16 09:04:05.000  -2414267.0689   5386768.9377   2407460.2967        -0.0000         0.0000         0.0000         0.0000     0.0000     0.0000   2  18   0.4711   0.8019   0.4185  -0.4883   0.4095  -0.2796   0.00    0.0
2023/05/16 09:04:06.000  -2414267.2203   5386768.9908   2407460.3373        -0.0000         0.0000         0.0000         0.0000     0.0000     0.0000   2  18   0.4711   0.8019   0.4185  -0.4883   0.4095  -0.2796   0.00    0.0
2023/05/16 09:04:07.000  -2414267.1995   5386769.0118   2407460.2394        -0.0000         0.0000         0.0000         0.0000     0.0000     0.0000   2  18   0.4711   0.8019   0.4185  -0.4883   0.4095  -0.2796   0.00    0.0
2023/05/16 09:04:08.000  -2414267.0215   5386768.9330   2407460.2007        -0.0000         0.0000         0.0000         0.0000     0.0000     0.0000   2  18   0.4711   0.8019   0.4185  -0.4883   0.4095  -0.2796   0.00    0.0
2023/05/16 09:04:09.000  -2414267.0560   5386768.8669   2407460.2117        -0.0000         0.0000         0.0000         0.0000     0.0000     0.0000   2  18   0.4711   0.8019   0.4185  -0.4883   0.4095  -0.2796   0.00    0.0
2023/05/16 09:04:10.000  -2414267.1055   5386768.6789   2407460.0984        -0.0000         0.0000         0.0000         0.0000     0.0000     0.0000   2  18   0.4711   0.8019   0.4185  -0.4883   0.4095  -0.2796   0.00    0.0
2023/05/16 09:04:11.000  -2414267.0466   5386768.5128   2407460.1676        -0.0000         0.0000         0.0000         0.0000     0.0000     0.0000   2  18   0.4711   0.8018   0.4185  -0.4883   0.4095  -0.2796   0.00    0.0
2023/05/16 09:04:12.000  -2414266.9982   5386768.5865   2407460.1468        -0.0000         0.0000         0.0000         0.0000     0.0000     0.0000   2  18   0.4711   0.8018   0.4185  -0.4883   0.4095  -0.2796   0.00    0.0
2023/05/16 09:04:13.000  -2414267.1049   5386768.6033   2407460.1652        -0.0000         0.0000         0.0000         0.0000     0.0000     0.0000   2  18   0.4711   0.8018   0.4185  -0.4883   0.4095  -0.2796   0.00    0.0
2023/05/16 09:04:14.000  -2414267.1503   5386768.8101   2407460.1801        -0.0000         0.0000         0.0000         0.0000     0.0000     0.0000   2  18   0.4711   0.8018   0.4185  -0.4883   0.4095  -0.2796   0.00    0.0
2023/05/16 09:04:15.000  -2414267.0046   5386768.8018   2407460.2629        -0.0000         0.0000         0.0000         0.0000     0.0000     0.0000   2  18   0.4711   0.8018   0.4185  -0.4883   0.4095  -0.2796   0.00    0.0
2023/05/16 09:04:16.000  -2414267.0886   5386768.8277   2407460.3831        -0.0000         0.0000         0.0000         0.0000     0.0000     0.0000   2  18   0.4711   0.8018   0.4185  -0.4883   0.4095  -0.2796   0.00    0.0
2023/05/16 09:04:17.000  -2414267.0291   5386768.8861   2407460.3379        -0.0000         0.0000         0.0000         0.0000     0.0000     0.0000   2  18   0.4711   0.8018   0.4185  -0.4883   0.4095  -0.2796   0.00    0.0
2023/05/16 09:04:18.000  -2414267.0642   5386768.7030   2407460.2510        -0.0000         0.0000         0.0000         0.0000     0.0000     0.0000   2  18   0.4711   0.8018   0.4185  -0.4883   0.4094  -0.2796   0.00    0.0
2023/05/16 09:04:19.000  -2414267.0813   5386768.7786   2407460.1571        -0.0000         0.0000         0.0000         0.0000     0.0000     0.0000   2  18   0.4711   0.8018   0.4185  -0.4883   0.4094  -0.2796   0.00    0.0
2023/05/16 09:04:20.000  -2414266.9818   5386768.6334   2407460.1883        -0.0000         0.0000         0.0000         0.0000     0.0000     0.0000   2  18   0.4711   0.8018   0.4185  -0.4883   0.4094  -0.2796   0.00    0.0
2023/05/16 09:04:21.000  -2414267.0282   5386768.6549   2407460.1768        -0.0000         0.0000         0.0000         0.0000     0.0000     0.0000   2  18   0.4711   0.8017   0.4185  -0.4883   0.4094  -0.2796   0.00    0.0
2023/05/16 09:04:22.000  -2414267.0141   5386768.7081   2407460.2626        -0.0000         0.0000         0.0000         0.0000     0.0000     0.0000   2  18   0.4711   0.8017   0.4185  -0.4883   0.4094  -0.2796   0.00    0.0
