% ref pos   : -2414266.9231  5386768.9940  2407460.0342
%  GPST                      x-ecef(m)      y-ecef(m)      z-ecef(m)   Q  ns   sdx(m)   sdy(m)   sdz(m)  sdxy(m)  sdyz(m)  sdzx(m) age(s)  ratio
2023/05/16 09:00:00.000  -2417142.6863   5382345.1906   2415036.9258        -0.0000         0.0000         0.0000         0.0000     0.0000     0.0000   2  24   0.4799   0.8633   0.3930  -0.5336   0.4465  -0.3013   0.00    0.0
2023/05/16 09:00:01.000  -2417142.6079   5382344.9689   2415036.7889        -0.0000         0.0000         0.0000         0.0000     0.0000     0.0000   2  22   0.4928   0.9273   0.4496  -0.5682   0.5233  -0.3403   0.00    0.0
2023/05/16 09:00:02.000  -2417142.6110   5382344.9836   2415036.7961        -0.0000         0.0000         0.0000         0.0000     0.0000     0.0000   2  22   0.4929   0.9275   0.4497  -0.5684   0.5234  -0.3404   0.00    0.0
2023/05/16 09:00:03.000  -2417142.5968   5382344.9897   2415036.7962        -0.0000         0.0000         0.0000         0.0000     0.0000     0.0000   2  22   0.4831   0.9073   0.4408  -0.5556   0.5115  -0.3326   0.00    0.0
2023/05/16 09:00:04.000  -2417142.6102   5382345.0226   2415036.8175        -0.0000         0.0000         0.0000         0.0000     0.0000     0.0000   2  22   0.4718   0.8774   0.4313  -0.5351   0.4923  -0.3200   0.00    0.0
2023/05/16 09:00:05.000  -2417142.6196   5382345.0325   2415036.8130        -0.0000         0.0000         0.0000         0.0000     0.0000     0.0000   2  22   0.4612   0.8463   0.4227  -0.5132   0.4719  -0.3065   0.00    0.0
2023/05/16 09:00:06.000  -2417142.6268   5382345.0476   2415036.8229        -0.0000         0.0000         0.0000         0.0000     0.0000     0.0000   2  22   0.4513   0.8171   0.4148  -0.4924   0.4524  -0.2936   0.00    0.0
2023/05/16 09:00:07.000  -2417142.6263   5382345.0477   2415036.8253        -0.0000         0.0000         0.0000         0.0000     0.0000     0.0000   2  22   0.4427   0.7911   0.4079  -0.4739   0.4351  -0.2821   0.00    0.0
2023/05/16 09:00:08.000  -2417142.6402   5382345.0607   2415036.8253        -0.0000         0.0000         0.0000         0.0000     0.0000     0.0000   2  22   0.4356   0.7694   0.4021  -0.4583   0.4204  -0.2724   0.00    0.0
2023/05/16 09:00:09.000  -2417142.6622   5382345.1680   2415036.9051        -0.0000         0.0000         0.0000         0.0000     0.0000     0.0000   2  23   0.4279   0.7330   0.3750  -0.4375   0.3804  -0.2535   0.00    0.0
2023/05/16 09:00:10.000  -2417142.7047   5382345.3014   2415036.9945        -0.0000         0.0000         0.0000         0.0000     0.0000     0.0000   2  24   0.4200   0.7019   0.3537  -0.4175   0.3465  -0.2352   0.00    0.0
2023/05/16 09:00:11.000  -2417142.7045   5382345.2260   2415036.8958        -0.0000         0.0000         0.0000         0.0000     0.0000     0.0000   2  22   0.4198   0.7186   0.3876  -0.4220   0.3840  -0.2488   0.00    0.0
2023/05/16 09:00:12.000  -2417142.6629   5382345.1238   2415036.8433        -0.0000         0.0000         0.0000         0.0000     0.0000     0.0000   2  22   0.4220   0.7275   0.3917  -0.4277   0.3925  -0.2538   0.00    0.0
2023/05/16 09:00:13.000  -2417142.6200   5382345.0500   2415036.8193        -0.0000         0.0000         0.0000         0.0000     0.0000     0.0000   2  22   0.4230   0.7301   0.3920  -0.4298   0.3937  -0.2547   0.00    0.0
2023/05/16 09:00:14.000  -2417142.5999   5382344.9970   2415036.8099        -0.0000         0.0000         0.0000         0.0000     0.0000     0.0000   2  22   0.4230   0.7302   0.3920  -0.4298   0.3937  -0.2547   0.00    0.0
2023/05/16 09:00:15.000  -2417142.5859   5382344.9659   2415036.7979        -0.0000         0.0000         0.0000         0.0000     0.0000     0.0000   2  22   0.4229   0.7298   0.3919  -0.4296   0.3935  -0.2546   0.00    0.0
2023/05/16 09:00:16.000  -2417142.6237   5382345.1194   2415036.9227        -0.0000         0.0000         0.0000         0.0000     0.0000     0.0000   2  24   0.4186   0.6986   0.3537  -0.4147   0.3453  -0.2341   0.00    0.0
2023/05/16 09:00:17.000  -2417142.6848   5382345.2757   2415037.0030        -0.0000         0.0000         0.0000         0.0000     0.0000     0.0000   2  24   0.4153   0.6871   0.3501  -0.4066   0.3359  -0.2284   0.00    0.0
2023/05/16 09:00:18.000  -2417142.7187   5382345.3564   2415037.0285        -0.0000         0.0000         0.0000         0.0000     0.0000     0.0000   2  24   0.4143   0.6845   0.3498  -0.4045   0.3348  -0.2276   0.00    0.0
2023/05/16 09:00:19.000  -2417142.7395   5382345.4125   2415037.0493        -0.0000         0.0000         0.0000         0.0000     0.0000     0.0000   2  24   0.4143   0.6844   0.3498  -0.4044   0.3347  -0.2275   0.00    0.0
2023/05/16 09:00:20.000  -2417142.7369   5382345.4227   2415037.0551        -0.0000         0.0000         0.0000         0.0000     0.0000     0.0000   2  24   0.4142   0.6843   0.3498  -0.4043   0.3347  -0.2275   0.00    0.0
2023/05/16 09:00:21.000  -2417142.7330   5382345.3986   2415037.0203        -0.0000         0.0000         0.0000         0.0000     0.0000     0.0000   2  24   0.4141   0.6839   0.3497  -0.4040   0.3345  -0.2273   0.00    0.0
2023/05/16 09:00:22.000  -2417142.7245   5382345.3880   2415037.0349        -0.0000         0.0000         0.0000         0.0000     0.0000     0.0000   2  24   0.4140   0.6835   0.3496  -0.4038   0.3342  -0.2272   0.00    0.0
2023/05/16 09:00:23.000  -2417142.6905   5382345.3289   2415036.9918        -0.0000         0.0000         0.0000         0.0000     0.0000     0.0000   2  24   0.4139   0.6833   0.3496  -0.4036   0.3341  -0.2271   0.00    0.0
2023/05/16 09:00:24.000  -2417142.6703   5382345.2937   2415036.9712        -0.0000         0.0000         0.0000         0.0000     0.0000     0.0000   2  24   0.4139   0.6832   0.3496  -0.4035   0.3340  -0.2270   0.00    0.0
2023/05/16 09:00:25.000  -2417142.6523   5382345.2543   2415036.9516        -0.0000         0.0000         0.0000         0.0000     0.0000     0.0000   2  24   0.4139   0.6832   0.3496  -0.4035   0.3340  -0.2270   0.00    0.0
2023/05/16 09:00:26.000  -2417142.6460   5382345.2158   2415036.9458        -0.0000         0.0000         0.0000         0.0000     0.0000     0.0000   2  24   0.4139   0.6832   0.3495  -0.4035   0.3340  -0.2270   0.00    0.0
2023/05/16 09:00:27.000  -2417142.6353   5382345.2247   2415036.9440        -0.0000         0.0000         0.0000         0.0000     0.0000     0.0000   2  24   0.4139   0.6832   0.3495  -0.4035   0.3340  -0.2270   0.00    0.0
2023/05/16 09:00:28.000  -2417142.6282   5382345.2236   2415036.9392        -0.0000         0.0000         0.0000         0.0000     0.0000     0.0000   2  24   0.4139   0.6832   0.3495  -0.4035   0.3340  -0.2270   0.00    0.0
2023/05/16 09:00:29.000  -2417142.6391   5382345.2292   2415036.9367        -0.0000         0.0000         0.0000         0.0000     0.0000     0.0000   2  24   0.4139   0.6832   0.3495  -0.4035   0.3340  -0.2270   0.00    0.0
2023/05/16 09:00:30.000  -2417142.6403   5382345.2338   2415036.9354        -0.0000         0.0000         0.0000         0.0000     0.0000     0.0000   2  24   0.4139   0.6832   0.3495  -0.4035   0.3340  -0.2270   0.00    0.0
2023/05/16 09:00:31.000  -2417142.6263   5382345.2342   2415036.9330        -0.0000         0.0000         0.0000         0.0000     0.0000     0.0000   2  24   0.4139   0.6832   0.3495  -0.4035   0.3340  -0.2270   0.00    0.0
2023/05/16 09:00:32.000  -2417142.6297   5382345.2267   2415036.9304        -0.0000         0.0000         0.0000         0.0000     0.0000     0.0000   2  24   0.4139   0.6832   0.3495  -0.4035   0.3340  -0.2270   0.00    0.0
2023/05/16 09:00:33.000  -2417142.6327   5382345.2109   2415036.9183        -0.0000         0.0000         0.0000         0.0000     0.0000     0.0000   2  24   0.4139   0.6832   0.3495  -0.4035   0.3340  -0.2270   0.00    0.0
2023/05/16 09:00:34.000  -2417142.6181   5382345.1877   2415036.8955        -0.0000         0.0000         0.0000         0.0000     0.0000     0.0000   2  24   0.4139   0.6832   0.3495  -0.4035   0.3340  -0.2270   0.00    0.0
2023/05/16 09:00:35.000  -2417142.6081   5382345.1705   2415036.8900        -0.0000         0.0000         0.0000         0.0000     0.0000     0.0000   2  24   0.4139   0.6832   0.3495  -0.4036   0.3340  -0.2270   0.00    0.0
2023/05/16 09:00:36.000  -2417142.6128   5382345.1640   2415036.8820        -0.0000         0.0000         0.0000         0.0000     0.0000     0.0000   2  24   0.4139   0.6832   0.3495  -0.4036   0.3340  -0.2270   0.00    0.0
2023/05/16 09:00:37.000  -2417142.5966   5382345.1517   2415036.8816        -0.0000         0.0000         0.0000         0.0000     0.0000     0.0000   2  24   0.4139   0.6832   0.3495  -0.4036   0.3340  -0.2271   0.00    0.0
2023/05/16 09:00:38.000  -2417142.5973   5382345.1476   2415036.8768        -0.0000         0.0000         0.0000         0.0000     0.0000     0.0000   2  24   0.4139   0.6832   0.3495  -0.4036   0.3341  -0.2271   0.00    0.0
2023/05/16 09:00:39.000  -2417142.5934   5382345.1479   2415036.8629        -0.0000         0.0000         0.0000         0.0000     0.0000     0.0000   2  24   0.4139   0.6833   0.3495  -0.4036   0.3341  -0.2271   0.00    0.0
2023/05/16 09:00:40.000  -2417142.5969   5382345.1471   2415036.8664        -0.0000         0.0000         0.0000         0.0000     0.0000     0.0000   2  24   0.4140   0.6833   0.3495  -0.4036   0.3341  -0.2271   0.00    0.0
2023/05/16 09:00:41.000  -2417142.5925   5382345.1669   2415036.8689        -0.0000         0.0000         0.0000         0.0000     0.0000     0.0000   2  24   0.4140   0.6833   0.3495  -0.4036   0.3341  -0.2271   0.00    0.0
2023/05/16 09:00:42.000  -2417142.6060   5382345.1750   2415036.8617        -0.0000         0.0000         0.0000         0.0000     0.0000     0.0000   2  24   0.4140   0.6833   0.3495  -0.4036   0.3341  -0.2271   0.00    0.0
2023/05/16 09:00:43.000  -2417142.6063   5382345.1910   2415036.8660        -0.0000         0.0000         0.0000         0.0000     0.0000     0.0000   2  24   0.4140   0.6833   0.3494  -0.4036   0.3341  -0.2271   0.00    0.0
2023/05/16 09:00:44.000  -2417142.6064   5382345.2004   2415036.8593        -0.0000         0.0000         0.0000         0.0000     0.0000     0.0000   2  24   0.4140   0.6833   0.3494  -0.4037   0.3341  -0.2271   0.00    0.0
2023/05/16 09:00:45.000  -2417142.5982   5382345.1901   2415036.8506        -0.0000         0.0000         0.0000         0.0000     0.0000     0.0000   2  24   0.4140   0.6833   0.3494  -0.4037   0.3341  -0.2271   0.00    0.0
2023/05/16 09:00:46.000  -2417142.5917   5382345.1869   2415036.8528        -0.0000         0.0000         0.0000         0.0000     0.0000     0.0000   2  24   0.4140   0.6833   0.3494  -0.4037   0.3341  -0.2271   0.00    0.0
2023/05/16 09:00:47.000  -2417142.5970   5382345.1857   2415036.8551        -0.0000         0.0000         0.0000         0.0000     0.0000     0.0000   2  24   0.4140   0.6833   0.3494  -0.4037   0.3341  -0.2271   0.00    0.0
2023/05/16 09:00:48.000  -2417142.5855   5382345.1904   2415036.8535        -0.0000         0.0000         0.0000         0.0000     0.0000     0.0000   2  24   0.4140   0.6834   0.3494  -0.4037   0.3341  -0.2271   0.00    0.0
2023/05/16 09:00:49.000  -2417142.5968   5382345.2035   2415036.8577        -0.0000         0.0000         0.0000         0.0000     0.0000     0.0000   2  24   0.4140   0.6834   0.3494  -0.4037   0.3341  -0.2271   0.00    0.0
2023/05/16 09:00:50.000  -2417142.6037   5382345.2210   2415036.8638        -0.0000         0.0000         0.0000         0.0000     0.0000     0.0000   2  24   0.4140   0.6834   0.3494  -0.4037   0.3342  -0.2271   0.00    0.0
2023/05/16 09:00:51.000  -2417142.6163   5382345.2435   2415036.8797        -0.0000         0.0000         0.0000         0.0000     0.0000     0.0000   2  24   0.4140   0.6834   0.3494  -0.4037   0.3342  -0.2271   0.00    0.0
2023/05/16 09:00:52.000  -2417142.6108   5382345.2595   2415036.8805        -0.0000         0.0000         0.0000         0.0000     0.0000     0.0000   2  24   0.4140   0.6834   0.3494  -0.4037   0.3342  -0.2271   0.00    0.0
2023/05/16 09:00:53.000  -2417142.6220   5382345.2787   2415036.8852        -0.0000         0.0000         0.0000         0.0000     0.0000     0.0000   2  24   0.4140   0.6834   0.3494  -0.4037   0.3342  -0.2271   0.00    0.0
2023/05/16 09:00:54.000  -2417142.6243   5382345.2850   2415036.8902        -0.0000         0.0000         0.0000         0.0000     0.0000     0.0000   2  24   0.4141   0.6834   0.3494  -0.4038   0.3342  -0.2271   0.00    0.0
2023/05/16 09:00:55.000  -2417142.6236   5382345.2914   2415036.8868        -0.0000         0.0000         0.0000         0.0000     0.0000     0.0000   2  24   0.4141   0.6834   0.3494  -0.4038   0.3342  -0.2271   0.00    0.0
2023/05/16 09:00:56.000  -2417142.6201   5382345.2946   2415036.8894        -0.0000         0.0000         0.0000         0.0000     0.0000     0.0000   2  24   0.4141   0.6834   0.3494  -0.4038   0.3342  -0.2271   0.00    0.0
2023/05/16 09:00:57.000  -2417142.6191   5382345.2886   2415036.8966        -0.0000         0.0000         0.0000         0.0000     0.0000     0.0000   2  24   0.4141   0.6835   0.3494  -0.4038   0.3342  -0.2271   0.00    0.0
2023/05/16 09:00:58.000  -2417142.6227   5382345.2968   2415036.8909        -0.0000         0.0000         0.0000         0.0000     0.0000     0.0000   2  24   0.4141   0.6835   0.3494  -0.4038   0.3342  -0.2271   0.00    0.0
2023/05/16 09:00:59.000  -2417142.6242   5382345.3010   2415036.8820        -0.0000         0.0000         0.0000         0.0000     0.0000     0.0000   2  24   0.4141   0.6835   0.3494  -0.4038   0.3342  -0.2272   0.00    0.0
2023/05/16 09:01:00.000  -2417142.6166   5382345.3042   2415036.8924        -0.0000         0.0000         0.0000         0.0000     0.0000     0.0000   2  24   0.4141   0.6835   0.3494  -0.4038   0.3342  -0.2272   0.00    0.0
2023/05/16 09:01:01.000  -2417142.6254   5382345.3083   2415036.8880        -0.0000         0.0000         0.0000         0.0000     0.0000     0.0000   2  24   0.4141   0.6835   0.3494  -0.4038   0.3342  -0.2272   0.00    0.0
2023/05/16 09:01:02.000  -2417142.6251   5382345.3203   2415036.8931        -0.0000         0.0000         0.0000         0.0000     0.0000     0.0000   2  24   0.4141   0.6835   0.3494  -0.4038   0.3343  -0.2272   0.00    0.0
2023/05/16 09:01:03.000  -2417142.6233   5382345.3343   2415036.9001        -0.0000         0.0000         0.0000         0.0000     0.0000     0.0000   2  24   0.4141   0.6835   0.3493  -0.4039   0.3343  -0.2272   0.00    0.0
2023/05/16 09:01:04.000  -2417142.6327   5382345.3463   2415036.9005        -0.0000         0.0000         0.0000         0.0000     0.0000     0.0000   2  24   0.4141   0.6835   0.3493  -0.4039   0.3343  -0.2272   0.00    0.0
2023/05/16 09:01:05.000  -2417142.6351   5382345.3421   2415036.9156        -0.0000         0.0000         0.0000         0.0000     0.0000     0.0000   2  24   0.4141   0.6835   0.3493  -0.4039   0.3343  -0.2272   0.00    0.0
2023/05/16 09:01:06.000  -2417142.6379   5382345.3396   2415036.9127        -0.0000         0.0000         0.0000         0.0000     0.0000     0.0000   2  24   0.4141   0.6836   0.3493  -0.4039   0.3343  -0.2272   0.00    0.0
2023/05/16 09:01:07.000  -2417142.6335   5382345.3367   2415036.9108        -0.0000         0.0000         0.0000         0.0000     0.0000     0.0000   2  24   0.4141   0.6836   0.3493  -0.4039   0.3343  -0.2272   0.00    0.0
2023/05/16 09:01:08.000  -2417142.6217   5382345.3311   2415036.9080        -0.0000         0.0000         0.0000         0.0000     0.0000     0.0000   2  24   0.4141   0.6836   0.3493  -0.4039   0.3343  -0.2272   0.00    0.0
2023/05/16 09:01:09.000  -2417142.6275   5382345.3378   2415036.9194        -0.0000         0.0000         0.0000         0.0000     0.0000     0.0000   2  24   0.4142   0.6836   0.3493  -0.4039   0.3343  -0.2272   0.00    0.0
2023/05/16 09:01:10.000  -2417142.6319   5382345.3537   2415036.9276        -0.0000         0.0000         0.0000         0.0000     0.0000     0.0000   2  24   0.4142   0.6836   0.3493  -0.4039   0.3343  -0.2272   0.00    0.0
2023/05/16 09:01:11.000  -2417142.6458   5382345.3538   2415036.9286        -0.0000         0.0000         0.0000         0.0000     0.0000     0.0000   2  24   0.4142   0.6836   0.3493  -0.4039   0.3343  -0.2272   0.00    0.0
2023/05/16 09:01:12.000  -2417142.6466   5382345.3604   2415036.9273        -0.0000         0.0000         0.0000         0.0000     0.0000     0.0000   2  24   0.4142   0.6836   0.3493  -0.4039   0.3343  -0.2272   0.00    0.0
2023/05/16 09:01:13.000  -2417142.6560   5382345.3842   2415036.9310        -0.0000         0.0000         0.0000         0.0000     0.0000     0.0000   2  24   0.4142   0.6836   0.3493  -0.4040   0.3343  -0.2272   0.00    0.0
2023/05/16 09:01:14.000  -2417142.6579   5382345.3866   2415036.9402        -0.0000         0.0000         0.0000         0.0000     0.0000     0.0000   2  24   0.4142   0.6836   0.3493  -0.4040   0.3344  -0.2272   0.00    0.0
2023/05/16 09:01:15.000  -2417142.6618   5382345.3772   2415036.9285        -0.0000         0.0000         0.0000         0.0000     0.0000     0.0000   2  24   0.4142   0.6836   0.3493  -0.4040   0.3344  -0.2272   0.00    0.0
2023/05/16 09:01:16.000  -2417142.6633   5382345.3684   2415036.9329        -0.0000         0.0000         0.0000         0.0000     0.0000     0.0000   2  24   0.4142   0.6837   0.3493  -0.4040   0.3344  -0.2272   0.00    0.0
2023/05/16 09:01:17.000  -2417142.6585   5382345.3663   2415036.9370        -0.0000         0.0000         0.0000         0.0000     0.0000     0.0000   2  24   0.4142   0.6837   0.3493  -0.4040   0.3344  -0.2272   0.00    0.0
2023/05/16 09:01:18.000  -2417142.6660   5382345.3717   2415036.9387        -0.0000         0.0000         0.0000         0.0000     0.0000     0.0000   2  24   0.4142   0.6837   0.3493  -0.4040   0.3344  -0.2272   0.00    0.0
2023/05/16 09:01:19.000  -2417142.6661   5382345.3723   2415036.9371        -0.0000         0.0000         0.0000         0.0000     0.0000     0.0000   2  24   0.4142   0.6837   0.3493  -0.4040   0.3344  -0.2272   0.00    0.0
2023/05/16 09:01:20.000  -2417142.6612   5382345.3711   2415036.9479        -0.0000         0.0000         0.0000         0.0000     0.0000     0.0000   2  24   0.4142   0.6837   0.3493  -0.4040   0.3344  -0.2272   0.00    0.0
2023/05/16 09:01:21.000  -2417142.6627   5382345.3658   2415036.9427        -0.0000         0.0000         0.0000         0.0000     0.0000     0.0000   2  24   0.4142   0.6837   0.3493  -0.4040   0.3344  -0.2272   0.00    0.0
2023/05/16 09:01:22.000  -2417142.6677   5382345.3581   2415036.9478        -0.0000         0.0000         0.0000         0.0000     0.0000     0.0000   2  24   0.4142   0.6837   0.3493  -0.4040   0.3344  -0.2273   0.00    0.0
2023/05/16 09:01:23.000  -2417142.6714   5382345.3438   2415036.9434        -0.0000         0.0000         0.0000         0.0000     0.0000     0.0000   2  24   0.4142   0.6837   0.3493  -0.4041   0.3344  -0.2273   0.00    0.0
2023/05/16 09:01:24.000  -2417142.6708   5382345.3434   2415036.9400        -0.0000         0.0000         0.0000         0.0000     0.0000     0.0000   2  24   0.4142   0.6837   0.3492  -0.4041   0.3344  -0.2273   0.00    0.0
2023/05/16 09:01:25.000  -2417142.6739   5382345.3526   2415036.9443        -0.0000         0.0000         0.0000         0.0000     0.0000     0.0000   2  24   0.4143   0.6838   0.3492  -0.4041   0.3344  -0.2273   0.00    0.0
2023/05/16 09:01:26.000  -2417142.6783   5382345.3504   2415036.9482        -0.0000         0.0000         0.0000         0.0000     0.0000     0.0000   2  24   0.4143   0.6838   0.3492  -0.4041   0.3345  -0.2273   0.00    0.0
2023/05/16 09:01:27.000  -2417142.6907   5382345.3524   2415036.9533        -0.0000         0.0000         0.0000         0.0000     0.0000     0.0000   2  24   0.4143   0.6838   0.3492  -0.4041   0.3345  -0.2273   0.00    0.0
2023/05/16 09:01:28.000  -2417142.7014   5382345.3552   2415036.9445        -0.0000         0.0000         0.0000         0.0000     0.0000     0.0000   2  24   0.4143   0.6838   0.3492  -0.4041   0.3345  -0.2273   0.00    0.0
2023/05/16 09:01:29.000  -2417142.7105   5382345.3623   2415036.9518        -0.0000         0.0000         0.0000         0.0000     0.0000     0.0000   2  24   0.4143   0.6838   0.3492  -0.4041   0.3345  -0.2273   0.00    0.0
2023/05/16 09:01:30.000  -2417142.7070   5382345.3438   2415036.9481        -0.0000         0.0000         0.0000         0.0000     0.0000     0.0000   2  24   0.4143   0.6838   0.3492  -0.4041   0.3345  -0.2273   0.00    0.0
2023/05/16 09:01:31.000  -2417142.7120   5382345.3380   2415036.9453        -0.0000         0.0000         0.0000         0.0000     0.0000     0.0000   2  24   0.4143   0.6838   0.3492  -0.4041   0.3345  -0.2273   0.00    0.0
2023/05/16 09:01:32.000  -2417142.7198   5382345.3326   2415036.9453        -0.0000         0.0000         0.0000         0.0000     0.0000     0.0000   2  24   0.4143   0.6838   0.3492  -0.4041   0.3345  -0.2273   0.00    0.0
2023/05/16 09:01:33.000  -2417142.7134   5382345.3325   2415036.9510        -0.0000         0.0000         0.0000         0.0000     0.0000     0.0000   2  24   0.4143   0.6838   0.3492  -0.4042   0.3345  -0.2273   0.00    0.0
2023/05/16 09:01:34.000  -2417142.7138   5382345.3292   2415036.9501        -0.0000         0.0000         0.0000         0.0000     0.0000     0.0000   2  24   0.4143   0.6838   0.3492  -0.4042   0.3345  -0.2273   0.00    0.0
2023/05/16 09:01:35.000  -2417142.7197   5382345.3262   2415036.9447        -0.0000         0.0000         0.0000         0.0000     0.0000     0.0000   2  24   0.4143   0.6839   0.3492  -0.4042   0.3345  -0.2273   0.00    0.0
2023/05/16 09:01:36.000  -2417142.7262   5382345.3414   2415036.9443        -0.0000         0.0000         0.0000         0.0000     0.0000     0.0000   2  24   0.4143   0.6839   0.3492  -0.4042   0.3345  -0.2273   0.00    0.0
2023/05/16 09:01:37.000  -2417142.7308   5382345.3337   2415036.9517        -0.0000         0.0000         0.0000         0.0000     0.0000     0.0000   2  24   0.4143   0.6839   0.3492  -0.4042   0.3345  -0.2273   0.00    0.0
2023/05/16 09:01:38.000  -2417142.7333   5382345.3289   2415036.9527        -0.0000         0.0000         0.0000         0.0000     0.0000     0.0000   2  24   0.4143   0.6839   0.3492  -0.4042   0.3346  -0.2273   0.00    0.0
2023/05/16 09:01:39.000  -2417142.7301   5382345.3184   2415036.9465        -0.0000         0.0000         0.0000         0.0000     0.0000     0.0000   2  24   0.4143   0.6839   0.3492  -0.4042   0.3346  -0.2273   0.00    0.0
2023/05/16 09:01:40.000  -2417142.7262   5382345.3058   2415036.9404        -0.0000         0.0000         0.0000         0.0000     0.0000     0.0000   2  24   0.4144   0.6839   0.3492  -0.4042   0.3346  -0.2273   0.00    0.0
2023/05/16 09:01:41.000  -2417142.7317   5382345.3122   2415036.9482        -0.0000         0.0000         0.0000         0.0000     0.0000     0.0000   2  24   0.4144   0.6839   0.3492  -0.4042   0.3346  -0.2273   0.00    0.0
2023/05/16 09:01:42.000  -2417142.7462   5382345.3163   2415036.9453        -0.0000         0.0000         0.0000         0.0000     0.0000     0.0000   2  24   0.4144   0.6839   0.3492  -0.4042   0.3346  -0.2273   0.00    0.0
2023/05/16 09:01:43.000  -2417142.7497   5382345.3317   2415036.9500        -0.0000         0.0000         0.0000         0.0000     0.0000     0.0000   2  24   0.4144   0.6839   0.3492  -0.4043   0.3346  -0.2273   0.00    0.0
2023/05/16 09:01:44.000  -2417142.7493   5382345.3469   2415036.9520        -0.0000         0.0000         0.0000         0.0000     0.0000     0.0000   2  24   0.4144   0.6839   0.3492  -0.4043   0.3346  -0.2273   0.00    0.0
2023/05/16 09:01:45.000  -2417142.7572   5382345.3411   2415036.9527        -0.0000         0.0000         0.0000         0.0000     0.0000     0.0000   2  24   0.4144   0.6840   0.3491  -0.4043   0.3346  -0.2274   0.00    0.0
2023/05/16 09:01:46.000  -2417142.7626   5382345.3333   2415036.9465        -0.0000         0.0000         0.0000         0.0000     0.0000     0.0000   2  24   0.4144   0.6840   0.3491  -0.4043   0.3346  -0.2274   0.00    0.0
2023/05/16 09:01:47.000  -2417142.7517   5382345.3268   2415036.9489        -0.0000         0.0000         0.0000         0.0000     0.0000     0.0000   2  24   0.4144   0.6840   0.3491  -0.4043   0.3346  -0.2274   0.00    0.0
2023/05/16 09:01:48.000  -2417142.7544   5382345.3199   2415036.9346        -0.0000         0.0000         0.0000         0.0000     0.0000     0.0000   2  24   0.4144   0.6840   0.3491  -0.4043   0.3346  -0.2274   0.00    0.0
2023/05/16 09:01:49.000  -2417142.7630   5382345.3165   2415036.9386        -0.0000         0.0000         0.0000         0.0000     0.0000     0.0000   2  24   0.4144   0.6840   0.3491  -0.4043   0.3346  -0.2274   0.00    0.0
2023/05/16 09:01:50.000  -2417142.7580   5382345.3190   2415036.9423        -0.0000         0.0000         0.0000         0.0000     0.0000     0.0000   2  24   0.4144   0.6840   0.3491  -0.4043   0.3346  -0.2274   0.00    0.0
2023/05/16 09:01:51.000  -2417142.7634   5382345.3146   2415036.9429        -0.0000         0.0000         0.0000         0.0000     0.0000     0.0000   2  24   0.4144   0.6840   0.3491  -0.4043   0.3347  -0.2274   0.00    0.0
2023/05/16 09:01:52.000  -2417142.7618   5382345.3125   2415036.9293        -0.0000         0.0000         0.0000         0.0000     0.0000     0.0000   2  24   0.4144   0.6840   0.3491  -0.4043   0.3347  -0.2274   0.00    0.0
2023/05/16 09:01:53.000  -2417142.7572   5382345.3263   2415036.9339        -0.0000         0.0000         0.0000         0.0000     0.0000     0.0000   2  24   0.4144   0.6840   0.3491  -0.4043   0.3347  -0.2274   0.00    0.0
2023/05/16 09:01:54.000  -2417142.7629   5382345.3180   2415036.9339        -0.0000         0.0000         0.0000         0.0000     0.0000     0.0000   2  24   0.4144   0.6841   0.3491  -0.4044   0.3347  -0.2274   0.00    0.0
2023/05/16 09:01:55.000  -2417142.7564   5382345.3133   2415036.9233        -0.0000         0.0000         0.0000         0.0000     0.0000     0.0000   2  24   0.4144   0.6841   0.3491  -0.4044   0.3347  -0.2274   0.00    0.0
2023/05/16 09:01:56.000  -2417142.7614   5382345.3204   2415036.9247        -0.0000         0.0000         0.0000         0.0000     0.0000     0.0000   2  24   0.4145   0.6841   0.3491  -0.4044   0.3347  -0.2274   0.00    0.0
2023/05/16 09:01:57.000  -2417142.7592   5382345.3171   2415036.9192        -0.0000         0.0000         0.0000         0.0000     0.0000     0.0000   2  24   0.4145   0.6841   0.3491  -0.4044   0.3347  -0.2274   0.00    0.0
2023/05/16 09:01:58.000  -2417142.7612   5382345.3204   2415036.9162        -0.0000         0.0000         0.0000         0.0000     0.0000     0.0000   2  24   0.4145   0.6841   0.3491  -0.4044   0.3347  -0.2274   0.00    0.0
2023/05/16 09:01:59.000  -2417142.7683   5382345.3321   2415036.9211        -0.0000         0.0000         0.0000         0.0000     0.0000     0.0000   2  24   0.4145   0.6841   0.3491  -0.4044   0.3347  -0.2274   0.00    0.0
2023/05/16 09:02:00.000  -2417142.7691   5382345.3342   2415036.9195        -0.0000         0.0000         0.0000         0.0000     0.0000     0.0000   2  24   0.4145   0.6841   0.3491  -0.4044   0.3347  -0.2274   0.00    0.0
2023/05/16 09:02:01.000  -2417142.7277   5382345.1968   2415036.8124        -0.0000         0.0000         0.0000         0.0000     0.0000     0.0000   2  22   0.4180   0.7122   0.3854  -0.4173   0.3800  -0.2458   0.00    0.0
2023/05/16 09:02:02.000  -2417142.6887   5382345.1005   2415036.7572        -0.0000         0.0000         0.0000         0.0000     0.0000     0.0000   2  22   0.4216   0.7252   0.3904  -0.4262   0.3910  -0.2526   0.00    0.0
2023/05/16 09:02:03.000  -2417142.6720   5382345.0470   2415036.7322        -0.0000         0.0000         0.0000         0.0000     0.0000     0.0000   2  22   0.4229   0.7290   0.3909  -0.4291   0.3930  -0.2540   0.00    0.0
2023/05/16 09:02:04.000  -2417142.6848   5382345.1476   2415036.8309        -0.0000         0.0000         0.0000         0.0000     0.0000     0.0000   2  23   0.4213   0.7120   0.3694  -0.4222   0.3665  -0.2442   0.00    0.0
2023/05/16 09:02:05.000  -2417142.7307   5382345.2581   2415036.8874        -0.0000         0.0000         0.0000         0.0000     0.0000     0.0000   2  23   0.4195   0.7053   0.3671  -0.4177   0.3609  -0.2409   0.00    0.0
2023/05/16 09:02:06.000  -2417142.7527   5382345.3278   2415036.9067        -0.0000         0.0000         0.0000         0.0000     0.0000     0.0000   2  23   0.4189   0.7039   0.3669  -0.4165   0.3603  -0.2404   0.00    0.0
2023/05/16 09:02:07.000  -2417142.7706   5382345.3669   2415036.9205        -0.0000         0.0000         0.0000         0.0000     0.0000     0.0000   2  23   0.4190   0.7042   0.3670  -0.4167   0.3605  -0.2405   0.00    0.0
2023/05/16 09:02:08.000  -2417142.7804   5382345.3679   2415036.9169        -0.0000         0.0000         0.0000         0.0000     0.0000     0.0000   2  23   0.4191   0.7044   0.3671  -0.4169   0.3607  -0.2406   0.00    0.0
2023/05/16 09:02:09.000  -2417142.7701   5382345.3571   2415036.9260        -0.0000         0.0000         0.0000         0.0000     0.0000     0.0000   2  23   0.4191   0.7044   0.3671  -0.4169   0.3607  -0.2406   0.00    0.0
2023/05/16 09:02:10.000  -2417142.7864   5382345.4114   2415036.9640        -0.0000         0.0000         0.0000         0.0000     0.0000     0.0000   2  24   0.4168   0.6914   0.3509  -0.4098   0.3401  -0.2308   0.00    0.0
2023/05/16 09:02:11.000  -2417142.7457   5382345.2312   2415036.8076        -0.0000         0.0000         0.0000         0.0000     0.0000     0.0000   2  22   0.4188   0.7145   0.3857  -0.4191   0.3812  -0.2466   0.00    0.0
2023/05/16 09:02:12.000  -2417142.6885   5382345.0869   2415036.7383        -0.0000         0.0000         0.0000         0.0000     0.0000     0.0000   2  22   0.4219   0.7261   0.3905  -0.4268   0.3915  -0.2529   0.00    0.0
2023/05/16 09:02:13.000  -2417142.6604   5382345.0014   2415036.7125        -0.0000         0.0000         0.0000         0.0000     0.0000     0.0000   2  22   0.4232   0.7297   0.3910  -0.4296   0.3934  -0.2543   0.00    0.0
2023/05/16 09:02:14.000  -2417142.6526   5382344.9687   2415036.6981        -0.0000         0.0000         0.0000         0.0000     0.0000     0.0000   2  22   0.4233   0.7301   0.3911  -0.4299   0.3936  -0.2544   0.00    0.0
2023/05/16 09:02:15.000  -2417142.6886   5382345.1476   2415036.8490        -0.0000         0.0000         0.0000         0.0000     0.0000     0.0000   2  23   0.4215   0.7126   0.3695  -0.4227   0.3669  -0.2444   0.00    0.0
2023/05/16 09:02:16.000  -2417142.7554   5382345.3036   2415036.9120        -0.0000         0.0000         0.0000         0.0000     0.0000     0.0000   2  24   0.4175   0.6931   0.3510  -0.4112   0.3408  -0.2313   0.00    0.0
2023/05/16 09:02:17.000  -2417142.7887   5382345.3560   2415036.9153        -0.0000         0.0000         0.0000         0.0000     0.0000     0.0000   2  24   0.4154   0.6866   0.3493  -0.4064   0.3360  -0.2283   0.00    0.0
2023/05/16 09:02:18.000  -2417142.8164   5382345.3603   2415036.9021        -0.0000         0.0000         0.0000         0.0000     0.0000     0.0000   2  22   0.4450   0.7109   0.3726  -0.4369   0.3697  -0.2607   0.00    0.0
2023/05/16 09:02:19.000  -2417142.8133   5382345.3557   2415036.9076        -0.0000         0.0000         0.0000         0.0000     0.0000     0.0000   2  22   0.4512   0.7245   0.3769  -0.4486   0.3803  -0.2686   0.00    0.0
2023/05/16 09:02:20.000  -2417142.8024   5382345.3423   2415036.9036        -0.0000         0.0000         0.0000         0.0000     0.0000     0.0000   2  22   0.4524   0.7285   0.3776  -0.4513   0.3826  -0.2700   0.00    0.0
2023/05/16 09:02:21.000  -2417142.8029   5382345.3154   2415036.9025        -0.0000         0.0000         0.0000         0.0000     0.0000     0.0000   2  22   0.4524   0.7286   0.3776  -0.4513   0.3826  -0.2700   0.00    0.0
2023/05/16 09:02:22.000  -2417142.8345   5382345.4171   2415036.9877        -0.0000         0.0000         0.0000         0.0000     0.0000     0.0000   2  23   0.4484   0.7125   0.3594  -0.4411   0.3589  -0.2568   0.00    0.0
2023/05/16 09:02:23.000  -2417142.8271   5382345.4067   2415036.9473        -0.0000         0.0000         0.0000         0.0000     0.0000     0.0000   2  23   0.4462   0.7063   0.3573  -0.4363   0.3539  -0.2535   0.00    0.0
2023/05/16 09:02:24.000  -2417142.8143   5382345.3759   2415036.9320        -0.0000         0.0000         0.0000         0.0000     0.0000     0.0000   2  23   0.4457   0.7050   0.3572  -0.4353   0.3533  -0.2531   0.00    0.0
2023/05/16 09:02:25.000  -2417142.8083   5382345.3176   2415036.9051        -0.0000         0.0000         0.0000         0.0000     0.0000     0.0000   2  23   0.4458   0.7052   0.3573  -0.4355   0.3535  -0.2532   0.00    0.0
2023/05/16 09:02:26.000  -2417142.7729   5382345.2596   2415036.8784        -0.0000         0.0000         0.0000         0.0000     0.0000     0.0000   2  23   0.4458   0.7054   0.3573  -0.4356   0.3536  -0.2532   0.00    0.0
2023/05/16 09:02:27.000  -2417142.7464   5382345.1957   2415036.8345        -0.0000         0.0000         0.0000         0.0000     0.0000     0.0000   2  23   0.4458   0.7052   0.3573  -0.4355   0.3535  -0.2532   0.00    0.0
2023/05/16 09:02:28.000  -2417142.7325   5382345.1643   2415036.8251        -0.0000         0.0000         0.0000         0.0000     0.0000     0.0000   2  23   0.4457   0.7050   0.3572  -0.4353   0.3534  -0.2531   0.00    0.0
2023/05/16 09:02:29.000  -2417142.7274   5382345.1575   2415036.8216        -0.0000         0.0000         0.0000         0.0000     0.0000     0.0000   2  23   0.4456   0.7049   0.3572  -0.4352   0.3533  -0.2530   0.00    0.0
2023/05/16 09:02:30.000  -2417142.7307   5382345.1623   2415036.8162        -0.0000         0.0000         0.0000         0.0000     0.0000     0.0000   2  23   0.4456   0.7048   0.3572  -0.4352   0.3532  -0.2530   0.00    0.0
2023/05/16 09:02:31.000  -2417142.7336   5382345.1481   2415036.8002        -0.0000         0.0000         0.0000         0.0000     0.0000     0.0000   2  22   0.4493   0.7198   0.3749  -0.4447   0.3760  -0.2656   0.00    0.0
2023/05/16 09:02:32.000  -2417142.7281   5382345.1413   2415036.7877        -0.0000         0.0000         0.0000         0.0000     0.0000     0.0000   2  22   0.4517   0.7266   0.3773  -0.4498   0.3816  -0.2692   0.00    0.0
2023/05/16 09:02:33.000  -2417142.7098   5382345.0997   2415036.7570        -0.0000         0.0000         0.0000         0.0000     0.0000     0.0000   2  23   0.4485   0.7128   0.3594  -0.4413   0.3591  -0.2569   0.00    0.0
2023/05/16 09:02:34.000  -2417142.7267   5382345.1499   2415036.8127        -0.0000         0.0000         0.0000         0.0000     0.0000     0.0000   2  23   0.4464   0.7067   0.3574  -0.4367   0.3541  -0.2536   0.00    0.0
2023/05/16 09:02:35.000  -2417142.7320   5382345.1525   2415036.8017        -0.0000         0.0000         0.0000         0.0000     0.0000     0.0000   2  23   0.4457   0.7050   0.3572  -0.4354   0.3533  -0.2531   0.00    0.0
2023/05/16 09:02:36.000  -2417142.7524   5382345.1908   2415036.8344        -0.0000         0.0000         0.0000         0.0000     0.0000     0.0000   2  23   0.4457   0.7051   0.3572  -0.4354   0.3534  -0.2531   0.00    0.0
2023/05/16 09:02:37.000  -2417142.7520   5382345.1998   2415036.8168        -0.0000         0.0000         0.0000         0.0000     0.0000     0.0000   2  23   0.4458   0.7053   0.3572  -0.4355   0.3535  -0.2532   0.00    0.0
2023/05/16 09:02:38.000  -2417142.7523   5382345.2021   2415036.8292        -0.0000         0.0000         0.0000         0.0000     0.0000     0.0000   2  23   0.4458   0.7053   0.3572  -0.4355   0.3535  -0.2532   0.00    0.0
2023/05/16 09:02:39.000  -2417142.7526   5382345.1934   2415036.8259        -0.0000         0.0000         0.0000         0.0000     0.0000     0.0000   2  23   0.4458   0.7051   0.3572  -0.4354   0.3534  -0.2531   0.00    0.0
2023/05/16 09:02:40.000  -2417142.7412   5382345.1928   2415036.8379        -0.0000         0.0000         0.0000         0.0000     0.0000     0.0000   2  23   0.4457   0.7050   0.3571  -0.4353   0.3534  -0.2531   0.00    0.0
2023/05/16 09:02:41.000  -2417142.7181   5382345.1584   2415036.8071        -0.0000         0.0000         0.0000         0.0000     0.0000     0.0000   2  23   0.4457   0.7050   0.3571  -0.4353   0.3533  -0.2531   0.00    0.0
2023/05/16 09:02:42.000  -2417142.7049   5382345.1198   2415036.7948        -0.0000         0.0000         0.0000         0.0000     0.0000     0.0000   2  23   0.4457   0.7049   0.3571  -0.4353   0.3533  -0.2530   0.00    0.0
2023/05/16 09:02:43.000  -2417142.6988   5382345.1000   2415036.7856        -0.0000         0.0000         0.0000         0.0000     0.0000     0.0000   2  23   0.4457   0.7050   0.3571  -0.4353   0.3533  -0.2531   0.00    0.0
2023/05/16 09:02:44.000  -2417142.6992   5382345.0905   2415036.7946        -0.0000         0.0000         0.0000         0.0000     0.0000     0.0000   2  23   0.4457   0.7050   0.3571  -0.4353   0.3533  -0.2531   0.00    0.0
2023/05/16 09:02:45.000  -2417142.7026   5382345.1051   2415036.7982        -0.0000         0.0000         0.0000         0.0000     0.0000     0.0000   2  23   0.4457   0.7050   0.3571  -0.4353   0.3533  -0.2531   0.00    0.0
2023/05/16 09:02:46.000  -2417142.7003   5382345.1119   2415036.7933        -0.0000         0.0000         0.0000         0.0000     0.0000     0.0000   2  23   0.4457   0.7050   0.3571  -0.4353   0.3533  -0.2531   0.00    0.0
2023/05/16 09:02:47.000  -2417142.7099   5382345.1095   2415036.7927        -0.0000         0.0000         0.0000         0.0000     0.0000     0.0000   2  23   0.4458   0.7050   0.3571  -0.4353   0.3534  -0.2531   0.00    0.0
2023/05/16 09:02:48.000  -2417142.7029   5382345.1067   2415036.7881        -0.0000         0.0000         0.0000         0.0000     0.0000     0.0000   2  23   0.4458   0.7050   0.3571  -0.4353   0.3534  -0.2531   0.00    0.0
2023/05/16 09:02:49.000  -2417142.7031   5382345.1017   2415036.7850        -0.0000         0.0000         0.0000         0.0000     0.0000     0.0000   2  23   0.4458   0.7050   0.3571  -0.4354   0.3534  -0.2531   0.00    0.0
2023/05/16 09:02:50.000  -2417142.6931   5382345.0832   2415036.7780        -0.0000         0.0000         0.0000         0.0000     0.0000     0.0000   2  23   0.4458   0.7050   0.3571  -0.4354   0.3534  -0.2531   0.00    0.0
2023/05/16 09:02:51.000  -2417142.6896   5382345.0788   2415036.7770        -0.0000         0.0000         0.0000         0.0000     0.0000     0.0000   2  23   0.4458   0.7050   0.3571  -0.4354   0.3534  -0.2531   0.00    0.0
2023/05/16 09:02:52.000  -2417142.6985   5382345.0764   2415036.7832        -0.0000         0.0000         0.0000         0.0000     0.0000     0.0000   2  23   0.4458   0.7051   0.3571  -0.4354   0.3534  -0.2531   0.00    0.0
2023/05/16 09:02:53.000  -2417142.6920   5382345.0777   2415036.7859        -0.0000         0.0000         0.0000         0.0000     0.0000     0.0000   2  23   0.4458   0.7051   0.3571  -0.4354   0.3534  -0.2531   0.00    0.0
2023/05/16 09:02:54.000  -2417142.6862   5382345.0920   2415036.7864        -0.0000         0.0000         0.0000         0.0000     0.0000     0.0000   2  23   0.4458   0.7051   0.3570  -0.4354   0.3534  -0.2531   0.00    0.0
2023/05/16 09:02:55.000  -2417142.6851   5382345.0949   2415036.7963        -0.0000         0.0000         0.0000         0.0000     0.0000     0.0000   2  23   0.4458   0.7051   0.3570  -0.4354   0.3534  -0.2531   0.00    0.0
2023/05/16 09:02:56.000  -2417142.6927   5382345.1033   2415036.7921        -0.0000         0.0000         0.0000         0.0000     0.0000     0.0000   2  23   0.4458   0.7051   0.3570  -0.4354   0.3534  -0.2531   0.00    0.0
2023/05/16 09:02:57.000  -2417142.6939   5382345.0883   2415036.7835        -0.0000         0.0000         0.0000         0.0000     0.0000     0.0000   2  23   0.4458   0.7051   0.3570  -0.4354   0.3534  -0.2531   0.00    0.0
2023/05/16 09:02:58.000  -2417142.6964   5382345.1058   2415036.8006        -0.0000         0.0000         0.0000         0.0000     0.0000     0.0000   2  23   0.4458   0.7051   0.3570  -0.4354   0.3534  -0.2531   0.00    0.0
2023/05/16 09:02:59.000  -2417142.7027   5382345.1054   2415036.8037        -0.0000         0.0000         0.0000         0.0000     0.0000     0.0000   2  23   0.4458   0.7051   0.3570  -0.4355   0.3534  -0.2531   0.00    0.0
2023/05/16 09:03:00.000  -2417142.7182   5382345.1209   2415036.8105        -0.0000         0.0000         0.0000         0.0000     0.0000     0.0000   2  23   0.4458   0.7051   0.3570  -0.4355   0.3534  -0.2531   0.00    0.0
2023/05/16 09:03:01.000  -2417142.7195   5382345.1185   2415036.8048        -0.0000         0.0000         0.0000         0.0000     0.0000     0.0000   2  23   0.4459   0.7051   0.3570  -0.4355   0.3535  -0.2531   0.00    0.0
2023/05/16 09:03:02.000  -2417142.7104   5382345.1208   2415036.8130        -0.0000         0.0000         0.0000         0.0000     0.0000     0.0000   2  23   0.4459   0.7052   0.3570  -0.4355   0.3535  -0.2531   0.00    0.0
2023/05/16 09:03:03.000  -2417142.7166   5382345.1217   2415036.8210        -0.0000         0.0000         0.0000         0.0000     0.0000     0.0000   2  23   0.4459   0.7052   0.3570  -0.4355   0.3535  -0.2531   0.00    0.0
2023/05/16 09:03:04.000  -2417142.7081   5382345.1298   2415036.8158        -0.0000         0.0000         0.0000         0.0000     0.0000     0.0000   2  23   0.4459   0.7052   0.3570  -0.4355   0.3535  -0.2531   0.00    0.0
2023/05/16 09:03:05.000  -2417142.7240   5382345.1422   2415036.8186        -0.0000         0.0000         0.0000         0.0000     0.0000     0.0000   2  23   0.4459   0.7052   0.3570  -0.4355   0.3535  -0.2531   0.00    0.0
2023/05/16 09:03:06.000  -2417142.7245   5382345.1508   2415036.8235        -0.0000         0.0000         0.0000         0.0000     0.0000     0.0000   2  23   0.4459   0.7052   0.3570  -0.4355   0.3535  -0.2531   0.00    0.0
2023/05/16 09:03:07.000  -2417142.7215   5382345.1340   2415036.8156        -0.0000         0.0000         0.0000         0.0000     0.0000     0.0000   2  23   0.4459   0.7052   0.3570  -0.4355   0.3535  -0.2531   0.00    0.0
2023/05/16 09:03:08.000  -2417142.7251   5382345.1388   2415036.8214        -0.0000         0.0000         0.0000         0.0000     0.0000     0.0000   2  23   0.4459   0.7052   0.3570  -0.4355   0.3535  -0.2531   0.00    0.0
2023/05/16 09:03:09.000  -2417142.7303   5382345.1496   2415036.8357        -0.0000         0.0000         0.0000         0.0000     0.0000     0.0000   2  23   0.4459   0.7052   0.3570  -0.4356   0.3535  -0.2531   0.00    0.0
2023/05/16 09:03:10.000  -2417142.7328   5382345.1602   2415036.8351        -0.0000         0.0000         0.0000         0.0000     0.0000     0.0000   2  23   0.4459   0.7052   0.3570  -0.4356   0.3535  -0.2531   0.00    0.0
2023/05/16 09:03:11.000  -2417142.7291   5382345.1509   2415036.8301        -0.0000         0.0000         0.0000         0.0000     0.0000     0.0000   2  23   0.4459   0.7053   0.3570  -0.4356   0.3535  -0.2531   0.00    0.0
2023/05/16 09:03:12.000  -2417142.7247   5382345.1463   2415036.8298        -0.0000         0.0000         0.0000         0.0000     0.0000     0.0000   2  23   0.4459   0.7053   0.3570  -0.4356   0.3535  -0.2531   0.00    0.0
2023/05/16 09:03:13.000  -2417142.7205   5382345.1490   2415036.8340        -0.0000         0.0000         0.0000         0.0000     0.0000     0.0000   2  23   0.4459   0.7053   0.3570  -0.4356   0.3535  -0.2532   0.00    0.0
2023/05/16 09:03:14.000  -2417142.7200   5382345.1424   2415036.8420        -0.0000         0.0000         0.0000         0.0000     0.0000     0.0000   2  23   0.4459   0.7053   0.3570  -0.4356   0.3536  -0.2532   0.00    0.0
2023/05/16 09:03:15.000  -2417142.7252   5382345.1497   2415036.8448        -0.0000         0.0000         0.0000         0.0000     0.0000     0.0000   2  23   0.4460   0.7053   0.3570  -0.4356   0.3536  -0.2532   0.00    0.0
2023/05/16 09:03:16.000  -2417142.7264   5382345.1340   2415036.8371        -0.0000         0.0000         0.0000         0.0000     0.0000     0.0000   2  23   0.4460   0.7053   0.3569  -0.4356   0.3536  -0.2532   0.00    0.0
2023/05/16 09:03:17.000  -2417142.7337   5382345.1372   2415036.8419        -0.0000         0.0000         0.0000         0.0000     0.0000     0.0000   2  23   0.4460   0.7053   0.3569  -0.4356   0.3536  -0.2532   0.00    0.0
2023/05/16 09:03:18.000  -2417142.7404   5382345.1543   2415036.8542        -0.0000         0.0000         0.0000         0.0000     0.0000     0.0000   2  23   0.4460   0.7053   0.3569  -0.4356   0.3536  -0.2532   0.00    0.0
2023/05/16 09:03:19.000  -2417142.7303   5382345.1518   2415036.8500        -0.0000         0.0000         0.0000         0.0000     0.0000     0.0000   2  23   0.4460   0.7053   0.3569  -0.4357   0.3536  -0.2532   0.00    0.0
2023/05/16 09:03:20.000  -2417142.7256   5382345.1552   2415036.8553        -0.0000         0.0000         0.0000         0.0000     0.0000     0.0000   2  23   0.4460   0.7053   0.3569  -0.4357   0.3536  -0.2532   0.00    0.0
2023/05/16 09:03:21.000  -2417142.7320   5382345.1504   2415036.8566        -0.0000         0.0000         0.0000         0.0000     0.0000     0.0000   2  23   0.4460   0.7054   0.3569  -0.4357   0.3536  -0.2532   0.00    0.0
2023/05/16 09:03:22.000  -2417142.7291   5382345.1438   2415036.8697        -0.0000         0.0000         0.0000         0.0000     0.0000     0.0000   2  23   0.4460   0.7054   0.3569  -0.4357   0.3536  -0.2532   0.00    0.0
2023/05/16 09:03:23.000  -2417142.7312   5382345.1494   2415036.8670        -0.0000         0.0000         0.0000         0.0000     0.0000     0.0000   2  23   0.4460   0.7054   0.3569  -0.4357   0.3536  -0.2532   0.00    0.0
2023/05/16 09:03:24.000  -2417142.7291   5382345.1516   2415036.8703        -0.0000         0.0000         0.0000         0.0000     0.0000     0.0000   2  23   0.4460   0.7054   0.3569  -0.4357   0.3536  -0.2532   0.00    0.0
2023/05/16 09:03:25.000  -2417142.7268   5382345.1281   2415036.8723        -0.0000         0.0000         0.0000         0.0000     0.0000     0.0000   2  23   0.4460   0.7054   0.3569  -0.4357   0.3536  -0.2532   0.00    0.0
2023/05/16 09:03:26.000  -2417142.7236   5382345.1202   2415036.8664        -0.0000         0.0000         0.0000         0.0000     0.0000     0.0000   2  23   0.4460   0.7054   0.3569  -0.4357   0.3536  -0.2532   0.00    0.0
2023/05/16 09:03:27.000  -2417142.7132   5382345.1168   2415036.8605        -0.0000         0.0000         0.0000         0.0000     0.0000     0.0000   2  23   0.4460   0.7054   0.3569  -0.4357   0.3536  -0.2532   0.00    0.0
2023/05/16 09:03:28.000  -2417142.7109   5382345.1085   2415036.8637        -0.0000         0.0000         0.0000         0.0000     0.0000     0.0000   2  23   0.4460   0.7054   0.3569  -0.4357   0.3537  -0.2532   0.00    0.0
2023/05/16 09:03:29.000  -2417142.7024   5382345.0907   2415036.8631        -0.0000         0.0000         0.0000         0.0000     0.0000     0.0000   2  23   0.4461   0.7054   0.3569  -0.4358   0.3537  -0.2532   0.00    0.0
2023/05/16 09:03:30.000  -2417142.7025   5382345.0963   2415036.8556        -0.0000         0.0000         0.0000         0.0000     0.0000     0.0000   2  23   0.4461   0.7054   0.3569  -0.4358   0.3537  -0.2532   0.00    0.0
2023/05/16 09:03:31.000  -2417142.6722   5382345.0356   2415036.8050        -0.0000         0.0000         0.0000         0.0000     0.0000     0.0000   2  22   0.4497   0.7204   0.3746  -0.4453   0.3765  -0.2658   0.00    0.0
2023/05/16 09:03:32.000  -2417142.6537   5382344.9891   2415036.7959        -0.0000         0.0000         0.0000         0.0000     0.0000     0.0000   2  22   0.4521   0.7272   0.3770  -0.4503   0.3820  -0.2694   0.00    0.0
2023/05/16 09:03:33.000  -2417142.6470   5382344.9713   2415036.7911        -0.0000         0.0000         0.0000         0.0000     0.0000     0.0000   2  22   0.4528   0.7292   0.3773  -0.4519   0.3830  -0.2701   0.00    0.0
2023/05/16 09:03:34.000  -2417142.6343   5382344.9372   2415036.7727        -0.0000         0.0000         0.0000         0.0000     0.0000     0.0000   2  23   0.4490   0.7136   0.3591  -0.4420   0.3597  -0.2572   0.00    0.0
2023/05/16 09:03:35.000  -2417142.6267   5382344.9225   2415036.7628        -0.0000         0.0000         0.0000         0.0000     0.0000     0.0000   2  23   0.4468   0.7073   0.3571  -0.4373   0.3546  -0.2538   0.00    0.0
2023/05/16 09:03:36.000  -2417142.6270   5382344.9350   2415036.7884        -0.0000         0.0000         0.0000         0.0000     0.0000     0.0000   2  23   0.4462   0.7058   0.3569  -0.4361   0.3539  -0.2533   0.00    0.0
2023/05/16 09:03:37.000  -2417142.6363   5382344.9666   2415036.8011        -0.0000         0.0000         0.0000         0.0000     0.0000     0.0000   2  23   0.4463   0.7059   0.3569  -0.4361   0.3540  -0.2534   0.00    0.0
2023/05/16 09:03:38.000  -2417142.6339   5382344.9383   2415036.7839        -0.0000         0.0000         0.0000         0.0000     0.0000     0.0000   2  23   0.4463   0.7061   0.3570  -0.4362   0.3541  -0.2535   0.00    0.0
2023/05/16 09:03:39.000  -2417142.6336   5382344.9448   2415036.7972        -0.0000         0.0000         0.0000         0.0000     0.0000     0.0000   2  23   0.4463   0.7060   0.3569  -0.4362   0.3540  -0.2534   0.00    0.0
2023/05/16 09:03:40.000  -2417142.6332   5382344.9532   2415036.7994        -0.0000         0.0000         0.0000         0.0000     0.0000     0.0000   2  23   0.4462   0.7058   0.3569  -0.4360   0.3539  -0.2533   0.00    0.0
2023/05/16 09:03:41.000  -2417142.6281   5382344.9288   2415036.7898        -0.0000         0.0000         0.0000         0.0000     0.0000     0.0000   2  22   0.4498   0.7206   0.3746  -0.4454   0.3766  -0.2658   0.00    0.0
2023/05/16 09:03:42.000  -2417142.6141   5382344.9153   2415036.7885        -0.0000         0.0000         0.0000         0.0000     0.0000     0.0000   2  22   0.4521   0.7274   0.3769  -0.4504   0.3821  -0.2694   0.00    0.0
2023/05/16 09:03:43.000  -2417142.6189   5382344.9163   2415036.7884        -0.0000         0.0000         0.0000         0.0000     0.0000     0.0000   2  22   0.4529   0.7293   0.3772  -0.4520   0.3831  -0.2701   0.00    0.0
2023/05/16 09:03:44.000  -2417142.6136   5382344.9070   2415036.7907        -0.0000         0.0000         0.0000         0.0000     0.0000     0.0000   2  22   0.4530   0.7295   0.3772  -0.4521   0.3832  -0.2702   0.00    0.0
2023/05/16 09:03:45.000  -2417142.6097   5382344.8913   2415036.7819        -0.0000         0.0000         0.0000         0.0000     0.0000     0.0000   2  22   0.4530   0.7295   0.3772  -0.4522   0.3832  -0.2702   0.00    0.0
2023/05/16 09:03:46.000  -2417142.5942   5382344.8642   2415036.7723        -0.0000         0.0000         0.0000         0.0000     0.0000     0.0000   2  23   0.4491   0.7139   0.3591  -0.4423   0.3599  -0.2573   0.00    0.0
2023/05/16 09:03:47.000  -2417142.5789   5382344.8466   2415036.7687        -0.0000         0.0000         0.0000         0.0000     0.0000     0.0000   2  23   0.4470   0.7078   0.3571  -0.4377   0.3549  -0.2540   0.00    0.0
2023/05/16 09:03:48.000  -2417142.5786   5382344.8437   2415036.7620        -0.0000         0.0000         0.0000         0.0000     0.0000     0.0000   2  23   0.4464   0.7063   0.3569  -0.4365   0.3542  -0.2535   0.00    0.0
2023/05/16 09:03:49.000  -2417142.5778   5382344.8325   2415036.7494        -0.0000         0.0000         0.0000         0.0000     0.0000     0.0000   2  23   0.4464   0.7063   0.3569  -0.4364   0.3542  -0.2535   0.00    0.0
2023/05/16 09:03:50.000  -2417142.5781   5382344.8253   2415036.7624        -0.0000         0.0000         0.0000         0.0000     0.0000     0.0000   2  23   0.4464   0.7063   0.3569  -0.4364   0.3542  -0.2535   0.00    0.0
2023/05/16 09:03:51.000  -2417142.5801   5382344.8383   2415036.7764        -0.0000         0.0000         0.0000         0.0000     0.0000     0.0000   2  23   0.4464   0.7061   0.3569  -0.4363   0.3541  -0.2535   0.00    0.0
2023/05/16 09:03:52.000  -2417142.5877   5382344.8485   2415036.7880        -0.0000         0.0000         0.0000         0.0000     0.0000     0.0000   2  23   0.4463   0.7059   0.3568  -0.4362   0.3540  -0.2534   0.00    0.0
2023/05/16 09:03:53.000  -2417142.5793   5382344.8517   2415036.7911        -0.0000         0.0000         0.0000         0.0000     0.0000     0.0000   2  23   0.4463   0.7058   0.3568  -0.4361   0.3539  -0.2533   0.00    0.0
2023/05/16 09:03:54.000  -2417142.5899   5382344.8650   2415036.8003        -0.0000         0.0000         0.0000         0.0000     0.0000     0.0000   2  23   0.4462   0.7057   0.3568  -0.4360   0.3539  -0.2533   0.00    0.0
2023/05/16 09:03:55.000  -2417142.5983   5382344.8777   2415036.8091        -0.0000         0.0000         0.0000         0.0000     0.0000     0.0000   2  23   0.4462   0.7057   0.3568  -0.4360   0.3539  -0.2533   0.00    0.0
2023/05/16 09:03:56.000  -2417142.6118   5382344.8961   2415036.8341        -0.0000         0.0000         0.0000         0.0000     0.0000     0.0000   2  23   0.4463   0.7057   0.3568  -0.4360   0.3539  -0.2533   0.00    0.0
2023/05/16 09:03:57.000  -2417142.6178   5382344.9089   2415036.8285        -0.0000         0.0000         0.0000         0.0000     0.0000     0.0000   2  23   0.4463   0.7058   0.3568  -0.4360   0.3539  -0.2533   0.00    0.0
2023/05/16 09:03:58.000  -2417142.6068   5382344.9137   2415036.8368        -0.0000         0.0000         0.0000         0.0000     0.0000     0.0000   2  23   0.4463   0.7058   0.3568  -0.4360   0.3539  -0.2533   0.00    0.0
2023/05/16 09:03:59.000  -2417142.6012   5382344.9218   2415036.8300        -0.0000         0.0000         0.0000         0.0000     0.0000     0.0000   2  23   0.4463   0.7058   0.3568  -0.4360   0.3539  -0.2533   0.00    0.0
2023/05/16 09:04:00.000  -2417142.6048   5382344.9302   2415036.8414        -0.0000         0.0000         0.0000         0.0000     0.0000     0.0000   2  23   0.4463   0.7058   0.3567  -0.4360   0.3539  -0.2533   0.00    0.0
2023/05/16 09:04:01.000  -2417142.6109   5382344.9341   2415036.8465        -0.0000         0.0000         0.0000         0.0000     0.0000     0.0000   2  23   0.4463   0.7058   0.3567  -0.4361   0.3539  -0.2533   0.00    0.0
2023/05/16 09:04:02.000  -2417142.6086   5382344.9296   2415036.8469        -0.0000         0.0000         0.0000         0.0000     0.0000     0.0000   2  23   0.4463   0.7058   0.3567  -0.4361   0.3539  -0.2533   0.00    0.0
2023/05/16 09:04:03.000  -2417142.6164   5382344.9272   2415036.8464        -0.0000         0.0000         0.0000         0.0000     0.0000     0.0000   2  23   0.4463   0.7058   0.3567  -0.4361   0.3539  -0.2533   0.00    0.0
2023/05/16 09:04:04.000  -2417142.6068   5382344.9376   2415036.8418        -0.0000         0.0000         0.0000         0.0000     0.0000     0.0000   2  23   0.4463   0.7058   0.3567  -0.4361   0.3539  -0.2533   0.00    0.0
2023/05/16 09:04:05.000  -2417142.6038   5382344.9495   2415036.8562        -0.0000         0.0000         0.0000         0.0000     0.0000     0.0000   2  23   0.4463   0.7058   0.3567  -0.4361   0.3539  -0.2533   0.00    0.0
2023/05/16 09:04:06.000  -2417142.6190   5382344.9544   2415036.8623        -0.0000         0.0000         0.0000         0.0000     0.0000     0.0000   2  23   0.4463   0.7058   0.3567  -0.4361   0.3539  -0.2533   0.00    0.0
2023/05/16 09:04:07.000  -2417142.6172   5382344.9679   2415036.8694        -0.0000         0.0000         0.0000         0.0000     0.0000     0.0000   2  23   0.4463   0.7058   0.3567  -0.4361   0.3539  -0.2533   0.00    0.0
2023/05/16 09:04:08.000  -2417142.6243   5382344.9909   2415036.8747        -0.0000         0.0000         0.0000         0.0000     0.0000     0.0000   2  23   0.4463   0.7058   0.3567  -0.4361   0.3539  -0.2533   0.00    0.0
2023/05/16 09:04:09.000  -2417142.6197   5382344.9989   2415036.8872        -0.0000         0.0000         0.0000         0.0000     0.0000     0.0000   2  23   0.4463   0.7058   0.3567  -0.4361   0.3540  -0.2533   0.00    0.0
2023/05/16 09:04:10.000  -2417142.6191   5382345.0090   2415036.8886        -0.0000         0.0000         0.0000         0.0000     0.0000     0.0000   2  23   0.4463   0.7058   0.3567  -0.4361   0.3540  -0.2533   0.00    0.0
2023/05/16 09:04:11.000  -2417142.6244   5382345.0070   2415036.8918        -0.0000         0.0000         0.0000         0.0000     0.0000     0.0000   2  23   0.4463   0.7059   0.3567  -0.4361   0.3540  -0.2533   0.00    0.0
2023/05/16 09:04:12.000  -2417142.6355   5382345.0135   2415036.8837        -0.0000         0.0000         0.0000         0.0000     0.0000     0.0000   2  23   0.4464   0.7059   0.3567  -0.4362   0.3540  -0.2533   0.00    0.0
2023/05/16 09:04:13.000  -2417142.6296   5382345.0154   2415036.8809        -0.0000         0.0000         0.0000         0.0000     0.0000     0.0000   2  23   0.4464   0.7059   0.3567  -0.4362   0.3540  -0.2533   0.00    0.0
2023/05/16 09:04:14.000  -2417142.6229   5382345.0151   2415036.8842        -0.0000         0.0000         0.0000         0.0000     0.0000     0.0000   2  23   0.4464   0.7059   0.3567  -0.4362   0.3540  -0.2533   0.00    0.0
2023/05/16 09:04:15.000  -2417142.6278   5382345.0121   2415036.8885        -0.0000         0.0000         0.0000         0.0000     0.0000     0.0000   2  23   0.4464   0.7059   0.3567  -0.4362   0.3540  -0.2533   0.00    0.0
2023/05/16 09:04:16.000  -2417142.6201   5382345.0237   2415036.8863        -0.0000         0.0000         0.0000         0.0000     0.0000     0.0000   2  23   0.4464   0.7059   0.3567  -0.4362   0.3540  -0.2533   0.00    0.0
2023/05/16 09:04:17.000  -2417142.6370   5382345.0274   2415036.8922        -0.0000         0.0000         0.0000         0.0000     0.0000     0.0000   2  23   0.4464   0.7059   0.3567  -0.4362   0.3540  -0.2534   0.00    0.0
2023/05/16 09:04:18.000  -2417142.6445   5382345.0371   2415036.8954        -0.0000         0.0000         0.0000         0.0000     0.0000     0.0000   2  23   0.4464   0.7059   0.3567  -0.4362   0.3540  -0.2534   0.00    0.0
2023/05/16 09:04:19.000  -2417142.6491   5382345.0441   2415036.8990        -0.0000         0.0000         0.0000         0.0000     0.0000     0.0000   2  23   0.4464   0.7059   0.3567  -0.4362   0.3540  -0.2534   0.00    0.0
2023/05/16 09:04:20.000  -2417142.6461   5382345.0612   2415036.8982        -0.0000         0.0000         0.0000         0.0000     0.0000     0.0000   2  23   0.4464   0.7059   0.3567  -0.4362   0.3540  -0.2534   0.00    0.0
2023/05/16 09:04:21.000  -2417142.6353   5382345.0167   2415036.8699        -0.0000         0.0000         0.0000         0.0000     0.0000     0.0000   2  22   0.4500   0.7209   0.3744  -0.4457   0.3768  -0.2659   0.00    0.0
2023/05/16 09:04:22.000  -2417142.6212   5382344.9970   2415036.8581        -0.0000         0.0000         0.0000         0.0000     0.0000     0.0000   2  22   0.4524   0.7277   0.3768  -0.4508   0.3823  -0.2695   0.00    0.0
