%  GPST                      x-ecef(m)      y-ecef(m)      z-ecef(m)   Q  ns   sdx(m)   sdy(m)   sdz(m)  sdxy(m)  sdyz(m)  sdzx(m) age(s)  ratio
2023/01/03 00:00:00.000  -2994436.8800   4951322.0460   2674510.9104        -0.5754         0.0000         0.0000       118.0414     2.4308     6.1728   6   6   6.7062  14.2950   5.1189  -8.8643   4.3921  -3.8869   0.00    0.0
2023/01/03 00:00:30.000  -2994437.6393   4951324.4718   2674511.0886         1.9990         0.0000         0.0000       122.6327     2.4309     6.1527   6   6   4.6727   9.6632   3.6018  -6.0661   3.4545  -2.8892   0.00    0.0
2023/01/03 00:01:00.000  -2994437.6364   4951325.7470   2674510.5622         2.1941         0.0000         0.0000       125.2504     2.4310     6.1327   6   6   3.6987   7.3276   2.9149  -4.6707   3.0481  -2.4474   0.00    0.0
2023/01/03 00:01:30.000  -2994437.8683   4951326.7792   2674510.3584         2.3990         0.0000         0.0000       128.2411     2.4311     6.1130   6   6   3.1060   5.8915   2.5021  -3.8148   2.7793  -2.1713   0.00    0.0
2023/01/03 00:02:00.000  -2994438.0868   4951327.8498   2674510.0707         2.4563         0.0000         0.0000       130.9914     2.4313     6.0935   6   6   2.7046   4.9377   2.2196  -3.2429   2.5681  -1.9692   0.00    0.0
2023/01/03 00:02:30.000  -2994438.2849   4951328.5573   2674510.0884         2.4130         0.0000         0.0000       133.2512     2.4315     6.0742   6   6   2.4129   4.2701   2.0104  -2.8373   2.3915  -1.8090   0.00    0.0
2023/01/03 00:03:00.000  -2994438.3050   4951329.0449   2674509.9580         2.2679         0.0000         0.0000       134.6862     2.4318     6.0551   6   6   2.1890   3.7814   1.8467  -2.5349   2.2400  -1.6763   0.00    0.0
2023/01/03 00:03:30.000  -2994438.2240   4951329.3378   2674509.6699         2.0662         0.0000         0.0000       135.5507     2.4322     6.0362   6   6   2.0097   3.4095   1.7135  -2.2998   2.1078  -1.5630   0.00    0.0
2023/01/03 00:04:00.000  -2994438.1389   4951329.5602   2674509.5159         0.0000         0.0000         0.0000       138.0348     2.4326     6.0176   6   6   1.8610   3.1162   1.6017  -2.1100   1.9909  -1.4641   0.00    0.0
2023/01/03 00:04:30.000  -2994437.9460   4951329.4383   2674509.2951        -0.0088         0.0000         0.0000       137.3648     2.4331     5.9992   6   6   1.7348   2.8787   1.5059  -1.9527   1.8869  -1.3766   0.00    0.0
2023/01/03 00:05:00.000  -2994437.6964   4951329.2202   2674509.0032        -0.0300         0.0000         0.0000       136.3909     2.4337     5.9810   6   6   1.6251   2.6813   1.4222  -1.8188   1.7933  -1.2980   0.00    0.0
2023/01/03 00:05:30.000  -2994437.4565   4951329.0484   2674508.8035        -0.0322         0.0000         0.0000       135.5652     2.4344     5.9631   6   6   1.5282   2.5136   1.3479  -1.7025   1.7083  -1.2267   0.00    0.0
2023/01/03 00:06:00.000  -2994437.0965   4951328.7552   2674508.4788        -0.0385         0.0000         0.0000       134.1839     2.4351     5.9454   6   6   1.4415   2.3687   1.2813  -1.5998   1.6308  -1.1615   0.00    0.0
2023/01/03 00:06:30.000  -2994436.8116   4951328.4591   2674508.2027        -0.0549         0.0000         0.0000       132.9595     2.4360     5.9280   6   6   1.3630   2.2416   1.2210  -1.5079   1.5595  -1.1013   0.00    0.0
2023/01/03 00:07:00.000  -2994436.5131   4951328.1917   2674507.9819        -0.0678         0.0000         0.0000       131.7948     2.4368     5.9108   6   6   1.2913   2.1287   1.1660  -1.4247   1.4937  -1.0456   0.00    0.0
2023/01/03 00:07:30.000  -2994436.2456   4951327.9513   2674507.7783        -0.0847         0.0000         0.0000       130.7377     2.4378     5.8938   6   6   1.2255   2.0274   1.1154  -1.3489   1.4328  -0.9938   0.00    0.0
2023/01/03 00:08:00.000  -2994436.0494   4951327.7382   2674507.5796        -0.0902         0.0000         0.0000       129.8154     2.4388     5.8772   6   6   1.1647   1.9357   1.0688  -1.2792   1.3761  -0.9454   0.00    0.0
2023/01/03 00:08:30.000  -2994435.8319   4951327.4794   2674507.3872        -0.0867         0.0000         0.0000       128.8040     2.4398     5.8607   6   6   1.1083   1.8521   1.0256  -1.2148   1.3232  -0.9000   0.00    0.0
2023/01/03 00:09:00.000  -2994435.5323   4951327.0748   2674507.1064        -0.1105         0.0000         0.0000       127.2311     2.4408     5.8446   6   6   1.0558   1.7754   0.9854  -1.1550   1.2737  -0.8574   0.00    0.0
2023/01/03 00:09:30.000  -2994434.7734   4951326.0594   2674506.5359         0.0000         0.0000         0.0000       123.3080     2.4422     5.8287   6   6   0.9783   1.6724   0.9323  -1.0628   1.2040  -0.7920   0.00    0.0
2023/01/03 00:10:00.000  -2994434.5089   4951325.7202   2674506.3149        -0.0591         0.0000         0.0000       121.9870     2.4435     5.8130   6   6   0.9361   1.6113   0.8992  -1.0153   1.1635  -0.7573   0.00    0.0
2023/01/03 00:10:30.000  -2994434.2395   4951325.3929   2674506.1014        -0.0884         0.0000         0.0000       120.7040     2.4447     5.7976   6   6   0.8963   1.5542   0.8680  -0.9703   1.1252  -0.7243   0.00    0.0
2023/01/03 00:11:00.000  -2994433.9694   4951325.0643   2674505.8984        -0.0878         0.0000         0.0000       119.3805     2.4459     5.7825   6   6   0.8586   1.5007   0.8386  -0.9277   1.0889  -0.6928   0.00    0.0
2023/01/03 00:11:30.000  -2994433.7003   4951324.7466   2674505.7112        -0.0945         0.0000         0.0000       118.0866     2.4472     5.7677   6   6   0.8231   1.4505   0.8109  -0.8874   1.0544  -0.6630   0.00    0.0
2023/01/03 00:12:00.000  -2994433.4529   4951324.4635   2674505.5349        -0.1097         0.0000         0.0000       116.9540     2.4485     5.7531   6   6   0.7894   1.4032   0.7847  -0.8491   1.0217  -0.6345   0.00    0.0
2023/01/03 00:12:30.000  -2994433.1848   4951324.1016   2674505.3338        -0.1128         0.0000         0.0000       115.5657     2.4499     5.7388   6   6   0.7576   1.3587   0.7599  -0.8127   0.9907  -0.6074   0.00    0.0
2023/01/03 00:13:00.000  -2994432.9573   4951323.8085   2674505.1537        -0.1254         0.0000         0.0000       114.3872     2.4513     5.7247   6   6   0.7274   1.3166   0.7364  -0.7782   0.9612  -0.5816   0.00    0.0
2023/01/03 00:13:30.000  -2994432.7355   4951323.5429   2674505.0024        -0.1320         0.0000         0.0000       113.3449     2.4527     5.7110   6   6   0.6989   1.2769   0.7141  -0.7454   0.9332  -0.5570   0.00    0.0
2023/01/03 00:14:00.000  -2994432.5281   4951323.2524   2674504.8274        -0.1227         0.0000         0.0000       112.2114     2.4543     5.6974   6   6   0.6719   1.2392   0.6930  -0.7141   0.9065  -0.5335   0.00    0.0
2023/01/03 00:14:30.000  -2994432.3357   4951323.0095   2674504.6755        -0.1300         0.0000         0.0000       111.2231     2.4558     5.6842   6   6   0.6463   1.2035   0.6730  -0.6843   0.8812  -0.5111   0.00    0.0
2023/01/03 00:15:00.000  -2994432.1292   4951322.7316   2674504.5008        -0.1383         0.0000         0.0000       110.1503     2.4574     5.6712   6   6   0.6220   1.1697   0.6539  -0.6560   0.8570  -0.4897   0.00    0.0
2023/01/03 00:15:30.000  -2994431.9518   4951322.5043   2674504.3623        -0.1325         0.0000         0.0000       109.2290     2.4589     5.6586   6   6   0.5990   1.1375   0.6358  -0.6289   0.8340  -0.4693   0.00    0.0
2023/01/03 00:16:00.000  -2994431.7559   4951322.2278   2674504.1911        -0.1413         0.0000         0.0000       108.1668     2.4605     5.6461   6   6   0.5772   1.1069   0.6186  -0.6031   0.8120  -0.4499   0.00    0.0
2023/01/03 00:16:30.000  -2994431.5677   4951321.9829   2674504.0462        -0.1248         0.0000         0.0000       107.2104     2.4622     5.6340   6   6   0.5565   1.0778   0.6022  -0.5785   0.7911  -0.4312   0.00    0.0
2023/01/03 00:17:00.000  -2994431.3937   4951321.7151   2674503.8910        -0.1372         0.0000         0.0000       106.2215     2.4637     5.6221   6   6   0.5369   1.0501   0.5866  -0.5549   0.7711  -0.4134   0.00    0.0
2023/01/03 00:17:30.000  -2994431.2079   4951321.4219   2674503.7185        -0.1421         0.0000         0.0000       105.1506     2.4653     5.6105   6   6   0.5183   1.0237   0.5716  -0.5324   0.7520  -0.3964   0.00    0.0
2023/01/03 00:18:00.000  -2994431.0563   4951321.1833   2674503.5784        -0.1316         0.0000         0.0000       104.2523     2.4669     5.5992   6   6   0.5006   0.9985   0.5574  -0.5109   0.7338  -0.3801   0.00    0.0
2023/01/03 00:18:30.000  -2994430.9111   4951320.9447   2674503.4423        -0.1394         0.0000         0.0000       103.3503     2.4685     5.5881   6   6   0.4838   0.9744   0.5438  -0.4903   0.7164  -0.3644   0.00    0.0
2023/01/03 00:19:00.000  -2994430.7693   4951320.7335   2674503.3160        -0.1428         0.0000         0.0000       102.5519     2.4701     5.5773   6   6   0.4679   0.9514   0.5308  -0.4706   0.6997  -0.3495   0.00    0.0
2023/01/03 00:19:30.000  -2994430.6331   4951320.5021   2674503.1828        -0.1432         0.0000         0.0000       101.7052     2.4717     5.5668   6   6   0.4527   0.9293   0.5184  -0.4516   0.6837  -0.3351   0.00    0.0
2023/01/03 00:20:00.000  -2994430.5127   4951320.3060   2674503.0740        -0.1525         0.0000         0.0000       100.9595     2.4734     5.5565   6   6   0.4383   0.9082   0.5065  -0.4335   0.6683  -0.3213   0.00    0.0
2023/01/03 00:20:30.000  -2994430.3847   4951320.1086   2674502.9581        -0.1435         0.0000         0.0000       100.1993     2.4749     5.5465   6   6   0.4247   0.8880   0.4951  -0.4160   0.6536  -0.3080   0.00    0.0
2023/01/03 00:21:00.000  -2994429.9626   4951319.4218   2674502.5799         0.0000         0.0000         0.0000        97.6215     2.4752     5.5368   6   6   0.3946   0.8472   0.4732  -0.3700   0.6239  -0.2741   0.00    0.0
2023/01/03 00:21:30.000  -2994429.7172   4951319.0162   2674502.3558         0.0000         0.0000         0.0000        96.0944     2.4761     5.5274   6   6   0.3769   0.8218   0.4592  -0.3437   0.6054  -0.2544   0.00    0.0
2023/01/03 00:22:00.000  -2994429.6300   4951318.8713   2674502.2717        -0.0588         0.0000         0.0000        95.5437     2.4775     5.5182   6   6   0.3670   0.8064   0.4505  -0.3311   0.5943  -0.2447   0.00    0.0
2023/01/03 00:22:30.000  -2994429.5463   4951318.7416   2674502.1959        -0.0643         0.0000         0.0000        95.0441     2.4791     5.5093   6   6   0.3575   0.7915   0.4420  -0.3188   0.5834  -0.2351   0.00    0.0
2023/01/03 00:23:00.000  -2994429.4753   4951318.6281   2674502.1335        -0.0814         0.0000         0.0000        94.6190     2.4806     5.5006   6   6   0.3485   0.7771   0.4339  -0.3068   0.5729  -0.2259   0.00    0.0
2023/01/03 00:23:30.000  -2994429.3928   4951318.4969   2674502.0582        -0.0712         0.0000         0.0000        94.1221     2.4821     5.4923   6   6   0.3397   0.7631   0.4259  -0.2950   0.5627  -0.2168   0.00    0.0
2023/01/03 00:24:00.000  -2994429.3154   4951318.3811   2674501.9937        -0.0755         0.0000         0.0000        93.6697     2.4836     5.4841   6   6   0.3314   0.7495   0.4182  -0.2836   0.5528  -0.2080   0.00    0.0
2023/01/03 00:24:30.000  -2994429.1636   4951318.1336   2674501.8608         0.0000         0.0000         0.0000        92.7334     2.4847     5.4763   6   6   0.3188   0.7296   0.4074  -0.2625   0.5383  -0.1920   0.00    0.0
2023/01/03 00:25:00.000  -2994429.1056   4951318.0071   2674501.7889        -0.0637         0.0000         0.0000        92.2662     2.4862     5.4687   6   6   0.3114   0.7173   0.4004  -0.2521   0.5293  -0.1839   0.00    0.0
2023/01/03 00:25:30.000  -2994429.0409   4951317.8916   2674501.7219        -0.0649         0.0000         0.0000        91.8325     2.4879     5.4614   6   6   0.3044   0.7054   0.3936  -0.2420   0.5206  -0.1761   0.00    0.0
2023/01/03 00:26:00.000  -2994428.9151   4951317.6742   2674501.5999         0.0000         0.0000         0.0000        91.0236     2.4890     5.4543   6   6   0.2946   0.6890   0.3846  -0.2246   0.5086  -0.1628   0.00    0.0
2023/01/03 00:26:30.000  -2994428.8519   4951317.5613   2674501.5343        -0.0448         0.0000         0.0000        90.6204     2.4906     5.4475   6   6   0.2882   0.6780   0.3784  -0.2153   0.5006  -0.1554   0.00    0.0
2023/01/03 00:27:00.000  -2994428.8011   4951317.4586   2674501.4718        -0.0581         0.0000         0.0000        90.2628     2.4921     5.4410   6   6   0.2822   0.6673   0.3724  -0.2061   0.4928  -0.1482   0.00    0.0
2023/01/03 00:27:30.000  -2994428.7023   4951317.2484   2674501.3528         0.0000         0.0000         0.0000        89.5076     2.4933     5.4347   6   6   0.2742   0.6530   0.3646  -0.1906   0.4824  -0.1362   0.00    0.0
2023/01/03 00:28:00.000  -2994428.6548   4951317.1645   2674501.3036        -0.0502         0.0000         0.0000        89.1975     2.4948     5.4286   6   6   0.2687   0.6431   0.3590  -0.1820   0.4751  -0.1293   0.00    0.0
2023/01/03 00:28:30.000  -2994428.6049   4951317.0885   2674501.2569        -0.0599         0.0000         0.0000        88.8991     2.4965     5.4229   6   6   0.2635   0.6334   0.3536  -0.1734   0.4681  -0.1225   0.00    0.0
2023/01/03 00:29:00.000  -2994428.5285   4951316.9442   2674501.1762         0.0000         0.0000         0.0000        88.3544     2.4975     5.4174   6   6   0.2567   0.6206   0.3466  -0.1591   0.4588  -0.1111   0.00    0.0
2023/01/03 00:29:30.000  -2994428.4804   4951316.8432   2674501.1166        -0.0608         0.0000         0.0000        87.9824     2.4993     5.4121   6   6   0.2520   0.6116   0.3415  -0.1508   0.4522  -0.1044   0.00    0.0
2023/01/03 00:30:00.000  -2994428.4475   4951316.7599   2674501.0674        -0.0518         0.0000         0.0000        87.6793     2.5010     5.4071   6   6   0.2474   0.6028   0.3366  -0.1426   0.4458  -0.0976   0.00    0.0
2023/01/03 00:30:30.000  -2994428.3954   4951316.6599   2674501.0100        -0.0394         0.0000         0.0000        87.3120     2.5029     5.4023   6   6   0.2430   0.5942   0.3318  -0.1343   0.4395  -0.0908   0.00    0.0
2023/01/03 00:31:00.000  -2994428.3568   4951316.5655   2674500.9576        -0.0469         0.0000         0.0000        86.9672     2.5046     5.3978   6   6   0.2388   0.5858   0.3271  -0.1261   0.4333  -0.0838   0.00    0.0
2023/01/03 00:31:30.000  -2994428.3156   4951316.4720   2674500.9061        -0.0382         0.0000         0.0000        86.6260     2.5064     5.3936   6   6   0.2348   0.5776   0.3225  -0.1178   0.4273  -0.0767   0.00    0.0
2023/01/03 00:32:00.000  -2994428.2750   4951316.3627   2674500.8452        -0.0563         0.0000         0.0000        86.2379     2.5081     5.3896   6   6   0.2308   0.5696   0.3180  -0.1093   0.4215  -0.0693   0.00    0.0
2023/01/03 00:32:30.000  -2994428.2414   4951316.2611   2674500.7878        -0.0703         0.0000         0.0000        85.8713     2.5097     5.3858   6   6   0.2271   0.5617   0.3136  -0.1008   0.4157  -0.0616   0.00    0.0
2023/01/03 00:33:00.000  -2994428.2042   4951316.1666   2674500.7360        -0.0552         0.0000         0.0000        85.5222     2.5116     5.3823   6   6   0.2235   0.5540   0.3094  -0.0920   0.4101  -0.0533   0.00    0.0
2023/01/03 00:33:30.000  -2994428.1348   4951315.9804   2674500.6342         0.0000         0.0000         0.0000        84.8824     2.5122     5.3791   6   6   0.2185   0.5424   0.3031  -0.0720   0.4016  -0.0324   0.00    0.0
2023/01/03 00:34:00.000  -2994428.0969   4951315.8887   2674500.5837        -0.0360         0.0000         0.0000        84.5475     2.5141     5.3761   6   6   0.2153   0.5353   0.2992  -0.0617   0.3964  -0.0166   0.00    0.0
2023/01/03 00:34:30.000  -2994428.0583   4951315.7998   2674500.5348        -0.0320         0.0000         0.0000        84.2394     2.5156     5.3733   6   6   0.2122   0.5283   0.2953  -0.0501   0.3914   0.0213   0.00    0.0
2023/01/03 00:35:00.000  -2994428.0075   4951315.6548   2674500.4548         0.0000         0.0000         0.0000        83.7374     2.5164     5.3708   6   6   0.2082   0.5182   0.2898  -0.0099   0.3840   0.0421   0.00    0.0
2023/01/03 00:35:30.000  -2994427.9667   4951315.5654   2674500.4065        -0.0314         0.0000         0.0000        83.4210     2.5181     5.3685   6   6   0.2053   0.5117   0.2862   0.0310   0.3793   0.0487   0.00    0.0
2023/01/03 00:36:00.000  -2994427.9447   4951315.4913   2674500.3641        -0.0337         0.0000         0.0000        83.1686     2.5198     5.3665   6   6   0.2026   0.5053   0.2827   0.0443   0.3746   0.0541   0.00    0.0
2023/01/03 00:36:30.000  -2994427.9103   4951315.4033   2674500.3147        -0.0520         0.0000         0.0000        82.8495     2.5215     5.3647   6   6   0.2000   0.4990   0.2792   0.0539   0.3700   0.0588   0.00    0.0
2023/01/03 00:37:00.000  -2994427.8721   4951315.2577   2674500.2349         0.0000         0.0000         0.0000        82.3646     2.5223     5.3632   6   6   0.1967   0.4900   0.2744   0.0684   0.3634   0.0666   0.00    0.0
2023/01/03 00:37:30.000  -2994427.8500   4951315.2043   2674500.2059        -0.0442         0.0000         0.0000        82.1590     2.5239     5.3619   6   6   0.1943   0.4841   0.2711   0.0738   0.3592   0.0697   0.00    0.0
2023/01/03 00:38:00.000  -2994427.8223   4951315.1261   2674500.1647        -0.0528         0.0000         0.0000        81.8925     2.5257     5.3608   6   6   0.1920   0.4783   0.2679   0.0785   0.3549   0.0726   0.00    0.0
2023/01/03 00:38:30.000  -2994427.7811   4951315.0138   2674500.1043         0.0000         0.0000         0.0000        81.4950     2.5266     5.3600   6   6   0.1893   0.4702   0.2636   0.0867   0.3490   0.0775   0.00    0.0
2023/01/03 00:39:00.000  -2994427.7551   4951314.9342   2674500.0613        -0.0488         0.0000         0.0000        81.2167     2.5284     5.3594   6   6   0.1872   0.4647   0.2606   0.0900   0.3450   0.0796   0.00    0.0
2023/01/03 00:39:30.000  -2994427.7288   4951314.8653   2674500.0243        -0.0490         0.0000         0.0000        80.9738     2.5300     5.3591   6   6   0.1852   0.4593   0.2576   0.0930   0.3411   0.0815   0.00    0.0
2023/01/03 00:40:00.000  -2994427.6933   4951314.7551   2674499.9648         0.0000         0.0000         0.0000        80.5983     2.5306     5.3590   6   6   0.1828   0.4519   0.2536   0.0984   0.3357   0.0849   0.00    0.0
2023/01/03 00:40:30.000  -2994427.6742   4951314.7002   2674499.9344        -0.0588         0.0000         0.0000        80.4042     2.5322     5.3591   6   6   0.1810   0.4468   0.2508   0.1007   0.3320   0.0863   0.00    0.0
2023/01/03 00:41:00.000  -2994427.6625   4951314.6521   2674499.9085        -0.0516         0.0000         0.0000        80.2457     2.5337     5.3595   6   6   0.1792   0.4418   0.2481   0.1027   0.3284   0.0877   0.00    0.0
2023/01/03 00:41:30.000  -2994427.6428   4951314.5873   2674499.8739        -0.0415         0.0000         0.0000        80.0257     2.5352     5.3601   6   6   0.1774   0.4369   0.2454   0.1045   0.3248   0.0889   0.00    0.0
2023/01/03 00:42:00.000  -2994427.6248   4951314.5210   2674499.8384        -0.0457         0.0000         0.0000        79.7995     2.5368     5.3609   6   6   0.1758   0.4321   0.2428   0.1062   0.3213   0.0900   0.00    0.0
2023/01/03 00:42:30.000  -2994427.6135   4951314.4663   2674499.8088        -0.0524         0.0000         0.0000        79.6047     2.5384     5.3620   6   6   0.1741   0.4273   0.2402   0.1078   0.3178   0.0910   0.00    0.0
2023/01/03 00:43:00.000  -2994427.5971   4951314.4087   2674499.7765        -0.0525         0.0000         0.0000        79.4009     2.5400     5.3633   6   6   0.1726   0.4226   0.2376   0.1092   0.3144   0.0919   0.00    0.0
2023/01/03 00:43:30.000  -2994427.5855   4951314.3602   2674499.7503        -0.0689         0.0000         0.0000        79.2349     2.5415     5.3648   6   6   0.1711   0.4180   0.2351   0.1104   0.3111   0.0928   0.00    0.0
2023/01/03 00:44:00.000  -2994427.5729   4951314.3071   2674499.7215        -0.0436         0.0000         0.0000        79.0504     2.5430     5.3666   6   6   0.1696   0.4135   0.2326   0.1116   0.3078   0.0935   0.00    0.0
2023/01/03 00:44:30.000  -2994427.5617   4951314.2686   2674499.6997        -0.0605         0.0000         0.0000        78.8970     2.5444     5.3686   6   6   0.1682   0.4090   0.2302   0.1126   0.3045   0.0942   0.00    0.0
2023/01/03 00:45:00.000  -2994427.5388   4951314.1607   2674499.6410         0.0000         0.0000         0.0000        78.5276     2.5443     5.3708   6   6   0.1666   0.4020   0.2265   0.1153   0.2994   0.0960   0.00    0.0
2023/01/03 00:45:30.000  -2994427.5265   4951314.1104   2674499.6137        -0.0386         0.0000         0.0000        78.3565     2.5457     5.3732   6   6   0.1653   0.3978   0.2242   0.1161   0.2963   0.0965   0.00    0.0
2023/01/03 00:46:00.000  -2994427.5140   4951314.0507   2674499.5808        -0.0533         0.0000         0.0000        78.1512     2.5473     5.3759   6   6   0.1641   0.3937   0.2219   0.1167   0.2933   0.0969   0.00    0.0
2023/01/03 00:46:30.000  -2994427.5008   4951313.9818   2674499.5432        -0.0413         0.0000         0.0000        77.9060     2.5488     5.3788   6   6   0.1629   0.3896   0.2197   0.1172   0.2904   0.0973   0.00    0.0
2023/01/03 00:47:00.000  -2994427.4839   4951313.8821   2674499.4896         0.0000         0.0000         0.0000        77.5767     2.5492     5.3820   6   6   0.1616   0.3834   0.2164   0.1189   0.2858   0.0984   0.00    0.0
2023/01/03 00:47:30.000  -2994427.4755   4951313.8148   2674499.4526        -0.0517         0.0000         0.0000        77.3495     2.5508     5.3853   6   6   0.1604   0.3795   0.2143   0.1193   0.2830   0.0986   0.00    0.0
2023/01/03 00:48:00.000  -2994427.4637   4951313.7562   2674499.4204        -0.0442         0.0000         0.0000        77.1523     2.5522     5.3889   6   6   0.1594   0.3757   0.2122   0.1195   0.2803   0.0988   0.00    0.0
2023/01/03 00:48:30.000  -2994427.4487   4951313.6578   2674499.3673         0.0000         0.0000         0.0000        76.8187     2.5524     5.3928   6   6   0.1582   0.3701   0.2093   0.1206   0.2762   0.0995   0.00    0.0
2023/01/03 00:49:00.000  -2994427.4376   4951313.5988   2674499.3351        -0.0447         0.0000         0.0000        76.6086     2.5539     5.3968   6   6   0.1572   0.3665   0.2073   0.1207   0.2736   0.0995   0.00    0.0
2023/01/03 00:49:30.000  -2994427.4314   4951313.5473   2674499.3068        -0.0240         0.0000         0.0000        76.4304     2.5555     5.4011   6   6   0.1562   0.3629   0.2054   0.1208   0.2710   0.0996   0.00    0.0
2023/01/03 00:50:00.000  -2994427.4188   4951313.4738   2674499.2670         0.0000         0.0000         0.0000        76.1736     2.5559     5.4056   6   6   0.1552   0.3578   0.2027   0.1214   0.2673   0.1000   0.00    0.0
2023/01/03 00:50:30.000  -2994427.4096   4951313.4266   2674499.2416        -0.0310         0.0000         0.0000        75.9992     2.5573     5.4103   6   6   0.1543   0.3544   0.2008   0.1213   0.2648   0.1000   0.00    0.0
2023/01/03 00:51:00.000  -2994427.4040   4951313.3750   2674499.2146        -0.0200         0.0000         0.0000        75.8395     2.5587     5.4152   6   6   0.1534   0.3511   0.1990   0.1213   0.2624   0.0999   0.00    0.0
2023/01/03 00:51:30.000  -2994427.3963   4951313.3227   2674499.1872        -0.0350         0.0000         0.0000        75.6632     2.5601     5.4204   6   6   0.1525   0.3478   0.1972   0.1211   0.2600   0.0998   0.00    0.0
2023/01/03 00:52:00.000  -2994427.3892   4951313.2709   2674499.1589        -0.0296         0.0000         0.0000        75.4947     2.5615     5.4258   6   6   0.1517   0.3445   0.1954   0.1210   0.2576   0.0997   0.00    0.0
2023/01/03 00:52:30.000  -2994427.3810   4951313.2337   2674499.1385        -0.0277         0.0000         0.0000        75.3710     2.5631     5.4314   6   6   0.1509   0.3413   0.1937   0.1208   0.2552   0.0996   0.00    0.0
2023/01/03 00:53:00.000  -2994427.3757   4951313.1780   2674499.1080        -0.0394         0.0000         0.0000        75.1798     2.5646     5.4372   6   6   0.1501   0.3381   0.1920   0.1206   0.2529   0.0995   0.00    0.0
2023/01/03 00:53:30.000  -2994427.3698   4951313.1303   2674499.0823        -0.0257         0.0000         0.0000        75.0178     2.5660     5.4433   6   6   0.1493   0.3349   0.1903   0.1203   0.2506   0.0993   0.00    0.0
2023/01/03 00:54:00.000  -2994427.3606   4951313.0872   2674499.0593        -0.0420         0.0000         0.0000        74.8739     2.5673     5.4496   6   6   0.1485   0.3318   0.1886   0.1201   0.2484   0.0991   0.00    0.0
2023/01/03 00:54:30.000  -2994427.3520   4951312.9997   2674499.0115         0.0000         0.0000         0.0000        74.5825     2.5668     5.4561   6   6   0.1478   0.3270   0.1860   0.1200   0.2449   0.0991   0.00    0.0
2023/01/03 00:55:00.000  -2994427.3486   4951312.9566   2674498.9887        -0.0346         0.0000         0.0000        74.4407     2.5683     5.4628   6   6   0.1471   0.3240   0.1844   0.1197   0.2427   0.0988   0.00    0.0
2023/01/03 00:55:30.000  -2994427.3443   4951312.9146   2674498.9662        -0.0530         0.0000         0.0000        74.2960     2.5696     5.4697   6   6   0.1464   0.3211   0.1829   0.1193   0.2406   0.0986   0.00    0.0
2023/01/03 00:56:00.000  -2994427.3388   4951312.8762   2674498.9455        -0.0474         0.0000         0.0000        74.1689     2.5709     5.4769   6   6   0.1457   0.3183   0.1813   0.1189   0.2385   0.0983   0.00    0.0
2023/01/03 00:56:30.000  -2994427.3347   4951312.8327   2674498.9224        -0.0391         0.0000         0.0000        74.0170     2.5721     5.4843   6   6   0.1451   0.3154   0.1798   0.1185   0.2365   0.0980   0.00    0.0
2023/01/03 00:57:00.000  -2994427.3324   4951312.7914   2674498.9006        -0.0561         0.0000         0.0000        73.8793     2.5735     5.4919   6   6   0.1444   0.3126   0.1783   0.1180   0.2344   0.0977   0.00    0.0
2023/01/03 00:57:30.000  -2994427.3295   4951312.7505   2674498.8787        -0.0504         0.0000         0.0000        73.7360     2.5750     5.4997   6   6   0.1438   0.3099   0.1768   0.1176   0.2324   0.0974   0.00    0.0
2023/01/03 00:58:00.000  -2994427.3280   4951312.7058   2674498.8543        -0.0507         0.0000         0.0000        73.5904     2.5763     5.5077   6   6   0.1432   0.3071   0.1753   0.1171   0.2304   0.0971   0.00    0.0
2023/01/03 00:58:30.000  -2994427.3249   4951312.6624   2674498.8309        -0.0594         0.0000         0.0000        73.4424     2.5775     5.5160   6   6   0.1426   0.3044   0.1739   0.1166   0.2285   0.0968   0.00    0.0
2023/01/03 00:59:00.000  -2994427.3228   4951312.6123   2674498.8037        -0.0400         0.0000         0.0000        73.2762     2.5789     5.5244   6   6   0.1420   0.3018   0.1724   0.1161   0.2265   0.0964   0.00    0.0
2023/01/03 00:59:30.000  -2994427.3194   4951312.5750   2674498.7841        -0.0525         0.0000         0.0000        73.1536     2.5800     5.5331   6   6   0.1414   0.2992   0.1710   0.1155   0.2246   0.0960   0.00    0.0
2023/01/03 01:00:00.000  -2994427.3152   4951312.5006   2674498.7437         0.0000         0.0000         0.0000        72.9117     2.5794     5.5420   6   6   0.1408   0.2947   0.1687   0.1149   0.2214   0.0956   0.00    0.0
2023/01/03 01:00:30.000  -2994427.3194   4951312.4575   2674498.7186        -0.0285         0.0000         0.0000        72.7803     2.5771     3.0413   6   6   0.1404   0.2929   0.1677   0.1146   0.2201   0.0954   0.00    0.0
2023/01/03 01:01:00.000  -2994427.3162   4951312.4182   2674498.6976        -0.0334         0.0000         0.0000        72.6488     2.5785     3.0388   6   6   0.1399   0.2904   0.1664   0.1140   0.2183   0.0950   0.00    0.0
2023/01/03 01:01:30.000  -2994427.3228   4951312.3756   2674498.6732        -0.0348         0.0000         0.0000        72.5279     2.5765     3.0364   6   6   0.1394   0.2886   0.1654   0.1137   0.2169   0.0949   0.00    0.0
2023/01/03 01:02:00.000  -2994427.3210   4951312.3382   2674498.6528        -0.0214         0.0000         0.0000        72.4033     2.5777     3.0341   6   6   0.1389   0.2861   0.1641   0.1131   0.2152   0.0944   0.00    0.0
2023/01/03 01:02:30.000  -2994427.3206   4951312.2842   2674498.6230         0.0000         0.0000         0.0000        72.2296     2.5779     3.0318   6   6   0.1384   0.2822   0.1620   0.1123   0.2123   0.0939   0.00    0.0
2023/01/03 01:03:00.000  -2994427.3190   4951312.2452   2674498.6021         0.0000         0.0000         0.0000        72.0983     2.5789     3.0297   6   6   0.1379   0.2788   0.1601   0.1115   0.2098   0.0934   0.00    0.0
2023/01/03 01:03:30.000  -2994427.3184   4951312.2115   2674498.5842        -0.0150         0.0000         0.0000        71.9801     2.5803     3.0277   6   6   0.1374   0.2765   0.1589   0.1108   0.2081   0.0929   0.00    0.0
2023/01/03 01:04:00.000  -2994427.3170   4951312.1823   2674498.5684        -0.0257         0.0000         0.0000        71.8850     2.5816     3.0257   6   6   0.1369   0.2743   0.1577   0.1101   0.2065   0.0925   0.00    0.0
2023/01/03 01:04:30.000  -2994427.3148   4951312.1510   2674498.5516        -0.0177         0.0000         0.0000        71.7728     2.5829     3.0238   6   6   0.1364   0.2721   0.1565   0.1094   0.2049   0.0920   0.00    0.0
2023/01/03 01:05:00.000  -2994427.3136   4951312.1154   2674498.5330        -0.0187         0.0000         0.0000        71.6615     2.5841     3.0221   6   6   0.1359   0.2699   0.1554   0.1087   0.2033   0.0916   0.00    0.0
2023/01/03 01:05:30.000  -2994427.3131   4951312.0872   2674498.5180        -0.0309         0.0000         0.0000        71.5639     2.5855     3.0204   6   6   0.1355   0.2677   0.1542   0.1080   0.2018   0.0911   0.00    0.0
2023/01/03 01:06:00.000  -2994427.3130   4951312.0517   2674498.4987        -0.0215         0.0000         0.0000        71.4463     2.5868     3.0188   6   6   0.1350   0.2656   0.1531   0.1073   0.2002   0.0906   0.00    0.0
2023/01/03 01:06:30.000  -2994427.3120   4951312.0216   2674498.4823        -0.0292         0.0000         0.0000        71.3523     2.5880     3.0173   6   6   0.1346   0.2635   0.1520   0.1065   0.1987   0.0901   0.00    0.0
2023/01/03 01:07:00.000  -2994427.3138   4951311.9723   2674498.4557         0.0000         0.0000         0.0000        71.1991     2.5879     3.0159   6   6   0.1341   0.2603   0.1502   0.1055   0.1964   0.0894   0.00    0.0
2023/01/03 01:07:30.000  -2994427.3132   4951311.9435   2674498.4404        -0.0245         0.0000         0.0000        71.1047     2.5891     3.0146   6   6   0.1337   0.2583   0.1492   0.1047   0.1949   0.0889   0.00    0.0
2023/01/03 01:08:00.000  -2994427.3140   4951311.9120   2674498.4237        -0.0478         0.0000         0.0000        71.0010     2.5902     3.0133   6   6   0.1332   0.2564   0.1481   0.1040   0.1934   0.0884   0.00    0.0
2023/01/03 01:08:30.000  -2994427.3157   4951311.8798   2674498.4067        -0.0317         0.0000         0.0000        70.9087     2.5915     3.0122   6   6   0.1328   0.2544   0.1470   0.1032   0.1920   0.0879   0.00    0.0
2023/01/03 01:09:00.000  -2994427.3147   4951311.8519   2674498.3922        -0.0279         0.0000         0.0000        70.8212     2.5927     3.0112   6   6   0.1324   0.2525   0.1460   0.1024   0.1906   0.0874   0.00    0.0
2023/01/03 01:09:30.000  -2994427.3164   4951311.8213   2674498.3754        -0.0335         0.0000         0.0000        70.7315     2.5939     3.0102   6   6   0.1320   0.2506   0.1450   0.1016   0.1892   0.0869   0.00    0.0
2023/01/03 01:10:00.000  -2994427.3172   4951311.7910   2674498.3595        -0.0234         0.0000         0.0000        70.6356     2.5949     3.0093   6   6   0.1316   0.2487   0.1440   0.1008   0.1878   0.0863   0.00    0.0
2023/01/03 01:10:30.000  -2994427.3185   4951311.7622   2674498.3440        -0.0419         0.0000         0.0000        70.5408     2.5960     3.0086   6   6   0.1312   0.2468   0.1430   0.0999   0.1865   0.0858   0.00    0.0
2023/01/03 01:11:00.000  -2994427.3196   4951311.7285   2674498.3260        -0.0573         0.0000         0.0000        70.4392     2.5968     3.0079   6   6   0.1308   0.2450   0.1420   0.0991   0.1851   0.0852   0.00    0.0
2023/01/03 01:11:30.000  -2994427.3221   4951311.6945   2674498.3075        -0.0486         0.0000         0.0000        70.3351     2.5978     3.0073   6   6   0.1304   0.2432   0.1410   0.0983   0.1838   0.0847   0.00    0.0
2023/01/03 01:12:00.000  -2994427.3225   4951311.6673   2674498.2929        -0.0647         0.0000         0.0000        70.2553     2.5987     3.0068   6   6   0.1300   0.2414   0.1400   0.0974   0.1825   0.0841   0.00    0.0
2023/01/03 01:12:30.000  -2994427.3244   4951311.6362   2674498.2760        -0.0669         0.0000         0.0000        70.1611     2.5998     3.0064   6   6   0.1296   0.2396   0.1391   0.0966   0.1812   0.0836   0.00    0.0
2023/01/03 01:13:00.000  -2994427.3318   4951311.5768   2674498.2432         0.0000         0.0000         0.0000        69.9843     2.5982     3.0060   6   6   0.1292   0.2367   0.1375   0.0952   0.1791   0.0827   0.00    0.0
2023/01/03 01:13:30.000  -2994427.3332   4951311.5509   2674498.2294        -0.0535         0.0000         0.0000        69.9044     2.5991     3.0058   6   6   0.1288   0.2350   0.1366   0.0943   0.1778   0.0821   0.00    0.0
2023/01/03 01:14:00.000  -2994427.3357   4951311.5216   2674498.2135        -0.0594         0.0000         0.0000        69.8160     2.6002     3.0056   6   6   0.1285   0.2334   0.1357   0.0934   0.1766   0.0816   0.00    0.0
2023/01/03 01:14:30.000  -2994427.3374   4951311.4966   2674498.2000        -0.0569         0.0000         0.0000        69.7345     2.6014     3.0056   6   6   0.1281   0.2317   0.1348   0.0926   0.1754   0.0810   0.00    0.0
2023/01/03 01:15:00.000  -2994427.3403   4951311.4648   2674498.1825        -0.0688         0.0000         0.0000        69.6387     2.6022     3.0056   6   6   0.1277   0.2301   0.1339   0.0917   0.1742   0.0804   0.00    0.0
2023/01/03 01:15:30.000  -2994427.3424   4951311.4374   2674498.1677        -0.0545         0.0000         0.0000        69.5496     2.6034     3.0057   6   6   0.1274   0.2285   0.1330   0.0908   0.1730   0.0799   0.00    0.0
2023/01/03 01:16:00.000  -2994427.3443   4951311.4134   2674498.1549        -0.0681         0.0000         0.0000        69.4747     2.6043     3.0059   6   6   0.1270   0.2269   0.1322   0.0898   0.1719   0.0793   0.00    0.0
2023/01/03 01:16:30.000  -2994427.3459   4951311.3854   2674498.1395        -0.0515         0.0000         0.0000        69.3838     2.6052     3.0062   6   6   0.1267   0.2254   0.1313   0.0889   0.1707   0.0787   0.00    0.0
2023/01/03 01:17:00.000  -2994427.3483   4951311.3606   2674498.1258        -0.0525         0.0000         0.0000        69.3100     2.6061     3.0066   6   6   0.1263   0.2238   0.1305   0.0880   0.1696   0.0781   0.00    0.0
2023/01/03 01:17:30.000  -2994427.3520   4951311.3327   2674498.1108        -0.0639         0.0000         0.0000        69.2315     2.6072     3.0071   6   6   0.1260   0.2223   0.1297   0.0871   0.1685   0.0775   0.00    0.0
2023/01/03 01:18:00.000  -2994427.3550   4951311.3084   2674498.0980        -0.0496         0.0000         0.0000        69.1553     2.6083     3.0076   6   6   0.1256   0.2208   0.1288   0.0861   0.1674   0.0769   0.00    0.0
2023/01/03 01:18:30.000  -2994427.3582   4951311.2834   2674498.0846        -0.0607         0.0000         0.0000        69.0765     2.6091     3.0083   6   6   0.1253   0.2193   0.1280   0.0852   0.1663   0.0763   0.00    0.0
2023/01/03 01:19:00.000  -2994427.3598   4951311.2564   2674498.0700        -0.0716         0.0000         0.0000        68.9932     2.6096     3.0090   6   6   0.1249   0.2179   0.1272   0.0842   0.1652   0.0757   0.00    0.0
2023/01/03 01:19:30.000  -2994427.3645   4951311.2240   2674498.0525        -0.0544         0.0000         0.0000        68.8906     2.6103     3.0098   6   6   0.1246   0.2164   0.1264   0.0832   0.1641   0.0751   0.00    0.0
2023/01/03 01:20:00.000  -2994427.3677   4951311.1980   2674498.0382        -0.0641         0.0000         0.0000        68.8162     2.6110     3.0107   6   6   0.1243   0.2150   0.1257   0.0822   0.1631   0.0745   0.00    0.0
2023/01/03 01:20:30.000  -2994427.3722   4951311.1684   2674498.0221        -0.0638         0.0000         0.0000        68.7288     2.6117     3.0117   6   6   0.1239   0.2136   0.1249   0.0813   0.1620   0.0738   0.00    0.0
2023/01/03 01:21:00.000  -2994427.3751   4951311.1425   2674498.0077        -0.0525         0.0000         0.0000        68.6500     2.6123     3.0128   6   6   0.1236   0.2122   0.1241   0.0803   0.1610   0.0732   0.00    0.0
2023/01/03 01:21:30.000  -2994427.3792   4951311.1191   2674497.9947        -0.0737         0.0000         0.0000        68.5816     2.6130     3.0140   6   6   0.1233   0.2108   0.1234   0.0792   0.1600   0.0726   0.00    0.0
2023/01/03 01:22:00.000  -2994427.3827   4951311.0930   2674497.9803        -0.0758         0.0000         0.0000        68.5063     2.6138     3.0152   6   6   0.1230   0.2095   0.1226   0.0782   0.1590   0.0720   0.00    0.0
2023/01/03 01:22:30.000  -2994427.3955   4951311.0375   2674497.9487         0.0000         0.0000         0.0000        68.3441     2.6102     3.0166   6   6   0.1225   0.2070   0.1212   0.0763   0.1571   0.0708   0.00    0.0
2023/01/03 01:23:00.000  -2994427.3991   4951311.0141   2674497.9357        -0.0633         0.0000         0.0000        68.2738     2.6109     3.0180   6   6   0.1222   0.2057   0.1205   0.0753   0.1562   0.0702   0.00    0.0
2023/01/03 01:23:30.000  -2994427.4031   4951310.9910   2674497.9230        -0.0567         0.0000         0.0000        68.2077     2.6117     3.0196   6   6   0.1218   0.2044   0.1198   0.0743   0.1553   0.0695   0.00    0.0
2023/01/03 01:24:00.000  -2994427.4063   4951310.9689   2674497.9108        -0.0626         0.0000         0.0000        68.1410     2.6125     3.0212   6   6   0.1215   0.2032   0.1192   0.0732   0.1543   0.0689   0.00    0.0
2023/01/03 01:24:30.000  -2994427.4111   4951310.9431   2674497.8967        -0.0682         0.0000         0.0000        68.0591     2.6134     3.0229   6   6   0.1212   0.2020   0.1185   0.0722   0.1534   0.0683   0.00    0.0
2023/01/03 01:25:00.000  -2994427.4224   4951310.8956   2674497.8697         0.0000         0.0000         0.0000        67.9207     2.6104     3.0247   6   6   0.1208   0.2000   0.1174   0.0704   0.1519   0.0672   0.00    0.0
2023/01/03 01:25:30.000  -2994427.4265   4951310.8690   2674497.8549        -0.0435         0.0000         0.0000        67.8412     2.6109     3.0265   6   6   0.1205   0.1988   0.1167   0.0694   0.1510   0.0665   0.00    0.0
2023/01/03 01:26:00.000  -2994427.4289   4951310.8481   2674497.8435        -0.0577         0.0000         0.0000        67.7759     2.6115     3.0285   6   6   0.1202   0.1976   0.1161   0.0683   0.1502   0.0659   0.00    0.0
2023/01/03 01:26:30.000  -2994427.4322   4951310.8281   2674497.8325        -0.0613         0.0000         0.0000        67.7160     2.6123     3.0306   6   6   0.1199   0.1965   0.1154   0.0672   0.1493   0.0653   0.00    0.0
2023/01/03 01:27:00.000  -2994427.4447   4951310.7812   2674497.8058         0.0000         0.0000         0.0000        67.5812     2.6093     3.0327   6   6   0.1194   0.1948   0.1145   0.0655   0.1481   0.0643   0.00    0.0
2023/01/03 01:27:30.000  -2994427.4529   4951310.7479   2674497.7873         0.0000         0.0000         0.0000        67.4851     2.6081     3.0349   6   6   0.1191   0.1933   0.1136   0.0640   0.1469   0.0634   0.00    0.0
2023/01/03 01:28:00.000  -2994427.4566   4951310.7300   2674497.7775        -0.0443         0.0000         0.0000        67.4301     2.6090     3.0373   6   6   0.1188   0.1922   0.1130   0.0629   0.1461   0.0627   0.00    0.0
2023/01/03 01:28:30.000  -2994427.4661   4951310.6965   2674497.7584         0.0000         0.0000         0.0000        67.3355     2.6076     3.0397   6   6   0.1184   0.1909   0.1122   0.0614   0.1451   0.0619   0.00    0.0
2023/01/03 01:29:00.000  -2994427.4705   4951310.6751   2674497.7467        -0.0389         0.0000         0.0000        67.2745     2.6083     3.0422   6   6   0.1181   0.1898   0.1117   0.0602   0.1443   0.0612   0.00    0.0
2023/01/03 01:29:30.000  -2994427.4743   4951310.6580   2674497.7375        -0.0438         0.0000         0.0000        67.2250     2.6093     3.0448   6   6   0.1178   0.1888   0.1111   0.0591   0.1436   0.0606   0.00    0.0
2023/01/03 01:30:00.000  -2994427.4786   4951310.6402   2674497.7276        -0.0511         0.0000         0.0000        67.1702     2.6101     3.0474   6   6   0.1175   0.1878   0.1105   0.0579   0.1428   0.0599   0.00    0.0
2023/01/03 01:30:30.000  -2994427.4838   4951310.6199   2674497.7163        -0.0303         0.0000         0.0000        67.1108     2.6109     3.0502   6   6   0.1172   0.1868   0.1100   0.0567   0.1421   0.0593   0.00    0.0
2023/01/03 01:31:00.000  -2994427.4898   4951310.5985   2674497.7045        -0.0365         0.0000         0.0000        67.0507     2.6118     3.0530   6   6   0.1170   0.1858   0.1094   0.0555   0.1413   0.0586   0.00    0.0
2023/01/03 01:31:30.000  -2994427.4941   4951310.5806   2674497.6945        -0.0373         0.0000         0.0000        66.9991     2.6126     3.0560   6   6   0.1167   0.1849   0.1089   0.0543   0.1406   0.0579   0.00    0.0
2023/01/03 01:32:00.000  -2994427.4995   4951310.5590   2674497.6826        -0.0192         0.0000         0.0000        66.9409     2.6130     3.0590   6   6   0.1164   0.1839   0.1084   0.0531   0.1399   0.0572   0.00    0.0
2023/01/03 01:32:30.000  -2994427.5049   4951310.5374   2674497.6706        -0.0326         0.0000         0.0000        66.8844     2.6133     3.0621   6   6   0.1161   0.1830   0.1078   0.0518   0.1392   0.0566   0.00    0.0
2023/01/03 01:33:00.000  -2994427.5127   4951310.5115   2674497.6562        -0.0322         0.0000         0.0000        66.8137     2.6141     3.0653   6   6   0.1158   0.1821   0.1073   0.0505   0.1385   0.0559   0.00    0.0
2023/01/03 01:33:30.000  -2994427.5167   4951310.4929   2674497.6461        -0.0247         0.0000         0.0000        66.7620     2.6146     3.0687   6   6   0.1155   0.1811   0.1068   0.0492   0.1378   0.0552   0.00    0.0
2023/01/03 01:34:00.000  -2994427.5250   4951310.4807   2674497.6391        -0.0506         0.0000         0.0000        66.7377     2.6096     3.0720   6   6   0.1152   0.1804   0.1063   0.0480   0.1372   0.0546   0.00    0.0
2023/01/03 01:34:30.000  -2994427.5320   4951310.4681   2674497.6321        -0.0527         0.0000         0.0000        66.7099     2.6054     3.0755   6   6   0.1149   0.1796   0.1059   0.0469   0.1367   0.0540   0.00    0.0
2023/01/03 01:35:00.000  -2994427.5427   4951310.4373   2674497.6145         0.0000         0.0000         0.0000        66.6278     2.6037     3.0791   6   6   0.1145   0.1784   0.1052   0.0448   0.1357   0.0529   0.00    0.0
2023/01/03 01:35:30.000  -2994427.5504   4951310.4142   2674497.6012         0.0000         0.0000         0.0000        66.5688     2.6029     3.0828   6   6   0.1141   0.1772   0.1045   0.0428   0.1348   0.0519   0.00    0.0
2023/01/03 01:36:00.000  -2994427.5591   4951310.4054   2674497.5956        -0.0300         0.0000         0.0000        66.5709     2.5953     3.0865   6   6   0.1137   0.1764   0.1041   0.0419   0.1342   0.0515   0.00    0.0
2023/01/03 01:36:30.000  -2994427.5651   4951310.3989   2674497.5917        -0.0319         0.0000         0.0000        66.5657     2.5896     3.0903   6   6   0.1133   0.1756   0.1036   0.0411   0.1336   0.0510   0.00    0.0
2023/01/03 01:37:00.000  -2994427.5679   4951310.3924   2674497.5881        -0.0421         0.0000         0.0000        66.5547     2.5872     3.0943   6   5   0.1130   0.1747   0.1031   0.0402   0.1330   0.0506   0.00    0.0
2023/01/03 01:37:30.000  -2994427.5782   4951310.3824   2674497.5820         0.0000         0.0000         0.0000        66.5482     2.5793     3.0983   6   6   0.1124   0.1734   0.1024   0.0388   0.1320   0.0499   0.00    0.0
2023/01/03 01:38:00.000  -2994427.5854   4951310.3777   2674497.5790        -0.0367         0.0000         0.0000        66.5523     2.5729     3.1024   6   6   0.1120   0.1725   0.1019   0.0381   0.1313   0.0495   0.00    0.0
2023/01/03 01:38:30.000  -2994427.5940   4951310.3758   2674497.5775        -0.0297         0.0000         0.0000        66.5782     2.5640     3.1066   6   6   0.1115   0.1716   0.1014   0.0376   0.1306   0.0492   0.00    0.0
2023/01/03 01:39:00.000  -2994427.6023   4951310.3726   2674497.5754        -0.0357         0.0000         0.0000        66.5939     2.5559     3.1109   6   6   0.1109   0.1706   0.1009   0.0373   0.1299   0.0490   0.00    0.0
2023/01/03 01:39:30.000  -2994427.6097   4951310.3658   2674497.5710        -0.0393         0.0000         0.0000        66.5910     2.5494     3.1153   6   6   0.1103   0.1695   0.1004   0.0372   0.1292   0.0488   0.00    0.0
2023/01/03 01:40:00.000  -2994427.6216   4951310.3518   2674497.5624         0.0000         0.0000         0.0000        66.5738     2.5414     3.1198   6   6   0.1096   0.1680   0.0995   0.0366   0.1280   0.0484   0.00    0.0
2023/01/03 01:40:30.000  -2994427.6264   4951310.3484   2674497.5603        -0.0236         0.0000         0.0000        66.5792     2.5360     3.1243   6   6   0.1090   0.1669   0.0989   0.0369   0.1272   0.0484   0.00    0.0
2023/01/03 01:41:00.000  -2994427.6358   4951310.3456   2674497.5581        -0.0362         0.0000         0.0000        66.6017     2.5268     3.1290   6   6   0.1083   0.1656   0.0983   0.0373   0.1263   0.0485   0.00    0.0
2023/01/03 01:41:30.000  -2994427.6486   4951310.3415   2674497.5546        -0.0551         0.0000         0.0000        66.6227     2.5176     2.7009   6   7   0.1075   0.1646   0.0978   0.0383   0.1256   0.0488   0.00    0.0
2023/01/03 01:42:00.000  -2994427.6578   4951310.3377   2674497.5519        -0.0413         0.0000         0.0000        66.6380     2.5092     2.7028   6   6   0.1067   0.1633   0.0971   0.0390   0.1247   0.0490   0.00    0.0
2023/01/03 01:42:30.000  -2994427.6669   4951310.3271   2674497.5454        -0.0520         0.0000         0.0000        66.6274     2.5053     2.7047   6   6   0.1059   0.1621   0.0966   0.0404   0.1238   0.0495   0.00    0.0
2023/01/03 01:43:00.000  -2994427.6799   4951310.3197   2674497.5400        -0.0544         0.0000         0.0000        66.6423     2.4963     2.7067   6   7   0.1050   0.1608   0.0960   0.0418   0.1230   0.0500   0.00    0.0
2023/01/03 01:43:30.000  -2994427.6886   4951310.3111   2674497.5347        -0.0504         0.0000         0.0000        66.6318     2.4902     2.7088   6   6   0.1041   0.1593   0.0952   0.0428   0.1219   0.0503   0.00    0.0
2023/01/03 01:44:00.000  -2994427.6976   4951310.3038   2674497.5301        -0.0560         0.0000         0.0000        66.6246     2.4840     2.7110   6   6   0.1032   0.1577   0.0944   0.0439   0.1208   0.0507   0.00    0.0
2023/01/03 01:44:30.000  -2994427.7108   4951310.3010   2674497.5274        -0.0716         0.0000         0.0000        66.6591     2.4738     2.7132   6   7   0.1021   0.1561   0.0937   0.0458   0.1197   0.0515   0.00    0.0
2023/01/03 01:45:00.000  -2994427.7209   4951310.2951   2674497.5237        -0.0775         0.0000         0.0000        66.6717     2.4651     2.7155   6   7   0.1010   0.1542   0.0928   0.0475   0.1183   0.0521   0.00    0.0
2023/01/03 01:45:30.000  -2994427.7342   4951310.2900   2674497.5199        -0.0781         0.0000         0.0000        66.7030     2.4557     2.7178   6   7   0.0999   0.1526   0.0920   0.0492   0.1172   0.0529   0.00    0.0
2023/01/03 01:46:00.000  -2994427.7481   4951310.2609   2674497.5024         0.0000         0.0000         0.0000        66.6106     2.4523     2.7203   6   6   0.0989   0.1503   0.0908   0.0497   0.1156   0.0529   0.00    0.0
2023/01/03 01:46:30.000  -2994427.7551   4951310.2560   2674497.4996        -0.0757         0.0000         0.0000        66.6135     2.4469     2.7227   6   7   0.0978   0.1483   0.0899   0.0513   0.1142   0.0536   0.00    0.0
2023/01/03 01:47:00.000  -2994427.7627   4951310.2503   2674497.4960        -0.0643         0.0000         0.0000        66.6129     2.4415     2.7253   6   7   0.0966   0.1462   0.0889   0.0529   0.1128   0.0543   0.00    0.0
2023/01/03 01:47:30.000  -2994427.7770   4951310.2184   2674497.4769         0.0000         0.0000         0.0000        66.5082     2.4408     2.7279   6   7   0.0955   0.1437   0.0876   0.0539   0.1110   0.0547   0.00    0.0
2023/01/03 01:48:00.000  -2994427.7839   4951310.2104   2674497.4720        -0.0633         0.0000         0.0000        66.4942     2.4365     2.7307   6   7   0.0944   0.1418   0.0867   0.0553   0.1096   0.0553   0.00    0.0
2023/01/03 01:48:30.000  -2994427.7893   4951310.2052   2674497.4690        -0.0533         0.0000         0.0000        66.4911     2.4321     2.7334   6   6   0.0935   0.1402   0.0860   0.0559   0.1085   0.0556   0.00    0.0
2023/01/03 01:49:00.000  -2994427.8017   4951310.2002   2674497.4651        -0.0797         0.0000         0.0000        66.5108     2.4238     2.7363   6   7   0.0924   0.1385   0.0852   0.0573   0.1074   0.0562   0.00    0.0
2023/01/03 01:49:30.000  -2994427.8072   4951310.1926   2674497.4607        -0.0742         0.0000         0.0000        66.4967     2.4211     2.7392   6   7   0.0913   0.1366   0.0842   0.0584   0.1060   0.0567   0.00    0.0
2023/01/03 01:50:00.000  -2994427.8139   4951310.1819   2674497.4544        -0.0696         0.0000         0.0000        66.4716     2.4182     2.7422   6   6   0.0905   0.1351   0.0835   0.0589   0.1050   0.0569   0.00    0.0
2023/01/03 01:50:30.000  -2994427.8210   4951310.1747   2674497.4500        -0.0757         0.0000         0.0000        66.4647     2.4137     2.7452   6   6   0.0897   0.1337   0.0828   0.0593   0.1040   0.0570   0.00    0.0
2023/01/03 01:51:00.000  -2994427.8280   4951310.1647   2674497.4440        -0.0710         0.0000         0.0000        66.4442     2.4107     2.7484   6   7   0.0886   0.1316   0.0818   0.0604   0.1025   0.0575   0.00    0.0
2023/01/03 01:51:30.000  -2994427.8369   4951310.1568   2674497.4392        -0.0703         0.0000         0.0000        66.4427     2.4046     2.7516   6   7   0.0876   0.1297   0.0809   0.0613   0.1012   0.0580   0.00    0.0
2023/01/03 01:52:00.000  -2994427.8453   4951310.1484   2674497.4340        -0.0860         0.0000         0.0000        66.4298     2.3999     2.7548   6   6   0.0869   0.1284   0.0802   0.0615   0.1002   0.0580   0.00    0.0
2023/01/03 01:52:30.000  -2994427.8619   4951310.1209   2674497.4168         0.0000         0.0000         0.0000        66.3536     2.3961     2.7582   6   7   0.0859   0.1260   0.0790   0.0620   0.0985   0.0582   0.00    0.0
2023/01/03 01:53:00.000  -2994427.8717   4951310.1119   2674497.4110        -0.0856         0.0000         0.0000        66.3432     2.3922     2.7616   6   7   0.0850   0.1245   0.0783   0.0628   0.0975   0.0585   0.00    0.0
2023/01/03 01:53:30.000  -2994427.8814   4951310.1012   2674497.4042        -0.0835         0.0000         0.0000        66.3227     2.3893     2.7651   6   7   0.0842   0.1231   0.0777   0.0634   0.0966   0.0588   0.00    0.0
2023/01/03 01:54:00.000  -2994427.8854   4951310.0862   2674497.3957        -0.0631         0.0000         0.0000        66.2617     2.3915     2.7686   6   6   0.0836   0.1220   0.0771   0.0634   0.0957   0.0587   0.00    0.0
2023/01/03 01:54:30.000  -2994427.8936   4951310.0787   2674497.3908        -0.0908         0.0000         0.0000        66.2455     2.3891     2.7723   6   7   0.0828   0.1206   0.0764   0.0640   0.0948   0.0590   0.00    0.0
2023/01/03 01:55:00.000  -2994427.8995   4951310.0677   2674497.3843        -0.0702         0.0000         0.0000        66.2068     2.3883     2.7760   6   7   0.0820   0.1190   0.0756   0.0643   0.0937   0.0591   0.00    0.0
2023/01/03 01:55:30.000  -2994427.9067   4951310.0578   2674497.3781        -0.0860         0.0000         0.0000        66.1793     2.3873     2.7797   6   7   0.0813   0.1178   0.0751   0.0647   0.0928   0.0593   0.00    0.0
2023/01/03 01:56:00.000  -2994427.9132   4951310.0490   2674497.3727        -0.0967         0.0000         0.0000        66.1591     2.3849     2.7836   6   6   0.0808   0.1167   0.0745   0.0645   0.0920   0.0591   0.00    0.0
2023/01/03 01:56:30.000  -2994427.9201   4951310.0392   2674497.3665        -0.0817         0.0000         0.0000        66.1305     2.3844     2.7875   6   7   0.0801   0.1155   0.0739   0.0649   0.0912   0.0592   0.00    0.0
2023/01/03 01:57:00.000  -2994427.9260   4951310.0285   2674497.3598        -0.0914         0.0000         0.0000        66.0903     2.3855     2.7915   6   7   0.0795   0.1143   0.0734   0.0651   0.0904   0.0593   0.00    0.0
2023/01/03 01:57:30.000  -2994427.9322   4951310.0182   2674497.3533        -0.1015         0.0000         0.0000        66.0567     2.3861     2.7956   6   7   0.0789   0.1132   0.0728   0.0653   0.0896   0.0594   0.00    0.0
2023/01/03 01:58:00.000  -2994427.9387   4951310.0105   2674497.3483        -0.0833         0.0000         0.0000        66.0310     2.3854     2.7997   6   7   0.0783   0.1122   0.0723   0.0655   0.0889   0.0594   0.00    0.0
2023/01/03 01:58:30.000  -2994427.9458   4951309.9996   2674497.3414        -0.0994         0.0000         0.0000        65.9936     2.3857     2.8039   6   7   0.0777   0.1111   0.0718   0.0655   0.0881   0.0594   0.00    0.0
2023/01/03 01:59:00.000  -2994427.9513   4951309.9893   2674497.3350        -0.0947         0.0000         0.0000        65.9539     2.3869     2.8082   6   7   0.0772   0.1101   0.0713   0.0656   0.0874   0.0594   0.00    0.0
2023/01/03 01:59:30.000  -2994427.9549   4951309.9825   2674497.3309        -0.0947         0.0000         0.0000        65.9243     2.3869     2.8126   6   6   0.0767   0.1094   0.0709   0.0654   0.0869   0.0592   0.00    0.0
2023/01/03 02:00:00.000  -2994427.9705   4951309.9475   2674497.3094         0.0000         0.0000         0.0000        65.7951     2.3872     2.8170   6   7   0.0760   0.1076   0.0699   0.0648   0.0855   0.0588   0.00    0.0
2023/01/03 02:00:30.000  -2994427.9762   4951309.9371   2674497.3030        -0.0687         0.0000         0.0000        65.7564     2.3880     2.8215   6   7   0.0755   0.1067   0.0695   0.0648   0.0849   0.0587   0.00    0.0
2023/01/03 02:01:00.000  -2994427.9841   4951309.9261   2674497.2960        -0.0696         0.0000         0.0000        65.7217     2.3873     2.8261   6   7   0.0750   0.1058   0.0690   0.0648   0.0842   0.0586   0.00    0.0
2023/01/03 02:01:30.000  -2994427.9928   4951309.9174   2674497.2901        -0.0810         0.0000         0.0000        65.7012     2.3851     2.8307   6   7   0.0745   0.1049   0.0685   0.0647   0.0836   0.0586   0.00    0.0
2023/01/03 02:02:00.000  -2994427.9965   4951309.9120   2674497.2869        -0.0736         0.0000         0.0000        65.6821     2.3843     2.8355   6   7   0.0740   0.1040   0.0681   0.0646   0.0829   0.0584   0.00    0.0
2023/01/03 02:02:30.000  -2994427.9997   4951309.9068   2674497.2840        -0.0761         0.0000         0.0000        65.6662     2.3835     2.8403   6   5   0.0736   0.1033   0.0677   0.0643   0.0825   0.0582   0.00    0.0
2023/01/03 02:03:00.000  -2994428.0028   4951309.9001   2674497.2801        -0.0820         0.0000         0.0000        65.6411     2.3837     2.8451   6   7   0.0732   0.1025   0.0673   0.0642   0.0818   0.0580   0.00    0.0
2023/01/03 02:03:30.000  -2994428.0065   4951309.8972   2674497.2782        -0.0750         0.0000         0.0000        65.6352     2.3817     2.8501   6   6   0.0727   0.1018   0.0669   0.0639   0.0813   0.0578   0.00    0.0
2023/01/03 02:04:00.000  -2994428.0089   4951309.8944   2674497.2765        -0.0918         0.0000         0.0000        65.6231     2.3810     2.8551   6   7   0.0723   0.1009   0.0664   0.0637   0.0807   0.0576   0.00    0.0
2023/01/03 02:04:30.000  -2994428.0123   4951309.8913   2674497.2746        -0.0852         0.0000         0.0000        65.6115     2.3794     2.8602   6   7   0.0718   0.1001   0.0660   0.0635   0.0800   0.0575   0.00    0.0
2023/01/03 02:05:00.000  -2994428.0172   4951309.8848   2674497.2707        -0.0780         0.0000         0.0000        65.5872     2.3788     2.8654   6   6   0.0714   0.0995   0.0656   0.0632   0.0796   0.0572   0.00    0.0
2023/01/03 02:05:30.000  -2994428.0330   4951309.8577   2674497.2534         0.0000         0.0000         0.0000        65.4974     2.3777     2.8707   6   7   0.0708   0.0980   0.0649   0.0626   0.0785   0.0568   0.00    0.0
2023/01/03 02:06:00.000  -2994428.0375   4951309.8537   2674497.2508        -0.0757         0.0000         0.0000        65.4843     2.3762     2.8760   6   7   0.0704   0.0972   0.0644   0.0624   0.0779   0.0566   0.00    0.0
2023/01/03 02:06:30.000  -2994428.0401   4951309.8503   2674497.2488        -0.0747         0.0000         0.0000        65.4702     2.3758     2.8814   6   6   0.0700   0.0966   0.0641   0.0621   0.0775   0.0563   0.00    0.0
2023/01/03 02:07:00.000  -2994428.0439   4951309.8431   2674497.2446        -0.0871         0.0000         0.0000        65.4417     2.3759     2.8869   6   7   0.0696   0.0958   0.0637   0.0619   0.0769   0.0562   0.00    0.0
2023/01/03 02:07:30.000  -2994428.0479   4951309.8359   2674497.2403        -0.0752         0.0000         0.0000        65.4148     2.3760     2.8925   6   7   0.0692   0.0950   0.0632   0.0617   0.0763   0.0560   0.00    0.0
2023/01/03 02:08:00.000  -2994428.0631   4951309.8106   2674497.2241         0.0000         0.0000         0.0000        65.3264     2.3752     2.8981   6   7   0.0687   0.0938   0.0626   0.0611   0.0754   0.0556   0.00    0.0
2023/01/03 02:08:30.000  -2994428.0678   4951309.8064   2674497.2214        -0.0820         0.0000         0.0000        65.3159     2.3734     2.9038   6   7   0.0683   0.0931   0.0622   0.0609   0.0748   0.0554   0.00    0.0
2023/01/03 02:09:00.000  -2994428.0728   4951309.8004   2674497.2176        -0.0726         0.0000         0.0000        65.2957     2.3727     2.9096   6   6   0.0679   0.0926   0.0619   0.0605   0.0744   0.0551   0.00    0.0
2023/01/03 02:09:30.000  -2994428.0773   4951309.7946   2674497.2139        -0.0820         0.0000         0.0000        65.2740     2.3721     2.9155   6   7   0.0675   0.0918   0.0615   0.0603   0.0739   0.0549   0.00    0.0
2023/01/03 02:10:00.000  -2994428.0839   4951309.7871   2674497.2090        -0.0734         0.0000         0.0000        65.2542     2.3716     2.9214   6   7   0.0671   0.0911   0.0610   0.0600   0.0733   0.0547   0.00    0.0
2023/01/03 02:10:30.000  -2994428.0885   4951309.7814   2674497.2054        -0.0636         0.0000         0.0000        65.2343     2.3713     2.9275   6   7   0.0667   0.0903   0.0607   0.0597   0.0728   0.0545   0.00    0.0
2023/01/03 02:11:00.000  -2994428.0916   4951309.7773   2674497.2029        -0.0783         0.0000         0.0000        65.2178     2.3713     2.9336   6   6   0.0664   0.0898   0.0603   0.0594   0.0724   0.0542   0.00    0.0
