% ref pos   : -2267820.0823  5009409.7389  3220955.7226
%  GPST                      x-ecef(m)      y-ecef(m)      z-ecef(m)   Q  ns   sdx(m)   sdy(m)   sdz(m)  sdxy(m)  sdyz(m)  sdzx(m) age(s)  ratio
2021/01/23 07:46:18.000  -2267402.5546   5008870.7971   3221965.8272         0.0000         0.0000         0.0000         0.0000     0.0000     0.0000   1  15   0.0032   0.0057   0.0036  -0.0031   0.0037  -0.0023   0.00    4.2
2021/01/23 07:46:19.000  -2267402.5532   5008870.7951   3221965.8281         0.0000         0.0000         0.0000         0.0000     0.0000     0.0000   1  15   0.0032   0.0057   0.0036  -0.0031   0.0037  -0.0023   0.00    4.3
2021/01/23 07:46:20.000  -2267402.5565   5008870.7998   3221965.8305         0.0000         0.0000         0.0000         0.0000     0.0000     0.0000   1  16   0.0031   0.0057   0.0035  -0.0030   0.0036  -0.0022   0.00    3.7
2021/01/23 07:46:21.000  -2267402.5558   5008870.7976   3221965.8285         0.0000         0.0000         0.0000         0.0000     0.0000     0.0000   1  16   0.0031   0.0057   0.0035  -0.0030   0.0036  -0.0022   0.00    4.6
2021/01/23 07:46:22.000  -2267402.5592   5008870.8025   3221965.8330         0.0000         0.0000         0.0000         0.0000     0.0000     0.0000   1  16   0.0031   0.0057   0.0035  -0.0030   0.0036  -0.0022   0.00    3.7
2021/01/23 07:46:23.000  -2267402.5568   5008870.7992   3221965.8302         0.0000         0.0000         0.0000         0.0000     0.0000     0.0000   1  16   0.0031   0.0057   0.0035  -0.0030   0.0036  -0.0022   0.00    3.9
2021/01/23 07:46:24.000  -2267402.5509   5008870.7952   3221965.8259         0.0000         0.0000         0.0000         0.0000     0.0000     0.0000   1  16   0.0030   0.0056   0.0035  -0.0028   0.0035  -0.0021   0.00    2.6
2021/01/23 07:46:25.000  -2267402.5582   5008870.8026   3221965.8312         0.0000         0.0000         0.0000         0.0000     0.0000     0.0000   1  16   0.0031   0.0057   0.0035  -0.0030   0.0036  -0.0022   0.00    3.8
2021/01/23 07:46:26.000  -2267402.5558   5008870.8017   3221965.8274         0.0000         0.0000         0.0000         0.0000     0.0000     0.0000   1  15   0.0032   0.0057   0.0036  -0.0031   0.0037  -0.0024   0.00    4.7
2021/01/23 07:46:27.000  -2267402.5534   5008870.7983   3221965.8307         0.0000         0.0000         0.0000         0.0000     0.0000     0.0000   1  15   0.0032   0.0057   0.0036  -0.0031   0.0037  -0.0024   0.00    3.8
2021/01/23 07:46:28.000  -2267402.5564   5008870.8001   3221965.8307         0.0000         0.0000         0.0000         0.0000     0.0000     0.0000   1  15   0.0032   0.0057   0.0036  -0.0031   0.0037  -0.0024   0.00    3.8
2021/01/23 07:46:29.000  -2267402.5561   5008870.7972   3221965.8292         0.0000         0.0000         0.0000         0.0000     0.0000     0.0000   1  17   0.0030   0.0055   0.0034  -0.0028   0.0034  -0.0020   0.00    2.9
2021/01/23 07:46:30.000  -2267402.5647   5008870.8066   3221965.8340         0.0000         0.0000         0.0000         0.0000     0.0000     0.0000   1  16   0.0031   0.0057   0.0035  -0.0030   0.0036  -0.0022   0.00    4.0
2021/01/23 07:46:31.000  -2267402.5629   5008870.8080   3221965.8318         0.0000         0.0000         0.0000         0.0000     0.0000     0.0000   1  16   0.0031   0.0057   0.0035  -0.0030   0.0036  -0.0022   0.00    4.6
2021/01/23 07:46:32.000  -2267402.5638   5008870.8080   3221965.8345         0.0000         0.0000         0.0000         0.0000     0.0000     0.0000   1  16   0.0031   0.0057   0.0035  -0.0030   0.0036  -0.0022   0.00    4.0
2021/01/23 07:46:33.000  -2267402.5615   5008870.8023   3221965.8308         0.0000         0.0000         0.0000         0.0000     0.0000     0.0000   1  17   0.0030   0.0055   0.0034  -0.0028   0.0034  -0.0020   0.00    2.5
2021/01/23 07:46:34.000  -2267402.5619   5008870.8038   3221965.8274         0.0000         0.0000         0.0000         0.0000     0.0000     0.0000   1  16   0.0031   0.0057   0.0035  -0.0030   0.0036  -0.0022   0.00    5.0
2021/01/23 07:46:35.000  -2267402.5621   5008870.7938   3221965.8242         0.0000         0.0000         0.0000         0.0000     0.0000     0.0000   1  16   0.0030   0.0056   0.0035  -0.0028   0.0035  -0.0021   0.00    2.5
2021/01/23 07:46:36.000  -2267402.5588   5008870.7950   3221965.8275         0.0000         0.0000         0.0000         0.0000     0.0000     0.0000   1  15   0.0032   0.0057   0.0036  -0.0031   0.0037  -0.0024   0.00    5.0
2021/01/23 07:46:37.000  -2267402.5636   5008870.7998   3221965.8299         0.0000         0.0000         0.0000         0.0000     0.0000     0.0000   1  15   0.0032   0.0057   0.0036  -0.0031   0.0037  -0.0024   0.00    4.2
2021/01/23 07:46:38.000  -2267402.5567   5008870.7914   3221965.8217         0.0000         0.0000         0.0000         0.0000     0.0000     0.0000   1  16   0.0030   0.0056   0.0035  -0.0028   0.0035  -0.0021   0.00    3.5
2021/01/23 07:46:39.000  -2267402.5621   5008870.8011   3221965.8283         0.0000         0.0000         0.0000         0.0000     0.0000     0.0000   1  15   0.0032   0.0057   0.0036  -0.0031   0.0037  -0.0024   0.00    4.3
2021/01/23 07:46:40.000  -2267402.5649   5008870.8004   3221965.8284         0.0000         0.0000         0.0000         0.0000     0.0000     0.0000   1  16   0.0031   0.0057   0.0035  -0.0030   0.0036  -0.0022   0.00    4.4
2021/01/23 07:46:41.000  -2267402.5615   5008870.7988   3221965.8283         0.0000         0.0000         0.0000         0.0000     0.0000     0.0000   1  15   0.0032   0.0057   0.0036  -0.0031   0.0037  -0.0024   0.00    4.6
2021/01/23 07:46:42.000  -2267402.5600   5008870.7969   3221965.8256         0.0000         0.0000         0.0000         0.0000     0.0000     0.0000   1  16   0.0030   0.0056   0.0035  -0.0028   0.0035  -0.0021   0.00    3.4
2021/01/23 07:46:43.000  -2267402.5574   5008870.7953   3221965.8245         0.0000         0.0000         0.0000         0.0000     0.0000     0.0000   1  16   0.0030   0.0056   0.0035  -0.0028   0.0035  -0.0021   0.00    3.0
2021/01/23 07:46:44.000  -2267402.5576   5008870.7953   3221965.8242         0.0000         0.0000         0.0000         0.0000     0.0000     0.0000   1  16   0.0030   0.0056   0.0035  -0.0028   0.0035  -0.0021   0.00    3.0
2021/01/23 07:46:45.000  -2267402.5592   5008870.7939   3221965.8228         0.0000         0.0000         0.0000         0.0000     0.0000     0.0000   1  16   0.0030   0.0056   0.0035  -0.0028   0.0035  -0.0021   0.00    3.3
2021/01/23 07:46:46.000  -2267402.5574   5008870.7960   3221965.8252         0.0000         0.0000         0.0000         0.0000     0.0000     0.0000   1  16   0.0030   0.0056   0.0035  -0.0028   0.0035  -0.0021   0.00    2.9
2021/01/23 07:46:47.000  -2267402.5596   5008870.7994   3221965.8255         0.0000         0.0000         0.0000         0.0000     0.0000     0.0000   1  15   0.0032   0.0057   0.0036  -0.0031   0.0037  -0.0024   0.00    5.0
2021/01/23 07:46:48.000  -2267402.5613   5008870.7992   3221965.8281         0.0000         0.0000         0.0000         0.0000     0.0000     0.0000   1  15   0.0032   0.0057   0.0036  -0.0031   0.0037  -0.0024   0.00    4.5
2021/01/23 07:46:49.000  -2267402.6084   5008870.7364   3221965.8725         0.0000         0.0000         0.0000         0.0000     0.0000     0.0000   1  15   0.0032   0.0057   0.0036  -0.0031   0.0037  -0.0024   0.00    3.7
2021/01/23 07:46:50.000  -2267402.8554   5008870.4512   3221966.1146         0.0000         0.0000         0.0000         0.0000     0.0000     0.0000   1  17   0.0030   0.0055   0.0034  -0.0028   0.0034  -0.0020   0.00    3.1
2021/01/23 07:46:51.000  -2267403.2866   5008869.9608   3221966.5631         0.0000         0.0000         0.0000         0.0000     0.0000     0.0000   1  17   0.0030   0.0055   0.0034  -0.0028   0.0034  -0.0020   0.00    6.6
2021/01/23 07:46:52.000  -2267403.8192   5008869.2785   3221967.1947         0.0000         0.0000         0.0000         0.0000     0.0000     0.0000   1  16   0.0031   0.0057   0.0035  -0.0030   0.0036  -0.0022   0.00   17.5
2021/01/23 07:46:53.000  -2267404.3943   5008868.4622   3221968.0189         0.0000         0.0000         0.0000         0.0000     0.0000     0.0000   1  16   0.0031   0.0057   0.0035  -0.0030   0.0036  -0.0022   0.00   23.4
2021/01/23 07:46:54.000  -2267405.0089   5008867.4360   3221969.1562         0.0000         0.0000         0.0000         0.0000     0.0000     0.0000   1  16   0.0031   0.0057   0.0035  -0.0030   0.0036  -0.0022   0.00   13.8
2021/01/23 07:46:55.000  -2267405.5888   5008866.2912   3221970.5172         0.0000         0.0000         0.0000         0.0000     0.0000     0.0000   1  15   0.0031   0.0057   0.0035  -0.0030   0.0036  -0.0022   0.00    6.5
2021/01/23 07:46:56.000  -2267406.1036   5008865.0565   3221972.0275         0.0000         0.0000         0.0000         0.0000     0.0000     0.0000   1  15   0.0032   0.0056   0.0035  -0.0029   0.0035  -0.0022   0.00   26.0
2021/01/23 07:46:57.000  -2267406.5162   5008863.7703   3221973.7010         0.0000         0.0000         0.0000         0.0000     0.0000     0.0000   1  17   0.0030   0.0052   0.0033  -0.0028   0.0032  -0.0020   0.00   15.5
2021/01/23 07:46:58.000  -2267406.8415   5008862.4708   3221975.4540         0.0000         0.0000         0.0000         0.0000     0.0000     0.0000   1  18   0.0030   0.0052   0.0033  -0.0028   0.0032  -0.0020   0.00   12.7
2021/01/23 07:46:59.000  -2267407.0671   5008861.2763   3221977.1448         0.0000         0.0000         0.0000         0.0000     0.0000     0.0000   1  19   0.0030   0.0050   0.0032  -0.0028   0.0030  -0.0021   0.00   19.7
2021/01/23 07:47:00.000  -2267407.1484   5008860.1570   3221978.8013         0.0000         0.0000         0.0000         0.0000     0.0000     0.0000   1  19   0.0030   0.0046   0.0031  -0.0029   0.0027  -0.0021   0.00    9.8
2021/01/23 07:47:01.000  -2267407.0416   5008858.8707   3221980.8250         0.0000         0.0000         0.0000         0.0000     0.0000     0.0000   1  18   0.0030   0.0051   0.0031  -0.0029   0.0026  -0.0021   0.00   13.8
2021/01/23 07:47:02.000  -2267406.6883   5008857.7185   3221982.8656         0.0000         0.0000         0.0000         0.0000     0.0000     0.0000   1  18   0.0030   0.0051   0.0031  -0.0029   0.0026  -0.0021   0.00    3.3
2021/01/23 07:47:03.000  -2267406.1408   5008856.7326   3221984.7282         0.0000         0.0000         0.0000         0.0000     0.0000     0.0000   1  17   0.0030   0.0051   0.0031  -0.0029   0.0026  -0.0021   0.00    4.7
2021/01/23 07:47:04.000  -2267405.4584   5008855.9358   3221986.3943         0.0000         0.0000         0.0000         0.0000     0.0000     0.0000   1  17   0.0030   0.0051   0.0031  -0.0029   0.0026  -0.0021   0.00   14.7
2021/01/23 07:47:05.000  -2267404.6470   5008855.3410   3221987.8289         0.0000         0.0000         0.0000         0.0000     0.0000     0.0000   1  17   0.0030   0.0051   0.0031  -0.0029   0.0026  -0.0021   0.00   10.5
2021/01/23 07:47:06.000  -2267403.6451   5008854.9291   3221989.1971         0.0000         0.0000         0.0000         0.0000     0.0000     0.0000   1  17   0.0030   0.0051   0.0031  -0.0029   0.0026  -0.0021   0.00   11.6
2021/01/23 07:47:07.000  -2267402.3506   5008854.7005   3221990.4740         0.0000         0.0000         0.0000         0.0000     0.0000     0.0000   1  16   0.0030   0.0057   0.0032  -0.0028   0.0030  -0.0021   0.00    4.8
2021/01/23 07:47:08.000  -2267400.8176   5008854.7983   3221991.4752         0.0000         0.0000         0.0000         0.0000     0.0000     0.0000   1  15   0.0031   0.0053   0.0034  -0.0030   0.0033  -0.0022   0.00   11.4
2021/01/23 07:47:09.000  -2267399.1250   5008855.1801   3221992.0005         0.0000         0.0000         0.0000         0.0000     0.0000     0.0000   1  15   0.0034   0.0059   0.0037  -0.0033   0.0038  -0.0025   0.00   11.8
2021/01/23 07:47:10.000  -2267397.1507   5008856.1520   3221991.9470         0.0000         0.0000         0.0000         0.0000     0.0000     0.0000   1  15   0.0034   0.0055   0.0035  -0.0033   0.0035  -0.0025   0.00    3.6
2021/01/23 07:47:11.000  -2267395.2146   5008857.5764   3221991.0725         0.0000         0.0000         0.0000         0.0000     0.0000     0.0000   1  16   0.0034   0.0052   0.0035  -0.0033   0.0033  -0.0025   0.00   18.9
2021/01/23 07:47:12.000  -2267393.5772   5008859.4205   3221989.4151         0.0000         0.0000         0.0000         0.0000     0.0000     0.0000   1  15   0.0041   0.0059   0.0036  -0.0042   0.0037  -0.0029   0.00   27.1
2021/01/23 07:47:13.000  -2267392.1570   5008861.4426   3221987.2873         0.0000         0.0000         0.0000         0.0000     0.0000     0.0000   1  17   0.0034   0.0049   0.0033  -0.0033   0.0031  -0.0025   0.00   27.6
2021/01/23 07:47:14.000  -2267390.8467   5008863.6138   3221984.8895         0.0000         0.0000         0.0000         0.0000     0.0000     0.0000   1  16   0.0041   0.0056   0.0034  -0.0042   0.0034  -0.0029   0.00   19.9
2021/01/23 07:47:15.000  -2267389.6890   5008865.7188   3221982.4814         0.0000         0.0000         0.0000         0.0000     0.0000     0.0000   1  17   0.0041   0.0056   0.0034  -0.0042   0.0034  -0.0029   0.00   23.0
2021/01/23 07:47:16.000  -2267388.6746   5008867.7053   3221980.1831         0.0000         0.0000         0.0000         0.0000     0.0000     0.0000   1  17   0.0038   0.0053   0.0032  -0.0038   0.0031  -0.0025   0.00   11.5
2021/01/23 07:47:17.000  -2267387.6980   5008869.6427   3221977.8893         0.0000         0.0000         0.0000         0.0000     0.0000     0.0000   1  17   0.0041   0.0056   0.0034  -0.0042   0.0034  -0.0029   0.00   27.6
2021/01/23 07:47:18.000  -2267386.6531   5008871.8325   3221975.3040         0.0000         0.0000         0.0000         0.0000     0.0000     0.0000   1  17   0.0041   0.0056   0.0034  -0.0042   0.0034  -0.0029   0.00    4.7
2021/01/23 07:47:19.000  -2267385.5534   5008874.1056   3221972.5656         0.0000         0.0000         0.0000         0.0000     0.0000     0.0000   1  16   0.0047   0.0060   0.0037  -0.0047   0.0038  -0.0034   0.00   26.6
2021/01/23 07:47:20.000  -2267384.4937   5008876.3412   3221969.8861         0.0000         0.0000         0.0000         0.0000     0.0000     0.0000   1  17   0.0036   0.0051   0.0035  -0.0036   0.0033  -0.0028   0.00   26.5
2021/01/23 07:47:21.000  -2267383.4141   5008878.6259   3221967.1228         0.0000         0.0000         0.0000         0.0000     0.0000     0.0000   1  17   0.0036   0.0051   0.0035  -0.0036   0.0033  -0.0028   0.00   19.3
2021/01/23 07:47:22.000  -2267382.3467   5008881.0089   3221964.2874         0.0000         0.0000         0.0000         0.0000     0.0000     0.0000   1  17   0.0036   0.0051   0.0035  -0.0036   0.0033  -0.0028   0.00   17.9
2021/01/23 07:47:23.000  -2267381.2270   5008883.5145   3221961.2598         0.0000         0.0000         0.0000         0.0000     0.0000     0.0000   1  15   0.0047   0.0062   0.0038  -0.0047   0.0040  -0.0034   0.00    5.4
2021/01/23 07:47:24.000  -2267380.1921   5008886.1511   3221957.9295         0.0000         0.0000         0.0000         0.0000     0.0000     0.0000   1  15   0.0047   0.0064   0.0039  -0.0047   0.0041  -0.0034   0.00    3.1
2021/01/23 07:47:25.000  -2267379.1339   5008888.7521   3221954.4622        -0.0000         0.0000         0.0000         0.0000     0.0000     0.0000   1  13   0.0048   0.0072   0.0042  -0.0047   0.0047  -0.0034   0.00    1.9
2021/01/23 07:47:26.000  -2267378.1981   5008891.3223   3221951.0409         0.0000         0.0000         0.0000         0.0000     0.0000     0.0000   1  12   0.0051   0.0072   0.0042  -0.0051   0.0046  -0.0035   0.00    9.1
2021/01/23 07:47:27.000  -2267377.3564   5008893.9678   3221947.4432         0.0000         0.0000         0.0000         0.0000     0.0000     0.0000   1  14   0.0049   0.0071   0.0042  -0.0049   0.0046  -0.0035   0.00    9.3
2021/01/23 07:47:28.000  -2267376.5545   5008896.7388   3221943.5399         0.0000         0.0000         0.0000         0.0000     0.0000     0.0000   1  14   0.0047   0.0071   0.0042  -0.0048   0.0046  -0.0035   0.00    7.0
2021/01/23 07:47:29.000  -2267375.7792   5008899.6708   3221939.4168         0.0000         0.0000         0.0000         0.0000     0.0000     0.0000   1  14   0.0047   0.0071   0.0042  -0.0048   0.0046  -0.0035   0.00   18.7
2021/01/23 07:47:30.000  -2267375.0107   5008902.7238   3221935.0899         0.0000         0.0000         0.0000         0.0000     0.0000     0.0000   1  14   0.0047   0.0071   0.0042  -0.0048   0.0046  -0.0035   0.00   24.5
2021/01/23 07:47:31.000  -2267374.2129   5008905.8817   3221930.6245         0.0000         0.0000         0.0000         0.0000     0.0000     0.0000   1  14   0.0047   0.0071   0.0042  -0.0048   0.0046  -0.0035   0.00   25.2
2021/01/23 07:47:32.000  -2267373.4275   5008909.0440   3221926.1539         0.0000         0.0000         0.0000         0.0000     0.0000     0.0000   1  13   0.0047   0.0071   0.0042  -0.0048   0.0046  -0.0035   0.00   16.4
2021/01/23 07:47:33.000  -2267372.6725   5008912.0196   3221921.8183         0.0000         0.0000         0.0000         0.0000     0.0000     0.0000   1  14   0.0047   0.0071   0.0042  -0.0048   0.0046  -0.0035   0.00    3.2
2021/01/23 07:47:34.000  -2267372.0148   5008914.7363   3221917.8422         0.0000         0.0000         0.0000         0.0000     0.0000     0.0000   1  14   0.0047   0.0071   0.0042  -0.0048   0.0046  -0.0035   0.00   10.8
2021/01/23 07:47:35.000  -2267371.5554   5008917.1401   3221914.1828         0.0000         0.0000         0.0000         0.0000     0.0000     0.0000   1  14   0.0047   0.0066   0.0040  -0.0048   0.0043  -0.0034   0.00    5.0
2021/01/23 07:47:36.000  -2267371.2082   5008919.4532   3221910.6632         0.0000         0.0000         0.0000         0.0000     0.0000     0.0000   1  13   0.0047   0.0066   0.0040  -0.0048   0.0043  -0.0034   0.00   12.3
2021/01/23 07:47:37.000  -2267370.8185   5008921.7431   3221907.1375         0.0000         0.0000         0.0000         0.0000     0.0000     0.0000   1  14   0.0047   0.0064   0.0039  -0.0047   0.0041  -0.0034   0.00   26.9
2021/01/23 07:47:38.000  -2267370.3763   5008924.2359   3221903.3313         0.0000         0.0000         0.0000         0.0000     0.0000     0.0000   1  13   0.0047   0.0071   0.0042  -0.0048   0.0046  -0.0035   0.00   42.6
2021/01/23 07:47:39.000  -2267369.9217   5008926.8619   3221899.3538         0.0000         0.0000         0.0000         0.0000     0.0000     0.0000   1  13   0.0047   0.0066   0.0040  -0.0048   0.0043  -0.0034   0.00    5.7
2021/01/23 07:47:40.000  -2267369.5022   5008929.3318   3221895.5981         0.0000         0.0000         0.0000         0.0000     0.0000     0.0000   1  14   0.0042   0.0062   0.0037  -0.0042   0.0039  -0.0029   0.00   16.9
2021/01/23 07:47:41.000  -2267369.1452   5008931.5525   3221892.2333         0.0000         0.0000         0.0000         0.0000     0.0000     0.0000   1  14   0.0042   0.0066   0.0038  -0.0042   0.0042  -0.0029   0.00   14.0
2021/01/23 07:47:42.000  -2267368.8712   5008933.4939   3221889.2656         0.0000         0.0000         0.0000         0.0000     0.0000     0.0000   1  15   0.0035   0.0059   0.0035  -0.0034   0.0036  -0.0022   0.00    2.4
2021/01/23 07:47:43.000  -2267368.5053   5008935.3317   3221886.4100         0.0000         0.0000         0.0000         0.0000     0.0000     0.0000   1  14   0.0036   0.0057   0.0038  -0.0036   0.0038  -0.0028   0.00   11.8
2021/01/23 07:47:44.000  -2267368.1677   5008937.0497   3221883.8858         0.0000         0.0000         0.0000         0.0000     0.0000     0.0000   1  13   0.0041   0.0061   0.0037  -0.0042   0.0039  -0.0029   0.00    9.8
2021/01/23 07:47:45.000  -2267367.7769   5008938.5328   3221881.7085         0.0000         0.0000         0.0000         0.0000     0.0000     0.0000   1  14   0.0041   0.0058   0.0036  -0.0041   0.0037  -0.0029   0.00   14.9
2021/01/23 07:47:46.000  -2267367.3037   5008939.8985   3221879.7639         0.0000         0.0000         0.0000         0.0000     0.0000     0.0000   1  14   0.0047   0.0063   0.0039  -0.0047   0.0041  -0.0034   0.00   42.0
2021/01/23 07:47:47.000  -2267366.6274   5008941.4021   3221877.8027         0.0000         0.0000         0.0000         0.0000     0.0000     0.0000   1  14   0.0047   0.0063   0.0039  -0.0047   0.0041  -0.0034   0.00   25.0
2021/01/23 07:47:48.000  -2267365.4313   5008943.0183   3221875.9340         0.0000         0.0000         0.0000         0.0000     0.0000     0.0000   1  14   0.0047   0.0063   0.0039  -0.0047   0.0041  -0.0034   0.00   23.9
2021/01/23 07:47:49.000  -2267363.5057   5008944.6748   3221874.5520         0.0000         0.0000         0.0000         0.0000     0.0000     0.0000   1  16   0.0040   0.0055   0.0036  -0.0040   0.0035  -0.0030   0.00   13.2
2021/01/23 07:47:50.000  -2267360.9084   5008946.1557   3221873.9078         0.0000         0.0000         0.0000         0.0000     0.0000     0.0000   1  16   0.0040   0.0055   0.0036  -0.0040   0.0035  -0.0030   0.00    2.6
2021/01/23 07:47:51.000  -2267357.9529   5008947.2991   3221874.0105         0.0000         0.0000         0.0000         0.0000     0.0000     0.0000   1  16   0.0036   0.0051   0.0035  -0.0036   0.0033  -0.0028   0.00    6.3
2021/01/23 07:47:52.000  -2267355.0694   5008948.1832   3221874.6067         0.0000         0.0000         0.0000         0.0000     0.0000     0.0000   1  16   0.0036   0.0051   0.0035  -0.0036   0.0033  -0.0028   0.00    6.8
2021/01/23 07:47:53.000  -2267352.2572   5008948.9939   3221875.2505         0.0000         0.0000         0.0000         0.0000     0.0000     0.0000   1  15   0.0038   0.0051   0.0041  -0.0037   0.0035  -0.0032   0.00    5.7
2021/01/23 07:47:54.000  -2267349.3418   5008949.7777   3221875.7887         0.0000         0.0000         0.0000         0.0000     0.0000     0.0000   1  15   0.0038   0.0051   0.0041  -0.0037   0.0035  -0.0032   0.00    1.7
2021/01/23 07:47:55.000  -2267346.3506   5008950.7743   3221876.3796         0.0000         0.0000         0.0000         0.0000     0.0000     0.0000   1  15   0.0047   0.0060   0.0037  -0.0047   0.0038  -0.0034   0.00    7.7
2021/01/23 07:47:56.000  -2267342.7561   5008951.6466   3221876.8592         0.0000         0.0000         0.0000         0.0000     0.0000     0.0000   2  12   0.3957   0.5304   0.3587  -0.3676   0.2206  -0.2727   0.00    1.1
2021/01/23 07:47:57.000  -2267339.7151   5008952.8417   3221877.5757         0.0000         0.0000         0.0000         0.0000     0.0000     0.0000   1  12   0.0057   0.0074   0.0049  -0.0056   0.0041  -0.0044   0.00   14.7
2021/01/23 07:47:58.000  -2267336.1703   5008953.8762   3221878.3205         0.0000         0.0000         0.0000         0.0000     0.0000     0.0000   1  11   0.0072   0.0079   0.0070  -0.0066   0.0055  -0.0065   0.00   21.1
2021/01/23 07:47:59.000  -2267332.4895   5008954.9125   3221879.2134         0.0000         0.0000         0.0000         0.0000     0.0000     0.0000   1  11   0.0072   0.0079   0.0070  -0.0066   0.0055  -0.0065   0.00   28.6
2021/01/23 07:48:00.000  -2267328.6369   5008955.9246   3221880.1747         0.0000         0.0000         0.0000         0.0000     0.0000     0.0000   1  10   0.0059   0.0074   0.0059  -0.0056   0.0043  -0.0050   0.00    5.6
2021/01/23 07:48:01.000  -2267324.6074   5008956.9288   3221881.2044         0.0000         0.0000         0.0000         0.0000     0.0000     0.0000   1  13   0.0042   0.0056   0.0045  -0.0038   0.0035  -0.0036   0.00    8.9
2021/01/23 07:48:02.000  -2267320.5091   5008958.0066   3221882.3193         0.0000         0.0000         0.0000         0.0000     0.0000     0.0000   1  13   0.0042   0.0056   0.0045  -0.0038   0.0035  -0.0036   0.00   11.3
2021/01/23 07:48:03.000  -2267316.4315   5008959.0341   3221883.4308         0.0000         0.0000         0.0000         0.0000     0.0000     0.0000   1  13   0.0046   0.0057   0.0050  -0.0041   0.0038  -0.0042   0.00   12.8
2021/01/23 07:48:04.000  -2267312.4451   5008960.2024   3221884.7899         0.0000         0.0000         0.0000         0.0000     0.0000     0.0000   2  13   0.3363   0.4314   0.3742  -0.2700   0.2311  -0.2820   0.00    1.2
2021/01/23 07:48:05.000  -2267308.5828   5008960.8937   3221885.8199         0.0000         0.0000         0.0000         0.0000     0.0000     0.0000   1  12   0.0047   0.0057   0.0052  -0.0041   0.0038  -0.0044   0.00   16.4
2021/01/23 07:48:06.000  -2267304.8017   5008961.6882   3221887.0654         0.0000         0.0000         0.0000         0.0000     0.0000     0.0000   1  13   0.0046   0.0057   0.0050  -0.0041   0.0038  -0.0042   0.00   23.0
2021/01/23 07:48:07.000  -2267301.1149   5008962.4568   3221888.3455         0.0000         0.0000         0.0000         0.0000     0.0000     0.0000   1  13   0.0046   0.0057   0.0050  -0.0041   0.0038  -0.0042   0.00   15.8
2021/01/23 07:48:08.000  -2267297.4994   5008963.1899   3221889.6188         0.0000         0.0000         0.0000         0.0000     0.0000     0.0000   1  13   0.0046   0.0057   0.0050  -0.0041   0.0038  -0.0042   0.00   21.0
2021/01/23 07:48:09.000  -2267293.8674   5008963.9205   3221890.8383         0.0000         0.0000         0.0000         0.0000     0.0000     0.0000   1  14   0.0038   0.0055   0.0042  -0.0036   0.0033  -0.0032   0.00    7.1
2021/01/23 07:48:10.000  -2267290.1351   5008964.6792   3221892.0136         0.0000         0.0000         0.0000         0.0000     0.0000     0.0000   1  15   0.0032   0.0052   0.0037  -0.0030   0.0027  -0.0026   0.00    6.0
2021/01/23 07:48:11.000  -2267286.2379   5008965.4717   3221893.1985         0.0000         0.0000         0.0000         0.0000     0.0000     0.0000   1  14   0.0039   0.0059   0.0038  -0.0039   0.0031  -0.0029   0.00    8.0
2021/01/23 07:48:12.000  -2267282.1326   5008966.2481   3221894.3626         0.0000         0.0000         0.0000         0.0000     0.0000     0.0000   1  14   0.0039   0.0059   0.0038  -0.0039   0.0031  -0.0029   0.00   10.1
2021/01/23 07:48:13.000  -2267278.0225   5008967.0049   3221895.4940         0.0000         0.0000         0.0000         0.0000     0.0000     0.0000   1  14   0.0039   0.0059   0.0038  -0.0039   0.0031  -0.0029   0.00   12.3
2021/01/23 07:48:14.000  -2267274.0246   5008967.7460   3221896.6455         0.0000         0.0000         0.0000         0.0000     0.0000     0.0000   1  14   0.0039   0.0059   0.0038  -0.0039   0.0031  -0.0029   0.00   15.0
2021/01/23 07:48:15.000  -2267270.1207   5008968.4292   3221897.8102         0.0000         0.0000         0.0000         0.0000     0.0000     0.0000   1  15   0.0036   0.0058   0.0036  -0.0037   0.0028  -0.0026   0.00   13.1
2021/01/23 07:48:16.000  -2267266.4234   5008969.0233   3221898.9465         0.0000         0.0000         0.0000         0.0000     0.0000     0.0000   1  15   0.0036   0.0058   0.0036  -0.0037   0.0028  -0.0026   0.00    6.4
2021/01/23 07:48:17.000  -2267262.8098   5008969.5250   3221900.1043         0.0000         0.0000         0.0000         0.0000     0.0000     0.0000   1  13   0.0044   0.0068   0.0044  -0.0046   0.0030  -0.0033   0.00    7.4
2021/01/23 07:48:18.000  -2267259.1817   5008970.0560   3221901.3035         0.0000         0.0000         0.0000         0.0000     0.0000     0.0000   1  12   0.0048   0.0068   0.0044  -0.0048   0.0030  -0.0033   0.00    8.0
2021/01/23 07:48:19.000  -2267255.5360   5008970.6494   3221902.4263         0.0000         0.0000         0.0000         0.0000     0.0000     0.0000   1  12   0.0050   0.0076   0.0042  -0.0050   0.0036  -0.0031   0.00    2.3
2021/01/23 07:48:20.000  -2267251.5745   5008971.5802   3221903.3343         0.0000         0.0000         0.0000         0.0000     0.0000     0.0000   1  12   0.0058   0.0079   0.0049  -0.0057   0.0044  -0.0044   0.00    4.9
2021/01/23 07:48:21.000  -2267247.2675   5008972.6788   3221904.0245         0.0000         0.0000         0.0000         0.0000     0.0000     0.0000   1  10   0.0043   0.0113   0.0046  -0.0051   0.0046  -0.0033   0.00    2.0
2021/01/23 07:48:22.000  -2267242.6341   5008973.8323   3221904.8454         0.0000         0.0000         0.0000         0.0000     0.0000     0.0000   1   9   0.0050   0.0118   0.0053  -0.0058   0.0054  -0.0042   0.00    7.7
2021/01/23 07:48:23.000  -2267237.7662   5008974.9169   3221905.9098         0.0000         0.0000         0.0000         0.0000     0.0000     0.0000   1  10   0.0054   0.0102   0.0052  -0.0062   0.0052  -0.0044   0.00    8.3
2021/01/23 07:48:24.000  -2267232.6925   5008976.0179   3221907.1437         0.0000         0.0000         0.0000         0.0000     0.0000     0.0000   1  11   0.0053   0.0089   0.0051  -0.0058   0.0046  -0.0042   0.00   20.5
2021/01/23 07:48:25.000  -2267227.5175   5008977.0491   3221908.5135         0.0000         0.0000         0.0000         0.0000     0.0000     0.0000   1  14   0.0036   0.0061   0.0037  -0.0035   0.0036  -0.0028   0.00    7.2
2021/01/23 07:48:26.000  -2267222.2734   5008978.0735   3221909.9331         0.0000         0.0000         0.0000         0.0000     0.0000     0.0000   1  12   0.0048   0.0057   0.0055  -0.0041   0.0039  -0.0045   0.00    7.8
2021/01/23 07:48:27.000  -2267217.0788   5008979.3625   3221911.8221         0.0000         0.0000         0.0000         0.0000     0.0000     0.0000   2  11   0.3734   0.4386   0.4474  -0.2737   0.2163  -0.3386   0.00    1.0
2021/01/23 07:48:28.000  -2267212.0564   5008980.1596   3221913.0877         0.0000         0.0000         0.0000         0.0000     0.0000     0.0000   2  10   0.3690   0.4472   0.4300  -0.2737   0.2181  -0.3211   0.00    1.4
2021/01/23 07:48:29.000  -2267207.0618   5008980.7320   3221914.6911         0.0000         0.0000         0.0000         0.0000     0.0000     0.0000   1  10   0.0043   0.0058   0.0046  -0.0038   0.0036  -0.0036   0.00   10.4
2021/01/23 07:48:30.000  -2267202.4385   5008981.3827   3221916.5265         0.0000         0.0000         0.0000         0.0000     0.0000     0.0000   1  11   0.0047   0.0059   0.0051  -0.0041   0.0038  -0.0042   0.00   10.3
2021/01/23 07:48:31.000  -2267198.0601   5008981.6788   3221918.8118         0.0000         0.0000         0.0000         0.0000     0.0000     0.0000   1  12   0.0046   0.0059   0.0050  -0.0043   0.0041  -0.0041   0.00    9.0
2021/01/23 07:48:32.000  -2267194.2621   5008981.2139   3221921.8646         0.0000         0.0000         0.0000         0.0000     0.0000     0.0000   1  14   0.0033   0.0051   0.0033  -0.0032   0.0029  -0.0024   0.00   13.5
2021/01/23 07:48:33.000  -2267191.2220   5008980.1872   3221925.4137         0.0000         0.0000         0.0000         0.0000     0.0000     0.0000   1  15   0.0033   0.0048   0.0033  -0.0031   0.0029  -0.0024   0.00   15.6
2021/01/23 07:48:34.000  -2267188.7138   5008978.9665   3221929.0163        -0.0000         0.0000         0.0000         0.0000     0.0000     0.0000   1  17   0.0030   0.0049   0.0033  -0.0028   0.0030  -0.0021   0.00   19.3
2021/01/23 07:48:35.000  -2267186.7105   5008977.6005   3221932.5494         0.0000         0.0000         0.0000         0.0000     0.0000     0.0000   1  17   0.0030   0.0049   0.0033  -0.0028   0.0030  -0.0021   0.00   19.9
2021/01/23 07:48:36.000  -2267185.1256   5008976.1641   3221935.9061         0.0000         0.0000         0.0000         0.0000     0.0000     0.0000   1  17   0.0030   0.0049   0.0033  -0.0028   0.0030  -0.0021   0.00   23.0
2021/01/23 07:48:37.000  -2267183.7912   5008974.7273   3221939.1723         0.0000         0.0000         0.0000         0.0000     0.0000     0.0000   1  17   0.0030   0.0049   0.0033  -0.0028   0.0030  -0.0021   0.00   19.4
2021/01/23 07:48:38.000  -2267182.5045   5008973.0440   3221942.7919         0.0000         0.0000         0.0000         0.0000     0.0000     0.0000   1  18   0.0030   0.0046   0.0031  -0.0029   0.0027  -0.0021   0.00   25.5
2021/01/23 07:48:39.000  -2267181.3880   5008971.0644   3221946.7500        -0.0000         0.0000         0.0000         0.0000     0.0000     0.0000   1  18   0.0030   0.0046   0.0031  -0.0029   0.0027  -0.0021   0.00   16.0
2021/01/23 07:48:40.000  -2267180.3735   5008968.8833   3221950.9575         0.0000         0.0000         0.0000         0.0000     0.0000     0.0000   1  18   0.0030   0.0046   0.0031  -0.0029   0.0027  -0.0021   0.00   20.3
2021/01/23 07:48:41.000  -2267179.3253   5008966.6048   3221955.3107         0.0000         0.0000         0.0000         0.0000     0.0000     0.0000   1  18   0.0030   0.0046   0.0031  -0.0029   0.0027  -0.0021   0.00    7.9
2021/01/23 07:48:42.000  -2267178.2612   5008964.3062   3221959.7734         0.0000         0.0000         0.0000         0.0000     0.0000     0.0000   1  17   0.0030   0.0049   0.0033  -0.0029   0.0030  -0.0021   0.00   21.1
2021/01/23 07:48:43.000  -2267177.2559   5008961.8658   3221964.3468         0.0000         0.0000         0.0000         0.0000     0.0000     0.0000   1  17   0.0030   0.0049   0.0033  -0.0029   0.0030  -0.0021   0.00   21.2
2021/01/23 07:48:44.000  -2267176.3749   5008959.2840   3221969.0342         0.0000         0.0000         0.0000         0.0000     0.0000     0.0000   1  17   0.0030   0.0049   0.0033  -0.0029   0.0030  -0.0021   0.00   17.1
2021/01/23 07:48:45.000  -2267175.4027   5008956.6477   3221973.8554         0.0000         0.0000         0.0000         0.0000     0.0000     0.0000   1  17   0.0030   0.0049   0.0033  -0.0029   0.0030  -0.0021   0.00   20.8
2021/01/23 07:48:46.000  -2267174.1743   5008954.0404   3221978.7918         0.0000         0.0000         0.0000         0.0000     0.0000     0.0000   1  17   0.0030   0.0049   0.0033  -0.0029   0.0030  -0.0021   0.00   26.9
2021/01/23 07:48:47.000  -2267172.8220   5008951.5832   3221983.5393         0.0000         0.0000         0.0000         0.0000     0.0000     0.0000   1  17   0.0030   0.0049   0.0033  -0.0029   0.0030  -0.0021   0.00   23.5
2021/01/23 07:48:48.000  -2267171.3903   5008949.3397   3221988.0224         0.0000         0.0000         0.0000         0.0000     0.0000     0.0000   1  17   0.0030   0.0049   0.0033  -0.0029   0.0030  -0.0021   0.00   20.7
2021/01/23 07:48:49.000  -2267170.0057   5008947.2955   3221992.2261         0.0000         0.0000         0.0000         0.0000     0.0000     0.0000   1  17   0.0030   0.0049   0.0033  -0.0029   0.0030  -0.0021   0.00   20.0
2021/01/23 07:48:50.000  -2267168.5898   5008945.4275   3221996.1951         0.0000         0.0000         0.0000         0.0000     0.0000     0.0000   1  16   0.0031   0.0050   0.0033  -0.0030   0.0031  -0.0023   0.00    7.2
2021/01/23 07:48:51.000  -2267167.1283   5008943.6443   3221999.9283         0.0000         0.0000         0.0000         0.0000     0.0000     0.0000   1  15   0.0034   0.0055   0.0036  -0.0033   0.0035  -0.0025   0.00   39.4
2021/01/23 07:48:52.000  -2267165.7193   5008941.9825   3222003.4953         0.0000         0.0000         0.0000         0.0000     0.0000     0.0000   1  15   0.0034   0.0059   0.0037  -0.0033   0.0038  -0.0025   0.00   40.9
2021/01/23 07:48:53.000  -2267164.3972   5008940.4275   3222006.8686         0.0000         0.0000         0.0000         0.0000     0.0000     0.0000   1  15   0.0034   0.0055   0.0036  -0.0033   0.0035  -0.0025   0.00   25.9
2021/01/23 07:48:54.000  -2267163.1207   5008938.9876   3222010.0365         0.0000         0.0000         0.0000         0.0000     0.0000     0.0000   1  16   0.0034   0.0055   0.0036  -0.0033   0.0035  -0.0025   0.00   25.0
2021/01/23 07:48:55.000  -2267161.8769   5008937.6360   3222013.0015         0.0000         0.0000         0.0000         0.0000     0.0000     0.0000   1  16   0.0034   0.0052   0.0035  -0.0033   0.0033  -0.0025   0.00   27.8
2021/01/23 07:48:56.000  -2267160.6601   5008936.4011   3222015.7822         0.0000         0.0000         0.0000         0.0000     0.0000     0.0000   1  17   0.0034   0.0050   0.0034  -0.0033   0.0032  -0.0025   0.00   36.5
2021/01/23 07:48:57.000  -2267159.2618   5008935.3499   3222018.3720         0.0000         0.0000         0.0000         0.0000     0.0000     0.0000   1  17   0.0034   0.0050   0.0034  -0.0033   0.0032  -0.0025   0.00   17.1
2021/01/23 07:48:58.000  -2267157.7245   5008934.3901   3222020.8814         0.0000         0.0000         0.0000         0.0000     0.0000     0.0000   1  17   0.0034   0.0050   0.0034  -0.0033   0.0032  -0.0025   0.00   13.2
2021/01/23 07:48:59.000  -2267156.1282   5008933.4109   3222023.4411         0.0000         0.0000         0.0000         0.0000     0.0000     0.0000   1  17   0.0034   0.0050   0.0034  -0.0033   0.0032  -0.0025   0.00   13.8
2021/01/23 07:49:00.000  -2267154.5326   5008932.3881   3222026.0774         0.0000         0.0000         0.0000         0.0000     0.0000     0.0000   1  16   0.0034   0.0052   0.0035  -0.0033   0.0033  -0.0025   0.00   11.2
2021/01/23 07:49:01.000  -2267152.9425   5008931.2552   3222028.8320         0.0000         0.0000         0.0000         0.0000     0.0000     0.0000   1  16   0.0034   0.0052   0.0035  -0.0033   0.0033  -0.0025   0.00   11.1
2021/01/23 07:49:02.000  -2267151.3983   5008929.9960   3222031.7532         0.0000         0.0000         0.0000         0.0000     0.0000     0.0000   1  15   0.0037   0.0054   0.0037  -0.0036   0.0036  -0.0028   0.00   31.9
2021/01/23 07:49:03.000  -2267149.9618   5008928.5775   3222034.8498         0.0000         0.0000         0.0000         0.0000     0.0000     0.0000   1  15   0.0037   0.0054   0.0037  -0.0036   0.0036  -0.0028   0.00   33.9
2021/01/23 07:49:04.000  -2267148.7123   5008926.9617   3222038.1217         0.0000         0.0000         0.0000         0.0000     0.0000     0.0000   1  15   0.0037   0.0054   0.0037  -0.0036   0.0036  -0.0028   0.00   29.7
2021/01/23 07:49:05.000  -2267147.6989   5008925.1457   3222041.5396         0.0000         0.0000         0.0000         0.0000     0.0000     0.0000   1  15   0.0037   0.0054   0.0037  -0.0036   0.0036  -0.0028   0.00   17.1
2021/01/23 07:49:06.000  -2267146.7700   5008923.1613   3222045.0927         0.0000         0.0000         0.0000         0.0000     0.0000     0.0000   1  15   0.0037   0.0054   0.0037  -0.0036   0.0036  -0.0028   0.00   24.6
2021/01/23 07:49:07.000  -2267145.6958   5008921.1572   3222048.7814         0.0000         0.0000         0.0000         0.0000     0.0000     0.0000   1  16   0.0037   0.0051   0.0035  -0.0036   0.0033  -0.0028   0.00   26.1
2021/01/23 07:49:08.000  -2267144.3847   5008919.0562   3222052.5403         0.0000         0.0000         0.0000         0.0000     0.0000     0.0000   1  16   0.0037   0.0051   0.0035  -0.0036   0.0033  -0.0028   0.00   13.1
2021/01/23 07:49:09.000  -2267142.8050   5008916.8709   3222056.4463         0.0000         0.0000         0.0000         0.0000     0.0000     0.0000   1  15   0.0037   0.0053   0.0036  -0.0036   0.0035  -0.0028   0.00   16.1
2021/01/23 07:49:10.000  -2267141.0600   5008914.6356   3222060.5736         0.0000         0.0000         0.0000         0.0000     0.0000     0.0000   1  17   0.0034   0.0049   0.0033  -0.0033   0.0031  -0.0025   0.00   15.8
2021/01/23 07:49:11.000  -2267139.2471   5008912.3356   3222064.8620         0.0000         0.0000         0.0000         0.0000     0.0000     0.0000   1  17   0.0034   0.0049   0.0033  -0.0033   0.0031  -0.0025   0.00   12.0
2021/01/23 07:49:12.000  -2267137.4363   5008910.0837   3222069.2326         0.0000         0.0000         0.0000         0.0000     0.0000     0.0000   1  15   0.0034   0.0059   0.0037  -0.0033   0.0038  -0.0025   0.00    5.8
2021/01/23 07:49:13.000  -2267135.7588   5008908.0266   3222073.4786         0.0000         0.0000         0.0000         0.0000     0.0000     0.0000   1  15   0.0034   0.0059   0.0037  -0.0033   0.0038  -0.0025   0.00    8.9
2021/01/23 07:49:14.000  -2267134.0454   5008905.9844   3222077.6192         0.0000         0.0000         0.0000         0.0000     0.0000     0.0000   1  14   0.0034   0.0061   0.0038  -0.0032   0.0040  -0.0024   0.00   17.6
2021/01/23 07:49:15.000  -2267132.0449   5008903.6270   3222081.7469         0.0000         0.0000         0.0000         0.0000     0.0000     0.0000   1  16   0.0030   0.0055   0.0035  -0.0028   0.0035  -0.0020   0.00   10.8
2021/01/23 07:49:16.000  -2267129.9233   5008901.1656   3222086.0127         0.0000         0.0000         0.0000         0.0000     0.0000     0.0000   1  15   0.0032   0.0072   0.0037  -0.0029   0.0040  -0.0022   0.00   23.7
2021/01/23 07:49:17.000  -2267128.1337   5008899.1549   3222090.4772         0.0000         0.0000         0.0000         0.0000     0.0000     0.0000   1  15   0.0032   0.0063   0.0035  -0.0030   0.0035  -0.0023   0.00   13.8
2021/01/23 07:49:18.000  -2267126.6338   5008897.2029   3222094.4993         0.0000         0.0000         0.0000         0.0000     0.0000     0.0000   1  15   0.0030   0.0062   0.0034  -0.0027   0.0033  -0.0021   0.00   13.2
2021/01/23 07:49:19.000  -2267125.3212   5008895.4038   3222098.3094         0.0000         0.0000         0.0000         0.0000     0.0000     0.0000   1  15   0.0030   0.0070   0.0035  -0.0026   0.0039  -0.0020   0.00    5.9
2021/01/23 07:49:20.000  -2267124.1275   5008893.5973   3222101.9278         0.0000         0.0000         0.0000         0.0000     0.0000     0.0000   1  14   0.0032   0.0096   0.0042   0.0003   0.0055  -0.0012   0.00   13.1
2021/01/23 07:49:21.000  -2267122.7964   5008891.6279   3222105.9784         0.0000         0.0000         0.0000         0.0000     0.0000     0.0000   1  14   0.0032   0.0096   0.0042   0.0003   0.0055  -0.0012   0.00   18.0
2021/01/23 07:49:22.000  -2267121.4044   5008889.5587   3222110.2461         0.0000         0.0000         0.0000         0.0000     0.0000     0.0000   1  13   0.0035   0.0101   0.0045  -0.0021   0.0059  -0.0020   0.00   30.3
2021/01/23 07:49:23.000  -2267120.0339   5008887.5828   3222114.2943         0.0000         0.0000         0.0000         0.0000     0.0000     0.0000   1  13   0.0035   0.0101   0.0045  -0.0021   0.0059  -0.0020   0.00   21.4
2021/01/23 07:49:24.000  -2267118.7007   5008885.7843   3222118.0835         0.0000         0.0000         0.0000         0.0000     0.0000     0.0000   1  13   0.0035   0.0101   0.0045  -0.0021   0.0059  -0.0020   0.00   20.1
2021/01/23 07:49:25.000  -2267117.2876   5008884.0420   3222121.8239         0.0000         0.0000         0.0000         0.0000     0.0000     0.0000   1  15   0.0034   0.0059   0.0037  -0.0033   0.0038  -0.0025   0.00   20.1
2021/01/23 07:49:26.000  -2267115.7525   5008882.4220   3222125.5597         0.0000         0.0000         0.0000         0.0000     0.0000     0.0000   1  14   0.0042   0.0065   0.0038  -0.0042   0.0042  -0.0029   0.00   42.2
2021/01/23 07:49:27.000  -2267114.1317   5008880.9489   3222129.0406         0.0000         0.0000         0.0000         0.0000     0.0000     0.0000   1  14   0.0042   0.0065   0.0038  -0.0042   0.0042  -0.0029   0.00   22.6
2021/01/23 07:49:28.000  -2267112.3408   5008879.8220   3222132.1440         0.0000         0.0000         0.0000         0.0000     0.0000     0.0000   1  15   0.0042   0.0059   0.0036  -0.0042   0.0037  -0.0029   0.00    6.8
2021/01/23 07:49:29.000  -2267110.1426   5008879.1723   3222134.7863         0.0000         0.0000         0.0000         0.0000     0.0000     0.0000   1  14   0.0042   0.0065   0.0038  -0.0042   0.0042  -0.0029   0.00   11.0
2021/01/23 07:49:30.000  -2267107.5517   5008879.1306   3222136.6783         0.0000         0.0000         0.0000         0.0000     0.0000     0.0000   1  14   0.0042   0.0065   0.0038  -0.0042   0.0042  -0.0029   0.00   20.0
2021/01/23 07:49:31.000  -2267104.6972   5008879.9017   3222137.5348         0.0000         0.0000         0.0000         0.0000     0.0000     0.0000   1  14   0.0042   0.0065   0.0038  -0.0042   0.0042  -0.0029   0.00   16.9
2021/01/23 07:49:32.000  -2267101.6736   5008881.2316   3222137.6121         0.0000         0.0000         0.0000         0.0000     0.0000     0.0000   1  15   0.0042   0.0060   0.0036  -0.0042   0.0037  -0.0029   0.00    6.3
2021/01/23 07:49:33.000  -2267098.5755   5008882.7354   3222137.4449         0.0000         0.0000         0.0000         0.0000     0.0000     0.0000   1  14   0.0042   0.0065   0.0038  -0.0042   0.0042  -0.0029   0.00    5.3
2021/01/23 07:49:34.000  -2267095.2467   5008884.3298   3222137.1800         0.0000         0.0000         0.0000         0.0000     0.0000     0.0000   1  14   0.0042   0.0071   0.0036  -0.0046   0.0039  -0.0030   0.00   30.2
2021/01/23 07:49:35.000  -2267091.5536   5008886.3074   3222136.7131         0.0000         0.0000         0.0000         0.0000     0.0000     0.0000   1  14   0.0042   0.0071   0.0036  -0.0046   0.0039  -0.0030   0.00   21.3
2021/01/23 07:49:36.000  -2267087.5392   5008888.5863   3222136.0548         0.0000         0.0000         0.0000         0.0000     0.0000     0.0000   1  14   0.0043   0.0071   0.0036  -0.0046   0.0039  -0.0030   0.00   26.2
2021/01/23 07:49:37.000  -2267083.2229   5008891.1238   3222135.2660         0.0000         0.0000         0.0000         0.0000     0.0000     0.0000   1  16   0.0038   0.0054   0.0033  -0.0038   0.0032  -0.0026   0.00    2.2
2021/01/23 07:49:38.000  -2267078.5064   5008893.7970   3222134.3901         0.0000         0.0000         0.0000         0.0000     0.0000     0.0000   1  17   0.0035   0.0052   0.0032  -0.0035   0.0030  -0.0023   0.00    8.5
2021/01/23 07:49:39.000  -2267073.5304   5008896.6185   3222133.4559         0.0000         0.0000         0.0000         0.0000     0.0000     0.0000   1  17   0.0035   0.0052   0.0032  -0.0035   0.0030  -0.0023   0.00   13.1
2021/01/23 07:49:40.000  -2267068.3781   5008899.5604   3222132.5337         0.0000         0.0000         0.0000         0.0000     0.0000     0.0000   1  16   0.0038   0.0054   0.0033  -0.0038   0.0032  -0.0026   0.00   13.5
2021/01/23 07:49:41.000  -2267062.7611   5008902.7048   3222131.5598         0.0000         0.0000         0.0000         0.0000     0.0000     0.0000   2  16   0.3014   0.3993   0.2687  -0.2721   0.2111  -0.1773   0.00    1.1
2021/01/23 07:49:42.000  -2267057.5078   5008905.6871   3222130.6532         0.0000         0.0000         0.0000         0.0000     0.0000     0.0000   1  16   0.0035   0.0057   0.0031  -0.0037   0.0028  -0.0023   0.00    7.9
2021/01/23 07:49:43.000  -2267051.8363   5008908.8612   3222129.7284         0.0000         0.0000         0.0000         0.0000     0.0000     0.0000   1  15   0.0042   0.0063   0.0034  -0.0044   0.0034  -0.0029   0.00   19.1
2021/01/23 07:49:44.000  -2267046.1444   5008912.0043   3222128.7718         0.0000         0.0000         0.0000         0.0000     0.0000     0.0000   1  15   0.0042   0.0057   0.0035  -0.0042   0.0035  -0.0029   0.00    3.6
2021/01/23 07:49:45.000  -2267040.6411   5008915.1376   3222127.8443         0.0000         0.0000         0.0000         0.0000     0.0000     0.0000   1  15   0.0042   0.0063   0.0034  -0.0044   0.0034  -0.0029   0.00   10.8
2021/01/23 07:49:46.000  -2267035.3215   5008918.1618   3222126.8798         0.0000         0.0000         0.0000         0.0000     0.0000     0.0000   1  15   0.0042   0.0063   0.0034  -0.0044   0.0034  -0.0029   0.00   10.4
2021/01/23 07:49:47.000  -2267030.1764   5008921.0892   3222125.9493         0.0000         0.0000         0.0000         0.0000     0.0000     0.0000   1  15   0.0042   0.0063   0.0034  -0.0044   0.0034  -0.0029   0.00   11.3
2021/01/23 07:49:48.000  -2267025.2583   5008923.8964   3222125.0761         0.0000         0.0000         0.0000         0.0000     0.0000     0.0000   1  14   0.0047   0.0067   0.0037  -0.0049   0.0039  -0.0034   0.00   11.9
2021/01/23 07:49:49.000  -2267020.6429   5008926.5532   3222124.2356         0.0000         0.0000         0.0000         0.0000     0.0000     0.0000   1  15   0.0047   0.0060   0.0037  -0.0047   0.0038  -0.0034   0.00    3.6
2021/01/23 07:49:50.000  -2267016.7497   5008928.6709   3222123.5218         0.0000         0.0000         0.0000         0.0000     0.0000     0.0000   1  14   0.0039   0.0056   0.0037  -0.0037   0.0034  -0.0031   0.00   19.1
2021/01/23 07:49:51.000  -2267013.4530   5008930.4331   3222122.9987         0.0000         0.0000         0.0000         0.0000     0.0000     0.0000   1  14   0.0039   0.0056   0.0037  -0.0037   0.0034  -0.0031   0.00   18.6
2021/01/23 07:49:52.000  -2267010.1215   5008932.0436   3222122.7605         0.0000         0.0000         0.0000         0.0000     0.0000     0.0000   1  15   0.0037   0.0055   0.0035  -0.0036   0.0032  -0.0028   0.00   18.3
2021/01/23 07:49:53.000  -2267006.7387   5008933.2887   3222123.1222         0.0000         0.0000         0.0000         0.0000     0.0000     0.0000   1  15   0.0037   0.0055   0.0035  -0.0036   0.0032  -0.0028   0.00    9.6
2021/01/23 07:49:54.000  -2267003.5154   5008933.8641   3222124.4246         0.0000         0.0000         0.0000         0.0000     0.0000     0.0000   1  15   0.0037   0.0055   0.0035  -0.0036   0.0032  -0.0028   0.00   17.8
2021/01/23 07:49:55.000  -2267000.9641   5008933.5493   3222126.6497         0.0000         0.0000         0.0000         0.0000     0.0000     0.0000   1  14   0.0037   0.0055   0.0036  -0.0036   0.0032  -0.0028   0.00   26.6
2021/01/23 07:49:56.000  -2266999.2890   5008932.5226   3222129.3669         0.0000         0.0000         0.0000         0.0000     0.0000     0.0000   1  15   0.0037   0.0058   0.0036  -0.0036   0.0034  -0.0028   0.00    3.7
2021/01/23 07:49:57.000  -2266998.0553   5008931.2826   3222132.1314         0.0000         0.0000         0.0000         0.0000     0.0000     0.0000   1  14   0.0037   0.0067   0.0038  -0.0036   0.0040  -0.0028   0.00   21.8
2021/01/23 07:49:58.000  -2266996.8187   5008930.0651   3222134.9089         0.0000         0.0000         0.0000         0.0000     0.0000     0.0000   1  14   0.0037   0.0061   0.0037  -0.0036   0.0036  -0.0028   0.00   25.7
2021/01/23 07:49:59.000  -2266995.3749   5008928.7364   3222137.9596         0.0000         0.0000         0.0000         0.0000     0.0000     0.0000   1  14   0.0037   0.0061   0.0037  -0.0036   0.0036  -0.0028   0.00   27.2
2021/01/23 07:50:00.000  -2266993.7531   5008927.2565   3222141.3913         0.0000         0.0000         0.0000         0.0000     0.0000     0.0000   1  14   0.0037   0.0061   0.0037  -0.0036   0.0036  -0.0028   0.00   21.4
2021/01/23 07:50:01.000  -2266992.0748   5008925.5984   3222145.1306         0.0000         0.0000         0.0000         0.0000     0.0000     0.0000   1  13   0.0037   0.0076   0.0040  -0.0036   0.0045  -0.0028   0.00   23.2
2021/01/23 07:50:02.000  -2266990.5116   5008923.8404   3222148.9021         0.0000         0.0000         0.0000         0.0000     0.0000     0.0000   1  14   0.0037   0.0061   0.0039  -0.0036   0.0041  -0.0028   0.00   18.1
2021/01/23 07:50:03.000  -2266989.0791   5008922.1066   3222152.5801         0.0000         0.0000         0.0000         0.0000     0.0000     0.0000   1  13   0.0037   0.0068   0.0043  -0.0034   0.0047  -0.0027   0.00   32.5
2021/01/23 07:50:04.000  -2266987.7895   5008920.4518   3222156.0224         0.0000         0.0000         0.0000         0.0000     0.0000     0.0000   1  14   0.0035   0.0065   0.0040  -0.0030   0.0044  -0.0023   0.00   18.1
2021/01/23 07:50:05.000  -2266986.4953   5008918.9039   3222159.2415         0.0000         0.0000         0.0000         0.0000     0.0000     0.0000   1  14   0.0035   0.0065   0.0040  -0.0030   0.0044  -0.0023   0.00   12.0
2021/01/23 07:50:06.000  -2266984.8022   5008917.8911   3222162.1107         0.0000         0.0000         0.0000         0.0000     0.0000     0.0000   1  14   0.0042   0.0065   0.0038  -0.0042   0.0042  -0.0029   0.00    7.0
2021/01/23 07:50:07.000  -2266982.3104   5008917.5934   3222164.1753         0.0000         0.0000         0.0000         0.0000     0.0000     0.0000   1  12   0.0049   0.0095   0.0044  -0.0056   0.0056  -0.0037   0.00   15.4
2021/01/23 07:50:08.000  -2266979.4088   5008918.2184   3222165.2694         0.0000         0.0000         0.0000         0.0000     0.0000     0.0000   1  13   0.0037   0.0076   0.0040  -0.0036   0.0045  -0.0028   0.00   18.3
2021/01/23 07:50:09.000  -2266976.5736   5008919.4755   3222165.2321         0.0000         0.0000         0.0000         0.0000     0.0000     0.0000   1  14   0.0037   0.0067   0.0038  -0.0036   0.0040  -0.0028   0.00   19.2
2021/01/23 07:50:10.000  -2266974.2446   5008921.1468   3222164.1744         0.0000         0.0000         0.0000         0.0000     0.0000     0.0000   1  14   0.0037   0.0061   0.0037  -0.0036   0.0036  -0.0028   0.00    2.5
2021/01/23 07:50:11.000  -2266972.8212   5008923.0836   3222162.3287         0.0000         0.0000         0.0000         0.0000     0.0000     0.0000   1  13   0.0048   0.0076   0.0039  -0.0052   0.0044  -0.0035   0.00   10.4
2021/01/23 07:50:12.000  -2266971.2253   5008924.5363   3222159.5754         0.0000         0.0000         0.0000         0.0000     0.0000     0.0000   2  12   0.4019   0.5643   0.3287  -0.3783   0.3106  -0.2747   0.00    1.3
2021/01/23 07:50:13.000  -2266971.4893   5008926.9303   3222157.4215        -0.0000         0.0000         0.0000         0.0000     0.0000     0.0000   1  10   0.0052   0.0084   0.0041  -0.0054   0.0049  -0.0036   0.00    3.3
2021/01/23 07:50:14.000  -2266971.2669   5008928.7996   3222154.6906         0.0000         0.0000         0.0000         0.0000     0.0000     0.0000   1  11   0.0055   0.0082   0.0046  -0.0057   0.0053  -0.0041   0.00   15.1
2021/01/23 07:50:15.000  -2266971.3548   5008930.6602   3222151.6619         0.0000         0.0000         0.0000         0.0000     0.0000     0.0000   1  12   0.0052   0.0081   0.0046  -0.0055   0.0053  -0.0040   0.00   19.7
2021/01/23 07:50:16.000  -2266971.8667   5008932.5631   3222148.3359         0.0000         0.0000         0.0000         0.0000     0.0000     0.0000   1  13   0.0047   0.0070   0.0042  -0.0048   0.0047  -0.0035   0.00   24.7
2021/01/23 07:50:17.000  -2266972.7050   5008934.5068   3222144.7426         0.0000         0.0000         0.0000         0.0000     0.0000     0.0000   1  13   0.0051   0.0066   0.0042  -0.0051   0.0044  -0.0038   0.00    8.9
2021/01/23 07:50:18.000  -2266973.7205   5008936.4081   3222141.1335         0.0000         0.0000         0.0000         0.0000     0.0000     0.0000   1  12   0.0051   0.0073   0.0045  -0.0053   0.0050  -0.0039   0.00   17.9
2021/01/23 07:50:19.000  -2266974.7706   5008938.2354   3222137.6222         0.0000         0.0000         0.0000         0.0000     0.0000     0.0000   1  13   0.0047   0.0066   0.0040  -0.0048   0.0044  -0.0035   0.00    8.9
2021/01/23 07:50:20.000  -2266975.8910   5008940.0050   3222134.1086         0.0000         0.0000         0.0000         0.0000     0.0000     0.0000   1  13   0.0037   0.0076   0.0040  -0.0036   0.0045  -0.0028   0.00   19.6
2021/01/23 07:50:21.000  -2266977.0739   5008941.6784   3222130.6064         0.0000         0.0000         0.0000         0.0000     0.0000     0.0000   1  13   0.0037   0.0067   0.0038  -0.0036   0.0040  -0.0028   0.00   13.2
2021/01/23 07:50:22.000  -2266978.5464   5008943.0878   3222127.3188         0.0000         0.0000         0.0000         0.0000     0.0000     0.0000   1  12   0.0042   0.0068   0.0042  -0.0039   0.0042  -0.0034   0.00   20.8
2021/01/23 07:50:23.000  -2266980.5991   5008944.0446   3222124.4350         0.0000         0.0000         0.0000         0.0000     0.0000     0.0000   1  13   0.0042   0.0062   0.0041  -0.0039   0.0039  -0.0034   0.00   26.6
2021/01/23 07:50:24.000  -2266983.2525   5008944.3536   3222122.1046         0.0000         0.0000         0.0000         0.0000     0.0000     0.0000   1  12   0.0042   0.0064   0.0041  -0.0038   0.0040  -0.0033   0.00   27.3
2021/01/23 07:50:25.000  -2266986.3286   5008944.0013   3222120.4982         0.0000         0.0000         0.0000         0.0000     0.0000     0.0000   1  16   0.0039   0.0054   0.0038  -0.0038   0.0037  -0.0030   0.00   11.6
2021/01/23 07:50:26.000  -2266989.6958   5008942.9898   3222119.6728         0.0000         0.0000         0.0000         0.0000     0.0000     0.0000   1  16   0.0037   0.0052   0.0036  -0.0036   0.0035  -0.0028   0.00   12.7
2021/01/23 07:50:27.000  -2266993.1849   5008941.5614   3222119.4883         0.0000         0.0000         0.0000         0.0000     0.0000     0.0000   1  15   0.0037   0.0058   0.0036  -0.0036   0.0034  -0.0028   0.00   12.2
2021/01/23 07:50:28.000  -2266996.7404   5008939.8744   3222119.6616         0.0000         0.0000         0.0000         0.0000     0.0000     0.0000   1  15   0.0037   0.0058   0.0036  -0.0036   0.0034  -0.0028   0.00   12.5
2021/01/23 07:50:29.000  -2267000.4102   5008938.0689   3222119.9938         0.0000         0.0000         0.0000         0.0000     0.0000     0.0000   1  15   0.0037   0.0055   0.0035  -0.0036   0.0033  -0.0028   0.00    7.3
2021/01/23 07:50:30.000  -2267004.1688   5008936.1402   3222120.3929         0.0000         0.0000         0.0000         0.0000     0.0000     0.0000   1  15   0.0037   0.0055   0.0035  -0.0036   0.0033  -0.0028   0.00   15.1
2021/01/23 07:50:31.000  -2267008.1484   5008934.1028   3222120.8678         0.0000         0.0000         0.0000         0.0000     0.0000     0.0000   1  16   0.0037   0.0051   0.0035  -0.0036   0.0033  -0.0028   0.00   12.0
2021/01/23 07:50:32.000  -2267012.6384   5008931.7569   3222121.4802         0.0000         0.0000         0.0000         0.0000     0.0000     0.0000   1  16   0.0037   0.0051   0.0035  -0.0036   0.0033  -0.0028   0.00   10.6
2021/01/23 07:50:33.000  -2267017.2850   5008929.2696   3222122.1618         0.0000         0.0000         0.0000         0.0000     0.0000     0.0000   1  16   0.0037   0.0051   0.0035  -0.0036   0.0033  -0.0028   0.00    8.4
2021/01/23 07:50:34.000  -2267021.8044   5008926.7478   3222123.0064         0.0000         0.0000         0.0000         0.0000     0.0000     0.0000   1  16   0.0037   0.0051   0.0035  -0.0036   0.0033  -0.0028   0.00   16.4
2021/01/23 07:50:35.000  -2267026.4374   5008924.1023   3222123.9091         0.0000         0.0000         0.0000         0.0000     0.0000     0.0000   1  16   0.0037   0.0051   0.0035  -0.0036   0.0033  -0.0028   0.00   13.8
2021/01/23 07:50:36.000  -2267031.2648   5008921.3388   3222124.7906         0.0000         0.0000         0.0000         0.0000     0.0000     0.0000   1  15   0.0047   0.0060   0.0037  -0.0047   0.0038  -0.0034   0.00    9.5
2021/01/23 07:50:37.000  -2267036.2670   5008918.5363   3222125.6610         0.0000         0.0000         0.0000         0.0000     0.0000     0.0000   1  15   0.0047   0.0060   0.0037  -0.0047   0.0038  -0.0034   0.00    5.4
2021/01/23 07:50:38.000  -2267041.3923   5008915.6335   3222126.5359         0.0000         0.0000         0.0000         0.0000     0.0000     0.0000   1  14   0.0047   0.0067   0.0037  -0.0050   0.0039  -0.0034   0.00   18.9
2021/01/23 07:50:39.000  -2267046.6409   5008912.6547   3222127.4374         0.0000         0.0000         0.0000         0.0000     0.0000     0.0000   1  15   0.0042   0.0063   0.0034  -0.0044   0.0034  -0.0029   0.00   13.8
2021/01/23 07:50:40.000  -2267051.9794   5008909.6085   3222128.4128         0.0000         0.0000         0.0000         0.0000     0.0000     0.0000   1  15   0.0042   0.0063   0.0034  -0.0044   0.0034  -0.0029   0.00   15.7
