% ref pos   : -2267820.0823  5009409.7389  3220955.7226
%  GPST                      x-ecef(m)      y-ecef(m)      z-ecef(m)   Q  ns   sdx(m)   sdy(m)   sdz(m)  sdxy(m)  sdyz(m)  sdzx(m) age(s)  ratio
2021/01/23 07:46:16.000  -2267400.8380   5008868.4056   3221964.5157         0.0000         0.0000         0.0000         0.0000     0.0000     0.0000   2  13   0.1156   0.2441   0.1455  -0.1607   0.1840  -0.1238   0.00    0.0
2021/01/23 07:46:17.000  -2267400.8272   5008868.3811   3221964.5024         0.0000         0.0000         0.0000         0.0000     0.0000     0.0000   2  15   0.1148   0.2427   0.1446  -0.1596   0.1828  -0.1229   0.00    0.0
2021/01/23 07:46:18.000  -2267400.8282   5008868.3935   3221964.5086         0.0000         0.0000         0.0000         0.0000     0.0000     0.0000   2  13   0.1148   0.2422   0.1444  -0.1593   0.1825  -0.1228   0.00    0.0
2021/01/23 07:46:19.000  -2267400.8346   5008868.4067   3221964.5155         0.0000         0.0000         0.0000         0.0000     0.0000     0.0000   2  13   0.1146   0.2416   0.1441  -0.1589   0.1821  -0.1225   0.00    0.0
2021/01/23 07:46:20.000  -2267400.8187   5008868.3903   3221964.4987         0.0000         0.0000         0.0000         0.0000     0.0000     0.0000   2  14   0.1141   0.2410   0.1436  -0.1584   0.1815  -0.1220   0.00    0.0
2021/01/23 07:46:21.000  -2267400.8234   5008868.3966   3221964.5057         0.0000         0.0000         0.0000         0.0000     0.0000     0.0000   2  14   0.1139   0.2405   0.1433  -0.1581   0.1811  -0.1217   0.00    0.0
2021/01/23 07:46:22.000  -2267400.8348   5008868.4016   3221964.5119         0.0000         0.0000         0.0000         0.0000     0.0000     0.0000   2  14   0.1137   0.2401   0.1431  -0.1578   0.1808  -0.1215   0.00    0.0
2021/01/23 07:46:23.000  -2267400.8222   5008868.3883   3221964.5014         0.0000         0.0000         0.0000         0.0000     0.0000     0.0000   2  14   0.1136   0.2397   0.1429  -0.1575   0.1805  -0.1213   0.00    0.0
2021/01/23 07:46:24.000  -2267400.8289   5008868.3984   3221964.5045         0.0000         0.0000         0.0000         0.0000     0.0000     0.0000   2  14   0.1133   0.2393   0.1427  -0.1572   0.1802  -0.1211   0.00    0.0
2021/01/23 07:46:25.000  -2267400.8189   5008868.3871   3221964.4943         0.0000         0.0000         0.0000         0.0000     0.0000     0.0000   2  14   0.1134   0.2393   0.1427  -0.1572   0.1802  -0.1211   0.00    0.0
2021/01/23 07:46:26.000  -2267400.8341   5008868.4075   3221964.5067         0.0000         0.0000         0.0000         0.0000     0.0000     0.0000   2  13   0.1135   0.2392   0.1427  -0.1573   0.1802  -0.1212   0.00    0.0
2021/01/23 07:46:27.000  -2267400.8349   5008868.4149   3221964.5150         0.0000         0.0000         0.0000         0.0000     0.0000     0.0000   2  13   0.1134   0.2390   0.1426  -0.1571   0.1801  -0.1211   0.00    0.0
2021/01/23 07:46:28.000  -2267400.8364   5008868.4173   3221964.5125         0.0000         0.0000         0.0000         0.0000     0.0000     0.0000   2  13   0.1134   0.2389   0.1426  -0.1571   0.1800  -0.1211   0.00    0.0
2021/01/23 07:46:29.000  -2267400.8272   5008868.4092   3221964.5029         0.0000         0.0000         0.0000         0.0000     0.0000     0.0000   2  15   0.1129   0.2385   0.1422  -0.1566   0.1796  -0.1206   0.00    0.0
2021/01/23 07:46:30.000  -2267400.8341   5008868.4153   3221964.5110         0.0000         0.0000         0.0000         0.0000     0.0000     0.0000   2  14   0.1131   0.2386   0.1424  -0.1568   0.1797  -0.1208   0.00    0.0
2021/01/23 07:46:31.000  -2267400.8375   5008868.4262   3221964.5141         0.0000         0.0000         0.0000         0.0000     0.0000     0.0000   2  14   0.1131   0.2385   0.1423  -0.1567   0.1796  -0.1207   0.00    0.0
2021/01/23 07:46:32.000  -2267400.8379   5008868.4258   3221964.5143         0.0000         0.0000         0.0000         0.0000     0.0000     0.0000   2  14   0.1130   0.2383   0.1422  -0.1566   0.1795  -0.1207   0.00    0.0
2021/01/23 07:46:33.000  -2267400.8346   5008868.4204   3221964.5048         0.0000         0.0000         0.0000         0.0000     0.0000     0.0000   2  15   0.1128   0.2381   0.1421  -0.1564   0.1793  -0.1205   0.00    0.0
2021/01/23 07:46:34.000  -2267400.8389   5008868.4267   3221964.5056         0.0000         0.0000         0.0000         0.0000     0.0000     0.0000   2  14   0.1131   0.2383   0.1423  -0.1567   0.1795  -0.1208   0.00    0.0
2021/01/23 07:46:35.000  -2267400.8517   5008868.4376   3221964.5171         0.0000         0.0000         0.0000         0.0000     0.0000     0.0000   2  14   0.1128   0.2380   0.1421  -0.1564   0.1793  -0.1205   0.00    0.0
2021/01/23 07:46:36.000  -2267400.8501   5008868.4433   3221964.5276         0.0000         0.0000         0.0000         0.0000     0.0000     0.0000   2  13   0.1131   0.2382   0.1423  -0.1566   0.1795  -0.1208   0.00    0.0
2021/01/23 07:46:37.000  -2267400.8633   5008868.4604   3221964.5340         0.0000         0.0000         0.0000         0.0000     0.0000     0.0000   2  13   0.1131   0.2382   0.1423  -0.1566   0.1795  -0.1207   0.00    0.0
2021/01/23 07:46:38.000  -2267400.8562   5008868.4594   3221964.5283         0.0000         0.0000         0.0000         0.0000     0.0000     0.0000   2  14   0.1128   0.2379   0.1421  -0.1563   0.1792  -0.1205   0.00    0.0
2021/01/23 07:46:39.000  -2267400.8576   5008868.4689   3221964.5323         0.0000         0.0000         0.0000         0.0000     0.0000     0.0000   2  13   0.1131   0.2381   0.1423  -0.1566   0.1795  -0.1207   0.00    0.0
2021/01/23 07:46:40.000  -2267400.8519   5008868.4585   3221964.5230         0.0000         0.0000         0.0000         0.0000     0.0000     0.0000   2  14   0.1130   0.2381   0.1422  -0.1565   0.1794  -0.1207   0.00    0.0
2021/01/23 07:46:41.000  -2267400.8655   5008868.4805   3221964.5357         0.0000         0.0000         0.0000         0.0000     0.0000     0.0000   2  13   0.1130   0.2380   0.1422  -0.1565   0.1794  -0.1207   0.00    0.0
2021/01/23 07:46:42.000  -2267400.8711   5008868.4946   3221964.5497         0.0000         0.0000         0.0000         0.0000     0.0000     0.0000   2  14   0.1127   0.2378   0.1420  -0.1562   0.1792  -0.1204   0.00    0.0
2021/01/23 07:46:43.000  -2267400.8707   5008868.4885   3221964.5431         0.0000         0.0000         0.0000         0.0000     0.0000     0.0000   2  14   0.1128   0.2378   0.1420  -0.1562   0.1792  -0.1204   0.00    0.0
2021/01/23 07:46:44.000  -2267400.8593   5008868.4802   3221964.5324         0.0000         0.0000         0.0000         0.0000     0.0000     0.0000   2  14   0.1128   0.2378   0.1421  -0.1562   0.1792  -0.1204   0.00    0.0
2021/01/23 07:46:45.000  -2267400.8623   5008868.4856   3221964.5432         0.0000         0.0000         0.0000         0.0000     0.0000     0.0000   2  14   0.1128   0.2378   0.1421  -0.1562   0.1792  -0.1205   0.00    0.0
2021/01/23 07:46:46.000  -2267400.8604   5008868.4797   3221964.5387         0.0000         0.0000         0.0000         0.0000     0.0000     0.0000   2  14   0.1128   0.2378   0.1421  -0.1562   0.1792  -0.1205   0.00    0.0
2021/01/23 07:46:47.000  -2267400.8634   5008868.4838   3221964.5405         0.0000         0.0000         0.0000         0.0000     0.0000     0.0000   2  13   0.1130   0.2380   0.1423  -0.1565   0.1794  -0.1207   0.00    0.0
2021/01/23 07:46:48.000  -2267400.8754   5008868.5028   3221964.5540         0.0000         0.0000         0.0000         0.0000     0.0000     0.0000   2  13   0.1130   0.2379   0.1422  -0.1564   0.1794  -0.1206   0.00    0.0
2021/01/23 07:46:49.000  -2267400.9308   5008868.4656   3221964.6186         0.0000         0.0000         0.0000         0.0000     0.0000     0.0000   2  13   0.1130   0.2379   0.1422  -0.1564   0.1793  -0.1206   0.00    0.0
2021/01/23 07:46:50.000  -2267401.1599   5008868.1575   3221964.8428         0.0000         0.0000         0.0000         0.0000     0.0000     0.0000   2  15   0.1125   0.2375   0.1419  -0.1560   0.1790  -0.1202   0.00    0.0
2021/01/23 07:46:51.000  -2267401.6151   5008867.6900   3221965.3301         0.0000         0.0000         0.0000         0.0000     0.0000     0.0000   2  15   0.1126   0.2376   0.1419  -0.1561   0.1791  -0.1203   0.00    0.0
2021/01/23 07:46:52.000  -2267402.1618   5008867.0260   3221965.9697         0.0000         0.0000         0.0000         0.0000     0.0000     0.0000   2  14   0.1127   0.2377   0.1420  -0.1561   0.1791  -0.1203   0.00    0.0
2021/01/23 07:46:53.000  -2267402.7199   5008866.2087   3221966.7941         0.0000         0.0000         0.0000         0.0000     0.0000     0.0000   2  14   0.1126   0.2376   0.1420  -0.1561   0.1791  -0.1203   0.00    0.0
2021/01/23 07:46:54.000  -2267403.3423   5008865.1678   3221967.9166         0.0000         0.0000         0.0000         0.0000     0.0000     0.0000   2  14   0.1126   0.2376   0.1420  -0.1560   0.1791  -0.1203   0.00    0.0
2021/01/23 07:46:55.000  -2267403.9244   5008864.0436   3221969.2893         0.0000         0.0000         0.0000         0.0000     0.0000     0.0000   2  14   0.1126   0.2376   0.1420  -0.1560   0.1791  -0.1202   0.00    0.0
2021/01/23 07:46:56.000  -2267404.4348   5008862.8192   3221970.7940         0.0000         0.0000         0.0000         0.0000     0.0000     0.0000   2  13   0.1126   0.2376   0.1420  -0.1559   0.1791  -0.1202   0.00    0.0
2021/01/23 07:46:57.000  -2267404.8645   5008861.5544   3221972.4861         0.0000         0.0000         0.0000         0.0000     0.0000     0.0000   2  15   0.1125   0.2370   0.1417  -0.1558   0.1787  -0.1201   0.00    0.0
2021/01/23 07:46:58.000  -2267405.1786   5008860.2493   3221974.2435         0.0000         0.0000         0.0000         0.0000     0.0000     0.0000   2  15   0.1125   0.2371   0.1417  -0.1558   0.1787  -0.1201   0.00    0.0
2021/01/23 07:46:59.000  -2267405.4110   5008859.0531   3221975.9312         0.0000         0.0000         0.0000         0.0000     0.0000     0.0000   2  15   0.1125   0.2371   0.1417  -0.1558   0.1787  -0.1201   0.00    0.0
2021/01/23 07:47:00.000  -2267405.4879   5008857.9303   3221977.5864         0.0000         0.0000         0.0000         0.0000     0.0000     0.0000   2  17   0.1125   0.2369   0.1417  -0.1558   0.1786  -0.1201   0.00    0.0
2021/01/23 07:47:01.000  -2267405.3950   5008856.6676   3221979.6152         0.0000         0.0000         0.0000         0.0000     0.0000     0.0000   2  16   0.1125   0.2370   0.1417  -0.1559   0.1786  -0.1202   0.00    0.0
2021/01/23 07:47:02.000  -2267405.0450   5008855.5242   3221981.6648         0.0000         0.0000         0.0000         0.0000     0.0000     0.0000   2  16   0.1125   0.2370   0.1417  -0.1559   0.1787  -0.1202   0.00    0.0
2021/01/23 07:47:03.000  -2267404.4895   5008854.5067   3221983.5151         0.0000         0.0000         0.0000         0.0000     0.0000     0.0000   2  16   0.1125   0.2371   0.1418  -0.1559   0.1787  -0.1202   0.00    0.0
2021/01/23 07:47:04.000  -2267403.8047   5008853.7171   3221985.1770         0.0000         0.0000         0.0000         0.0000     0.0000     0.0000   2  16   0.1125   0.2371   0.1418  -0.1559   0.1787  -0.1202   0.00    0.0
2021/01/23 07:47:05.000  -2267402.9899   5008853.1534   3221986.6218         0.0000         0.0000         0.0000         0.0000     0.0000     0.0000   2  16   0.1126   0.2372   0.1418  -0.1560   0.1788  -0.1203   0.00    0.0
2021/01/23 07:47:06.000  -2267401.9932   5008852.7365   3221987.9903         0.0000         0.0000         0.0000         0.0000     0.0000     0.0000   2  16   0.1126   0.2373   0.1419  -0.1560   0.1789  -0.1203   0.00    0.0
2021/01/23 07:47:07.000  -2267400.6841   5008852.5285   3221989.2810         0.0000         0.0000         0.0000         0.0000     0.0000     0.0000   2  15   0.1127   0.2376   0.1419  -0.1561   0.1790  -0.1203   0.00    0.0
2021/01/23 07:47:08.000  -2267399.1545   5008852.6140   3221990.2717         0.0000         0.0000         0.0000         0.0000     0.0000     0.0000   2  14   0.1127   0.2370   0.1420  -0.1560   0.1789  -0.1204   0.00    0.0
2021/01/23 07:47:09.000  -2267397.4643   5008852.9979   3221990.7978         0.0000         0.0000         0.0000         0.0000     0.0000     0.0000   2  14   0.1127   0.2370   0.1419  -0.1560   0.1789  -0.1204   0.00    0.0
2021/01/23 07:47:10.000  -2267395.4861   5008853.9512   3221990.7381         0.0000         0.0000         0.0000         0.0000     0.0000     0.0000   2  14   0.1128   0.2370   0.1419  -0.1561   0.1789  -0.1204   0.00    0.0
2021/01/23 07:47:11.000  -2267393.5512   5008855.3680   3221989.8428         0.0000         0.0000         0.0000         0.0000     0.0000     0.0000   2  15   0.1129   0.2369   0.1419  -0.1562   0.1788  -0.1204   0.00    0.0
2021/01/23 07:47:12.000  -2267391.9318   5008857.2348   3221988.2117         0.0000         0.0000         0.0000         0.0000     0.0000     0.0000   2  14   0.1129   0.2369   0.1418  -0.1562   0.1788  -0.1204   0.00    0.0
2021/01/23 07:47:13.000  -2267390.5084   5008859.2463   3221986.0752         0.0000         0.0000         0.0000         0.0000     0.0000     0.0000   2  16   0.1129   0.2367   0.1417  -0.1561   0.1787  -0.1203   0.00    0.0
2021/01/23 07:47:14.000  -2267389.1950   5008861.4125   3221983.6807         0.0000         0.0000         0.0000         0.0000     0.0000     0.0000   2  15   0.1129   0.2367   0.1417  -0.1561   0.1786  -0.1203   0.00    0.0
2021/01/23 07:47:15.000  -2267388.0364   5008863.5273   3221981.2738         0.0000         0.0000         0.0000         0.0000     0.0000     0.0000   2  15   0.1129   0.2367   0.1417  -0.1561   0.1786  -0.1203   0.00    0.0
2021/01/23 07:47:16.000  -2267387.0126   5008865.5091   3221978.9714         0.0000         0.0000         0.0000         0.0000     0.0000     0.0000   2  15   0.1129   0.2367   0.1417  -0.1561   0.1786  -0.1203   0.00    0.0
2021/01/23 07:47:17.000  -2267386.0272   5008867.4483   3221976.6864         0.0000         0.0000         0.0000         0.0000     0.0000     0.0000   2  15   0.1129   0.2367   0.1417  -0.1561   0.1786  -0.1203   0.00    0.0
2021/01/23 07:47:18.000  -2267384.9680   5008869.6118   3221974.0840         0.0000         0.0000         0.0000         0.0000     0.0000     0.0000   2  15   0.1129   0.2366   0.1417  -0.1560   0.1786  -0.1203   0.00    0.0
2021/01/23 07:47:19.000  -2267383.8848   5008871.9054   3221971.3546         0.0000         0.0000         0.0000         0.0000     0.0000     0.0000   2  15   0.1128   0.2366   0.1416  -0.1560   0.1785  -0.1203   0.00    0.0
2021/01/23 07:47:20.000  -2267382.7986   5008874.1071   3221968.6642         0.0000         0.0000         0.0000         0.0000     0.0000     0.0000   2  16   0.1126   0.2364   0.1416  -0.1558   0.1784  -0.1202   0.00    0.0
2021/01/23 07:47:21.000  -2267381.7221   5008876.3986   3221965.9088         0.0000         0.0000         0.0000         0.0000     0.0000     0.0000   2  16   0.1126   0.2364   0.1415  -0.1558   0.1784  -0.1201   0.00    0.0
2021/01/23 07:47:22.000  -2267380.6176   5008878.7391   3221963.0447         0.0000         0.0000         0.0000         0.0000     0.0000     0.0000   2  16   0.1128   0.2365   0.1415  -0.1559   0.1785  -0.1202   0.00    0.0
2021/01/23 07:47:23.000  -2267379.5107   5008881.2378   3221960.0193         0.0000         0.0000         0.0000         0.0000     0.0000     0.0000   2  14   0.1128   0.2365   0.1415  -0.1559   0.1784  -0.1201   0.00    0.0
2021/01/23 07:47:24.000  -2267378.4464   5008883.8891   3221956.6904         0.0000         0.0000         0.0000         0.0000     0.0000     0.0000   2  14   0.1128   0.2365   0.1415  -0.1558   0.1784  -0.1201   0.00    0.0
2021/01/23 07:47:25.000  -2267377.4260   5008886.4646   3221953.2129        -0.0000         0.0000         0.0000         0.0000     0.0000     0.0000   2  12   0.1129   0.2365   0.1414  -0.1558   0.1784  -0.1201   0.00    0.0
2021/01/23 07:47:26.000  -2267376.4962   5008889.0509   3221949.7836         0.0000         0.0000         0.0000         0.0000     0.0000     0.0000   2  12   0.1128   0.2364   0.1414  -0.1558   0.1783  -0.1200   0.00    0.0
2021/01/23 07:47:27.000  -2267375.6747   5008891.6894   3221946.1897         0.0000         0.0000         0.0000         0.0000     0.0000     0.0000   2  12   0.1127   0.2363   0.1413  -0.1557   0.1783  -0.1200   0.00    0.0
2021/01/23 07:47:28.000  -2267374.8112   5008894.4059   3221942.2517         0.0000         0.0000         0.0000         0.0000     0.0000     0.0000   2  13   0.1124   0.2362   0.1413  -0.1556   0.1782  -0.1199   0.00    0.0
2021/01/23 07:47:29.000  -2267374.0760   5008897.3827   3221938.1400         0.0000         0.0000         0.0000         0.0000     0.0000     0.0000   2  13   0.1124   0.2361   0.1412  -0.1555   0.1781  -0.1198   0.00    0.0
2021/01/23 07:47:30.000  -2267373.3004   5008900.4521   3221933.8374         0.0000         0.0000         0.0000         0.0000     0.0000     0.0000   2  13   0.1124   0.2361   0.1412  -0.1555   0.1780  -0.1198   0.00    0.0
2021/01/23 07:47:31.000  -2267372.5426   5008903.6264   3221929.3833         0.0000         0.0000         0.0000         0.0000     0.0000     0.0000   2  13   0.1123   0.2360   0.1411  -0.1554   0.1780  -0.1198   0.00    0.0
2021/01/23 07:47:32.000  -2267371.7570   5008906.7760   3221924.9057         0.0000         0.0000         0.0000         0.0000     0.0000     0.0000   2  13   0.1123   0.2359   0.1411  -0.1554   0.1779  -0.1197   0.00    0.0
2021/01/23 07:47:33.000  -2267370.9953   5008909.7514   3221920.5551         0.0000         0.0000         0.0000         0.0000     0.0000     0.0000   2  13   0.1123   0.2358   0.1410  -0.1553   0.1778  -0.1197   0.00    0.0
2021/01/23 07:47:34.000  -2267370.3199   5008912.4516   3221916.5729         0.0000         0.0000         0.0000         0.0000     0.0000     0.0000   2  13   0.1122   0.2357   0.1409  -0.1552   0.1777  -0.1196   0.00    0.0
2021/01/23 07:47:35.000  -2267369.8201   5008914.8177   3221912.8976         0.0000         0.0000         0.0000         0.0000     0.0000     0.0000   2  13   0.1122   0.2356   0.1409  -0.1552   0.1777  -0.1196   0.00    0.0
2021/01/23 07:47:36.000  -2267369.4969   5008917.1548   3221909.3851         0.0000         0.0000         0.0000         0.0000     0.0000     0.0000   2  13   0.1122   0.2355   0.1408  -0.1551   0.1776  -0.1195   0.00    0.0
2021/01/23 07:47:37.000  -2267369.0932   5008919.4292   3221905.8475         0.0000         0.0000         0.0000         0.0000     0.0000     0.0000   2  14   0.1121   0.2354   0.1407  -0.1550   0.1775  -0.1194   0.00    0.0
2021/01/23 07:47:38.000  -2267368.6564   5008921.9355   3221902.0451         0.0000         0.0000         0.0000         0.0000     0.0000     0.0000   2  13   0.1121   0.2353   0.1407  -0.1550   0.1774  -0.1194   0.00    0.0
2021/01/23 07:47:39.000  -2267368.2031   5008924.5543   3221898.0674         0.0000         0.0000         0.0000         0.0000     0.0000     0.0000   2  13   0.1120   0.2352   0.1406  -0.1549   0.1773  -0.1193   0.00    0.0
2021/01/23 07:47:40.000  -2267367.8021   5008927.0458   3221894.3219         0.0000         0.0000         0.0000         0.0000     0.0000     0.0000   2  13   0.1120   0.2351   0.1405  -0.1548   0.1772  -0.1193   0.00    0.0
2021/01/23 07:47:41.000  -2267367.4202   5008929.2695   3221890.9630         0.0000         0.0000         0.0000         0.0000     0.0000     0.0000   2  13   0.1119   0.2350   0.1404  -0.1547   0.1771  -0.1192   0.00    0.0
2021/01/23 07:47:42.000  -2267367.0950   5008931.1485   3221887.9569         0.0000         0.0000         0.0000         0.0000     0.0000     0.0000   2  14   0.1119   0.2348   0.1403  -0.1546   0.1770  -0.1191   0.00    0.0
2021/01/23 07:47:43.000  -2267366.7883   5008933.0435   3221885.1364         0.0000         0.0000         0.0000         0.0000     0.0000     0.0000   2  14   0.1118   0.2348   0.1403  -0.1546   0.1769  -0.1191   0.00    0.0
2021/01/23 07:47:44.000  -2267366.4408   5008934.7599   3221882.6031         0.0000         0.0000         0.0000         0.0000     0.0000     0.0000   2  13   0.1118   0.2347   0.1402  -0.1545   0.1768  -0.1190   0.00    0.0
2021/01/23 07:47:45.000  -2267366.0670   5008936.2640   3221880.4488         0.0000         0.0000         0.0000         0.0000     0.0000     0.0000   2  14   0.1117   0.2344   0.1401  -0.1544   0.1766  -0.1190   0.00    0.0
2021/01/23 07:47:46.000  -2267365.5517   5008937.5743   3221878.4625         0.0000         0.0000         0.0000         0.0000     0.0000     0.0000   2  14   0.1117   0.2343   0.1400  -0.1543   0.1765  -0.1189   0.00    0.0
2021/01/23 07:47:47.000  -2267364.9038   5008939.0967   3221876.5115         0.0000         0.0000         0.0000         0.0000     0.0000     0.0000   2  14   0.1117   0.2341   0.1399  -0.1542   0.1764  -0.1188   0.00    0.0
2021/01/23 07:47:48.000  -2267363.6932   5008940.7088   3221874.6413         0.0000         0.0000         0.0000         0.0000     0.0000     0.0000   2  14   0.1116   0.2340   0.1399  -0.1541   0.1763  -0.1188   0.00    0.0
2021/01/23 07:47:49.000  -2267361.7615   5008942.3805   3221873.2569         0.0000         0.0000         0.0000         0.0000     0.0000     0.0000   2  15   0.1115   0.2337   0.1397  -0.1540   0.1761  -0.1187   0.00    0.0
2021/01/23 07:47:50.000  -2267359.1731   5008943.8703   3221872.6153         0.0000         0.0000         0.0000         0.0000     0.0000     0.0000   2  15   0.1115   0.2336   0.1397  -0.1539   0.1760  -0.1186   0.00    0.0
2021/01/23 07:47:51.000  -2267356.1812   5008944.9919   3221872.7044         0.0000         0.0000         0.0000         0.0000     0.0000     0.0000   2  16   0.1113   0.2334   0.1396  -0.1537   0.1759  -0.1185   0.00    0.0
2021/01/23 07:47:52.000  -2267353.2736   5008945.8663   3221873.2991         0.0000         0.0000         0.0000         0.0000     0.0000     0.0000   2  16   0.1113   0.2333   0.1397  -0.1537   0.1758  -0.1186   0.00    0.0
2021/01/23 07:47:53.000  -2267350.4890   5008946.7086   3221873.9699         0.0000         0.0000         0.0000         0.0000     0.0000     0.0000   2  15   0.1115   0.2333   0.1397  -0.1537   0.1758  -0.1187   0.00    0.0
2021/01/23 07:47:54.000  -2267347.6719   5008947.6114   3221874.5689         0.0000         0.0000         0.0000         0.0000     0.0000     0.0000   2  15   0.1118   0.2334   0.1399  -0.1539   0.1759  -0.1188   0.00    0.0
2021/01/23 07:47:55.000  -2267344.5659   5008948.4911   3221875.1110         0.0000         0.0000         0.0000         0.0000     0.0000     0.0000   2  15   0.1118   0.2335   0.1398  -0.1539   0.1758  -0.1188   0.00    0.0
2021/01/23 07:47:56.000  -2267341.3732   5008949.5599   3221875.6588         0.0000         0.0000         0.0000         0.0000     0.0000     0.0000   2  12   0.1120   0.2337   0.1400  -0.1540   0.1759  -0.1190   0.00    0.0
2021/01/23 07:47:57.000  -2267337.9676   5008950.6458   3221876.3225         0.0000         0.0000         0.0000         0.0000     0.0000     0.0000   2  12   0.1123   0.2338   0.1404  -0.1542   0.1761  -0.1194   0.00    0.0
2021/01/23 07:47:58.000  -2267334.4268   5008951.6462   3221877.0515         0.0000         0.0000         0.0000         0.0000     0.0000     0.0000   2  11   0.1124   0.2338   0.1405  -0.1542   0.1761  -0.1195   0.00    0.0
2021/01/23 07:47:59.000  -2267330.7365   5008952.7099   3221877.9153         0.0000         0.0000         0.0000         0.0000     0.0000     0.0000   2  11   0.1126   0.2338   0.1408  -0.1542   0.1761  -0.1197   0.00    0.0
2021/01/23 07:48:00.000  -2267326.8945   5008953.6937   3221878.8997         0.0000         0.0000         0.0000         0.0000     0.0000     0.0000   2  10   0.1125   0.2339   0.1408  -0.1542   0.1761  -0.1197   0.00    0.0
2021/01/23 07:48:01.000  -2267322.8860   5008954.7051   3221879.9506         0.0000         0.0000         0.0000         0.0000     0.0000     0.0000   2  13   0.1113   0.2335   0.1394  -0.1535   0.1756  -0.1185   0.00    0.0
2021/01/23 07:48:02.000  -2267318.7933   5008955.8193   3221881.0769         0.0000         0.0000         0.0000         0.0000     0.0000     0.0000   2  13   0.1113   0.2335   0.1394  -0.1535   0.1757  -0.1184   0.00    0.0
2021/01/23 07:48:03.000  -2267314.6989   5008956.8080   3221882.1720         0.0000         0.0000         0.0000         0.0000     0.0000     0.0000   2  13   0.1113   0.2336   0.1395  -0.1535   0.1757  -0.1185   0.00    0.0
2021/01/23 07:48:04.000  -2267310.7313   5008957.7726   3221883.3505         0.0000         0.0000         0.0000         0.0000     0.0000     0.0000   2  13   0.1113   0.2336   0.1395  -0.1536   0.1757  -0.1185   0.00    0.0
2021/01/23 07:48:05.000  -2267306.8417   5008958.6597   3221884.5666         0.0000         0.0000         0.0000         0.0000     0.0000     0.0000   2  12   0.1113   0.2337   0.1395  -0.1536   0.1757  -0.1185   0.00    0.0
2021/01/23 07:48:06.000  -2267303.0561   5008959.4707   3221885.7972         0.0000         0.0000         0.0000         0.0000     0.0000     0.0000   2  13   0.1113   0.2338   0.1394  -0.1536   0.1757  -0.1184   0.00    0.0
2021/01/23 07:48:07.000  -2267299.3801   5008960.2302   3221887.0892         0.0000         0.0000         0.0000         0.0000     0.0000     0.0000   2  13   0.1113   0.2338   0.1394  -0.1536   0.1758  -0.1185   0.00    0.0
2021/01/23 07:48:08.000  -2267295.7430   5008960.9645   3221888.3460         0.0000         0.0000         0.0000         0.0000     0.0000     0.0000   2  13   0.1114   0.2339   0.1394  -0.1537   0.1758  -0.1185   0.00    0.0
2021/01/23 07:48:09.000  -2267292.1119   5008961.6845   3221889.5466         0.0000         0.0000         0.0000         0.0000     0.0000     0.0000   2  14   0.1111   0.2340   0.1392  -0.1536   0.1757  -0.1182   0.00    0.0
2021/01/23 07:48:10.000  -2267288.3813   5008962.4523   3221890.7407         0.0000         0.0000         0.0000         0.0000     0.0000     0.0000   2  15   0.1110   0.2340   0.1391  -0.1535   0.1756  -0.1181   0.00    0.0
2021/01/23 07:48:11.000  -2267284.4813   5008963.2357   3221891.9162         0.0000         0.0000         0.0000         0.0000     0.0000     0.0000   2  14   0.1111   0.2341   0.1391  -0.1536   0.1757  -0.1181   0.00    0.0
2021/01/23 07:48:12.000  -2267280.3666   5008963.9811   3221893.0880         0.0000         0.0000         0.0000         0.0000     0.0000     0.0000   2  14   0.1111   0.2343   0.1392  -0.1536   0.1758  -0.1182   0.00    0.0
2021/01/23 07:48:13.000  -2267276.2604   5008964.7849   3221894.2260         0.0000         0.0000         0.0000         0.0000     0.0000     0.0000   2  14   0.1112   0.2345   0.1392  -0.1537   0.1758  -0.1182   0.00    0.0
2021/01/23 07:48:14.000  -2267272.2665   5008965.5009   3221895.3740         0.0000         0.0000         0.0000         0.0000     0.0000     0.0000   2  14   0.1113   0.2348   0.1393  -0.1538   0.1759  -0.1183   0.00    0.0
2021/01/23 07:48:15.000  -2267268.3260   5008966.1603   3221896.5076         0.0000         0.0000         0.0000         0.0000     0.0000     0.0000   2  14   0.1114   0.2351   0.1394  -0.1539   0.1761  -0.1184   0.00    0.0
2021/01/23 07:48:16.000  -2267264.6061   5008966.7425   3221897.6584         0.0000         0.0000         0.0000         0.0000     0.0000     0.0000   2  14   0.1118   0.2357   0.1396  -0.1541   0.1763  -0.1186   0.00    0.0
2021/01/23 07:48:17.000  -2267260.9525   5008967.2352   3221898.7170         0.0000         0.0000         0.0000         0.0000     0.0000     0.0000   2  12   0.1138   0.2370   0.1414  -0.1553   0.1775  -0.1205   0.00    0.0
2021/01/23 07:48:18.000  -2267257.3381   5008967.7480   3221899.9892         0.0000         0.0000         0.0000         0.0000     0.0000     0.0000   2  11   0.1124   0.2378   0.1401  -0.1547   0.1772  -0.1191   0.00    0.0
2021/01/23 07:48:19.000  -2267253.7587   5008968.5496   3221901.1233         0.0000         0.0000         0.0000         0.0000     0.0000     0.0000   2  10   0.1125   0.2402   0.1405  -0.1553   0.1781  -0.1193   0.00    0.0
2021/01/23 07:48:20.000  -2267249.7943   5008969.5584   3221902.0581         0.0000         0.0000         0.0000         0.0000     0.0000     0.0000   2  10   0.1127   0.2457   0.1416  -0.1568   0.1803  -0.1202   0.00    0.0
2021/01/23 07:48:22.000  -2267240.8256   5008971.4358   3221903.4670         0.0000         0.0000         0.0000         0.0000     0.0000     0.0000   2   9   0.1127   0.2379   0.1409  -0.1558   0.1777  -0.1200   0.00    0.0
2021/01/23 07:48:23.000  -2267236.0370   5008972.6443   3221904.6212         0.0000         0.0000         0.0000         0.0000     0.0000     0.0000   2  10   0.1120   0.2365   0.1401  -0.1551   0.1768  -0.1192   0.00    0.0
2021/01/23 07:48:24.000  -2267230.9295   5008973.6888   3221905.8437         0.0000         0.0000         0.0000         0.0000     0.0000     0.0000   2  11   0.1119   0.2348   0.1400  -0.1547   0.1762  -0.1191   0.00    0.0
2021/01/23 07:48:25.000  -2267225.8100   5008974.7308   3221907.2771         0.0000         0.0000         0.0000         0.0000     0.0000     0.0000   2  14   0.1114   0.2337   0.1396  -0.1540   0.1760  -0.1187   0.00    0.0
2021/01/23 07:48:26.000  -2267220.5307   5008975.7909   3221908.6723         0.0000         0.0000         0.0000         0.0000     0.0000     0.0000   2  12   0.1113   0.2334   0.1396  -0.1540   0.1758  -0.1187   0.00    0.0
2021/01/23 07:48:27.000  -2267215.3265   5008976.7341   3221910.1574         0.0000         0.0000         0.0000         0.0000     0.0000     0.0000   2  11   0.1113   0.2333   0.1397  -0.1539   0.1758  -0.1187   0.00    0.0
2021/01/23 07:48:28.000  -2267210.2131   5008977.6066   3221911.6817         0.0000         0.0000         0.0000         0.0000     0.0000     0.0000   2   9   0.1113   0.2333   0.1398  -0.1539   0.1759  -0.1187   0.00    0.0
2021/01/23 07:48:29.000  -2267205.2962   5008978.3960   3221913.3842         0.0000         0.0000         0.0000         0.0000     0.0000     0.0000   2  10   0.1113   0.2333   0.1395  -0.1539   0.1758  -0.1187   0.00    0.0
2021/01/23 07:48:30.000  -2267200.6765   5008979.0585   3221915.2350         0.0000         0.0000         0.0000         0.0000     0.0000     0.0000   2  10   0.1113   0.2334   0.1395  -0.1539   0.1759  -0.1187   0.00    0.0
2021/01/23 07:48:31.000  -2267196.2783   5008979.3138   3221917.4476         0.0000         0.0000         0.0000         0.0000     0.0000     0.0000   2  10   0.1113   0.2333   0.1395  -0.1540   0.1759  -0.1187   0.00    0.0
2021/01/23 07:48:32.000  -2267192.5190   5008978.8416   3221920.5570         0.0000         0.0000         0.0000         0.0000     0.0000     0.0000   2  13   0.1110   0.2330   0.1392  -0.1538   0.1758  -0.1185   0.00    0.0
2021/01/23 07:48:33.000  -2267189.4793   5008977.7839   3221924.0910         0.0000         0.0000         0.0000         0.0000     0.0000     0.0000   2  15   0.1110   0.2329   0.1393  -0.1538   0.1758  -0.1185   0.00    0.0
2021/01/23 07:48:34.000  -2267186.9790   5008976.5943   3221927.7044        -0.0000         0.0000         0.0000         0.0000     0.0000     0.0000   2  16   0.1109   0.2329   0.1393  -0.1538   0.1759  -0.1185   0.00    0.0
2021/01/23 07:48:35.000  -2267184.9865   5008975.2474   3221931.2506         0.0000         0.0000         0.0000         0.0000     0.0000     0.0000   2  16   0.1110   0.2330   0.1394  -0.1539   0.1760  -0.1186   0.00    0.0
2021/01/23 07:48:36.000  -2267183.4044   5008973.8257   3221934.6127         0.0000         0.0000         0.0000         0.0000     0.0000     0.0000   2  16   0.1111   0.2332   0.1396  -0.1540   0.1761  -0.1186   0.00    0.0
2021/01/23 07:48:37.000  -2267182.0650   5008972.3889   3221937.8725         0.0000         0.0000         0.0000         0.0000     0.0000     0.0000   2  16   0.1111   0.2333   0.1397  -0.1541   0.1762  -0.1187   0.00    0.0
2021/01/23 07:48:38.000  -2267180.7773   5008970.7104   3221941.4944         0.0000         0.0000         0.0000         0.0000     0.0000     0.0000   2  17   0.1111   0.2333   0.1397  -0.1541   0.1763  -0.1188   0.00    0.0
2021/01/23 07:48:39.000  -2267179.6517   5008968.7191   3221945.4428        -0.0000         0.0000         0.0000         0.0000     0.0000     0.0000   2  17   0.1112   0.2335   0.1398  -0.1542   0.1764  -0.1189   0.00    0.0
2021/01/23 07:48:40.000  -2267178.6332   5008966.5287   3221949.6461         0.0000         0.0000         0.0000         0.0000     0.0000     0.0000   2  17   0.1113   0.2336   0.1400  -0.1543   0.1765  -0.1190   0.00    0.0
2021/01/23 07:48:41.000  -2267177.5838   5008964.2393   3221953.9929         0.0000         0.0000         0.0000         0.0000     0.0000     0.0000   2  17   0.1113   0.2337   0.1401  -0.1544   0.1767  -0.1190   0.00    0.0
2021/01/23 07:48:42.000  -2267176.5153   5008961.9273   3221958.4534         0.0000         0.0000         0.0000         0.0000     0.0000     0.0000   2  16   0.1114   0.2338   0.1402  -0.1545   0.1768  -0.1191   0.00    0.0
2021/01/23 07:48:43.000  -2267175.4957   5008959.4609   3221963.0066         0.0000         0.0000         0.0000         0.0000     0.0000     0.0000   2  16   0.1114   0.2339   0.1403  -0.1546   0.1769  -0.1192   0.00    0.0
2021/01/23 07:48:44.000  -2267174.6102   5008956.8758   3221967.6888         0.0000         0.0000         0.0000         0.0000     0.0000     0.0000   2  16   0.1115   0.2340   0.1404  -0.1546   0.1770  -0.1193   0.00    0.0
2021/01/23 07:48:45.000  -2267173.6364   5008954.2299   3221972.5113         0.0000         0.0000         0.0000         0.0000     0.0000     0.0000   2  16   0.1115   0.2341   0.1405  -0.1547   0.1771  -0.1193   0.00    0.0
2021/01/23 07:48:46.000  -2267172.4065   5008951.6103   3221977.4382         0.0000         0.0000         0.0000         0.0000     0.0000     0.0000   2  16   0.1116   0.2342   0.1406  -0.1548   0.1772  -0.1194   0.00    0.0
2021/01/23 07:48:47.000  -2267171.0520   5008949.1486   3221982.1826         0.0000         0.0000         0.0000         0.0000     0.0000     0.0000   2  16   0.1116   0.2343   0.1407  -0.1548   0.1773  -0.1195   0.00    0.0
2021/01/23 07:48:48.000  -2267169.6133   5008946.8930   3221986.6634         0.0000         0.0000         0.0000         0.0000     0.0000     0.0000   2  16   0.1117   0.2344   0.1408  -0.1549   0.1774  -0.1195   0.00    0.0
2021/01/23 07:48:49.000  -2267168.2293   5008944.8496   3221990.8678         0.0000         0.0000         0.0000         0.0000     0.0000     0.0000   2  16   0.1118   0.2345   0.1409  -0.1550   0.1775  -0.1196   0.00    0.0
2021/01/23 07:48:50.000  -2267166.8073   5008942.9666   3221994.8253         0.0000         0.0000         0.0000         0.0000     0.0000     0.0000   2  15   0.1118   0.2347   0.1410  -0.1551   0.1777  -0.1197   0.00    0.0
2021/01/23 07:48:51.000  -2267165.3473   5008941.1952   3221998.5649         0.0000         0.0000         0.0000         0.0000     0.0000     0.0000   2  14   0.1118   0.2348   0.1411  -0.1551   0.1777  -0.1197   0.00    0.0
2021/01/23 07:48:52.000  -2267163.9418   5008939.5322   3222002.1385         0.0000         0.0000         0.0000         0.0000     0.0000     0.0000   2  14   0.1119   0.2349   0.1411  -0.1552   0.1778  -0.1198   0.00    0.0
2021/01/23 07:48:53.000  -2267162.6194   5008937.9866   3222005.5200         0.0000         0.0000         0.0000         0.0000     0.0000     0.0000   2  14   0.1119   0.2349   0.1412  -0.1552   0.1778  -0.1198   0.00    0.0
2021/01/23 07:48:54.000  -2267161.3493   5008936.5538   3222008.6877         0.0000         0.0000         0.0000         0.0000     0.0000     0.0000   2  14   0.1119   0.2349   0.1412  -0.1552   0.1779  -0.1198   0.00    0.0
2021/01/23 07:48:55.000  -2267160.1035   5008935.1948   3222011.6468         0.0000         0.0000         0.0000         0.0000     0.0000     0.0000   2  15   0.1119   0.2349   0.1412  -0.1553   0.1779  -0.1199   0.00    0.0
2021/01/23 07:48:56.000  -2267158.8915   5008933.9694   3222014.4324         0.0000         0.0000         0.0000         0.0000     0.0000     0.0000   2  15   0.1119   0.2349   0.1413  -0.1553   0.1779  -0.1199   0.00    0.0
2021/01/23 07:48:57.000  -2267157.5038   5008932.9096   3222017.0103         0.0000         0.0000         0.0000         0.0000     0.0000     0.0000   2  15   0.1119   0.2349   0.1413  -0.1553   0.1779  -0.1199   0.00    0.0
2021/01/23 07:48:58.000  -2267155.9444   5008931.9634   3222019.5400         0.0000         0.0000         0.0000         0.0000     0.0000     0.0000   2  15   0.1120   0.2350   0.1414  -0.1553   0.1780  -0.1200   0.00    0.0
2021/01/23 07:48:59.000  -2267154.3584   5008930.9956   3222022.1050         0.0000         0.0000         0.0000         0.0000     0.0000     0.0000   2  15   0.1120   0.2350   0.1414  -0.1553   0.1780  -0.1200   0.00    0.0
2021/01/23 07:49:00.000  -2267152.7627   5008929.9702   3222024.7356         0.0000         0.0000         0.0000         0.0000     0.0000     0.0000   2  15   0.1120   0.2350   0.1414  -0.1554   0.1780  -0.1200   0.00    0.0
2021/01/23 07:49:01.000  -2267151.1773   5008928.8461   3222027.5015         0.0000         0.0000         0.0000         0.0000     0.0000     0.0000   2  15   0.1120   0.2350   0.1415  -0.1554   0.1780  -0.1200   0.00    0.0
2021/01/23 07:49:02.000  -2267149.6279   5008927.5900   3222030.4161         0.0000         0.0000         0.0000         0.0000     0.0000     0.0000   2  15   0.1120   0.2350   0.1415  -0.1554   0.1781  -0.1200   0.00    0.0
2021/01/23 07:49:03.000  -2267148.2047   5008926.1788   3222033.5212         0.0000         0.0000         0.0000         0.0000     0.0000     0.0000   2  15   0.1120   0.2350   0.1415  -0.1554   0.1781  -0.1201   0.00    0.0
2021/01/23 07:49:04.000  -2267146.9564   5008924.5552   3222036.7857         0.0000         0.0000         0.0000         0.0000     0.0000     0.0000   2  15   0.1120   0.2350   0.1415  -0.1554   0.1781  -0.1201   0.00    0.0
2021/01/23 07:49:05.000  -2267145.9417   5008922.7506   3222040.2160         0.0000         0.0000         0.0000         0.0000     0.0000     0.0000   2  15   0.1120   0.2351   0.1416  -0.1554   0.1781  -0.1201   0.00    0.0
2021/01/23 07:49:06.000  -2267145.0100   5008920.7752   3222043.7718         0.0000         0.0000         0.0000         0.0000     0.0000     0.0000   2  15   0.1120   0.2351   0.1416  -0.1554   0.1781  -0.1201   0.00    0.0
2021/01/23 07:49:07.000  -2267143.9417   5008918.7816   3222047.4623         0.0000         0.0000         0.0000         0.0000     0.0000     0.0000   2  16   0.1120   0.2350   0.1416  -0.1554   0.1781  -0.1201   0.00    0.0
2021/01/23 07:49:08.000  -2267142.6217   5008916.6727   3222051.2239         0.0000         0.0000         0.0000         0.0000     0.0000     0.0000   2  16   0.1120   0.2350   0.1416  -0.1554   0.1781  -0.1201   0.00    0.0
2021/01/23 07:49:09.000  -2267141.0450   5008914.4894   3222055.1348         0.0000         0.0000         0.0000         0.0000     0.0000     0.0000   2  15   0.1120   0.2351   0.1416  -0.1553   0.1781  -0.1201   0.00    0.0
2021/01/23 07:49:10.000  -2267139.3044   5008912.2631   3222059.2721         0.0000         0.0000         0.0000         0.0000     0.0000     0.0000   2  16   0.1120   0.2350   0.1416  -0.1553   0.1781  -0.1201   0.00    0.0
2021/01/23 07:49:11.000  -2267137.4889   5008909.9398   3222063.5476         0.0000         0.0000         0.0000         0.0000     0.0000     0.0000   2  16   0.1120   0.2351   0.1417  -0.1553   0.1782  -0.1201   0.00    0.0
2021/01/23 07:49:12.000  -2267135.6820   5008907.7251   3222067.9324         0.0000         0.0000         0.0000         0.0000     0.0000     0.0000   2  14   0.1120   0.2352   0.1417  -0.1553   0.1783  -0.1201   0.00    0.0
2021/01/23 07:49:13.000  -2267134.0146   5008905.6481   3222072.1640         0.0000         0.0000         0.0000         0.0000     0.0000     0.0000   2  14   0.1120   0.2352   0.1417  -0.1553   0.1783  -0.1201   0.00    0.0
2021/01/23 07:49:14.000  -2267132.2858   5008903.6283   3222076.3203         0.0000         0.0000         0.0000         0.0000     0.0000     0.0000   2  13   0.1120   0.2352   0.1417  -0.1552   0.1783  -0.1200   0.00    0.0
2021/01/23 07:49:15.000  -2267130.3089   5008901.2928   3222080.4706         0.0000         0.0000         0.0000         0.0000     0.0000     0.0000   2  15   0.1120   0.2350   0.1416  -0.1552   0.1781  -0.1200   0.00    0.0
2021/01/23 07:49:16.000  -2267128.1879   5008898.8016   3222084.7170         0.0000         0.0000         0.0000         0.0000     0.0000     0.0000   2  13   0.1120   0.2352   0.1417  -0.1552   0.1782  -0.1200   0.00    0.0
2021/01/23 07:49:17.000  -2267126.3934   5008896.8232   3222089.2006         0.0000         0.0000         0.0000         0.0000     0.0000     0.0000   2  13   0.1120   0.2352   0.1417  -0.1552   0.1782  -0.1200   0.00    0.0
2021/01/23 07:49:18.000  -2267124.9061   5008894.8570   3222093.2141         0.0000         0.0000         0.0000         0.0000     0.0000     0.0000   2  14   0.1119   0.2350   0.1416  -0.1551   0.1781  -0.1199   0.00    0.0
2021/01/23 07:49:19.000  -2267123.5856   5008893.0762   3222097.0295         0.0000         0.0000         0.0000         0.0000     0.0000     0.0000   2  14   0.1119   0.2352   0.1416  -0.1550   0.1781  -0.1199   0.00    0.0
2021/01/23 07:49:20.000  -2267122.4032   5008891.2591   3222100.6463         0.0000         0.0000         0.0000         0.0000     0.0000     0.0000   2  13   0.1119   0.2354   0.1417  -0.1550   0.1782  -0.1199   0.00    0.0
2021/01/23 07:49:21.000  -2267121.0494   5008889.2437   3222104.6707         0.0000         0.0000         0.0000         0.0000     0.0000     0.0000   2  13   0.1120   0.2354   0.1417  -0.1550   0.1783  -0.1200   0.00    0.0
2021/01/23 07:49:22.000  -2267119.6652   5008887.2069   3222108.9529         0.0000         0.0000         0.0000         0.0000     0.0000     0.0000   2  12   0.1120   0.2355   0.1418  -0.1551   0.1784  -0.1200   0.00    0.0
2021/01/23 07:49:23.000  -2267118.3098   5008885.2441   3222113.0154         0.0000         0.0000         0.0000         0.0000     0.0000     0.0000   2  12   0.1120   0.2355   0.1418  -0.1551   0.1784  -0.1200   0.00    0.0
2021/01/23 07:49:24.000  -2267116.9731   5008883.4436   3222116.8029         0.0000         0.0000         0.0000         0.0000     0.0000     0.0000   2  12   0.1120   0.2355   0.1418  -0.1551   0.1784  -0.1200   0.00    0.0
2021/01/23 07:49:25.000  -2267115.5574   5008881.6562   3222120.5176         0.0000         0.0000         0.0000         0.0000     0.0000     0.0000   2  14   0.1121   0.2347   0.1416  -0.1552   0.1780  -0.1201   0.00    0.0
2021/01/23 07:49:26.000  -2267114.0213   5008880.0431   3222124.2516         0.0000         0.0000         0.0000         0.0000     0.0000     0.0000   2  13   0.1122   0.2346   0.1416  -0.1553   0.1780  -0.1201   0.00    0.0
2021/01/23 07:49:27.000  -2267112.4005   5008878.5758   3222127.7421         0.0000         0.0000         0.0000         0.0000     0.0000     0.0000   2  13   0.1122   0.2345   0.1416  -0.1553   0.1779  -0.1201   0.00    0.0
2021/01/23 07:49:28.000  -2267110.5975   5008877.4206   3222130.8253         0.0000         0.0000         0.0000         0.0000     0.0000     0.0000   2  14   0.1122   0.2344   0.1416  -0.1553   0.1779  -0.1201   0.00    0.0
2021/01/23 07:49:29.000  -2267108.4154   5008876.8024   3222133.4959         0.0000         0.0000         0.0000         0.0000     0.0000     0.0000   2  13   0.1122   0.2344   0.1416  -0.1552   0.1779  -0.1201   0.00    0.0
2021/01/23 07:49:30.000  -2267105.8299   5008876.7549   3222135.3812         0.0000         0.0000         0.0000         0.0000     0.0000     0.0000   2  13   0.1122   0.2344   0.1416  -0.1552   0.1779  -0.1201   0.00    0.0
2021/01/23 07:49:31.000  -2267102.9750   5008877.5581   3222136.2511         0.0000         0.0000         0.0000         0.0000     0.0000     0.0000   2  13   0.1122   0.2344   0.1416  -0.1552   0.1778  -0.1201   0.00    0.0
2021/01/23 07:49:32.000  -2267099.9508   5008878.8961   3222136.3293         0.0000         0.0000         0.0000         0.0000     0.0000     0.0000   2  14   0.1121   0.2344   0.1415  -0.1552   0.1778  -0.1200   0.00    0.0
2021/01/23 07:49:33.000  -2267096.8591   5008880.3892   3222136.1506         0.0000         0.0000         0.0000         0.0000     0.0000     0.0000   2  13   0.1122   0.2345   0.1415  -0.1552   0.1779  -0.1201   0.00    0.0
2021/01/23 07:49:34.000  -2267093.5236   5008881.9761   3222135.8740         0.0000         0.0000         0.0000         0.0000     0.0000     0.0000   2  13   0.1122   0.2344   0.1415  -0.1552   0.1778  -0.1200   0.00    0.0
2021/01/23 07:49:35.000  -2267089.8354   5008883.9622   3222135.4184         0.0000         0.0000         0.0000         0.0000     0.0000     0.0000   2  13   0.1121   0.2343   0.1415  -0.1552   0.1777  -0.1200   0.00    0.0
2021/01/23 07:49:36.000  -2267085.8199   5008886.2636   3222134.7573         0.0000         0.0000         0.0000         0.0000     0.0000     0.0000   2  13   0.1121   0.2342   0.1414  -0.1552   0.1777  -0.1200   0.00    0.0
2021/01/23 07:49:37.000  -2267081.4921   5008888.7495   3222133.9591         0.0000         0.0000         0.0000         0.0000     0.0000     0.0000   2  14   0.1121   0.2340   0.1414  -0.1551   0.1776  -0.1200   0.00    0.0
2021/01/23 07:49:38.000  -2267076.7695   5008891.4003   3222133.0663         0.0000         0.0000         0.0000         0.0000     0.0000     0.0000   2  15   0.1120   0.2338   0.1413  -0.1549   0.1774  -0.1198   0.00    0.0
2021/01/23 07:49:39.000  -2267071.7949   5008894.2313   3222132.1348         0.0000         0.0000         0.0000         0.0000     0.0000     0.0000   2  15   0.1120   0.2337   0.1413  -0.1549   0.1774  -0.1199   0.00    0.0
2021/01/23 07:49:40.000  -2267066.6456   5008897.1658   3222131.2076         0.0000         0.0000         0.0000         0.0000     0.0000     0.0000   2  14   0.1120   0.2338   0.1413  -0.1550   0.1775  -0.1199   0.00    0.0
2021/01/23 07:49:41.000  -2267061.2957   5008900.2114   3222130.2484         0.0000         0.0000         0.0000         0.0000     0.0000     0.0000   2  15   0.1120   0.2336   0.1412  -0.1549   0.1773  -0.1198   0.00    0.0
2021/01/23 07:49:42.000  -2267055.7782   5008903.3187   3222129.3212         0.0000         0.0000         0.0000         0.0000     0.0000     0.0000   2  15   0.1120   0.2336   0.1412  -0.1549   0.1773  -0.1198   0.00    0.0
2021/01/23 07:49:43.000  -2267050.0911   5008906.4777   3222128.3693         0.0000         0.0000         0.0000         0.0000     0.0000     0.0000   2  14   0.1120   0.2337   0.1412  -0.1549   0.1773  -0.1198   0.00    0.0
2021/01/23 07:49:44.000  -2267044.4085   5008909.6665   3222127.4169         0.0000         0.0000         0.0000         0.0000     0.0000     0.0000   2  14   0.1120   0.2336   0.1412  -0.1548   0.1773  -0.1198   0.00    0.0
2021/01/23 07:49:45.000  -2267038.8808   5008912.7287   3222126.4766         0.0000         0.0000         0.0000         0.0000     0.0000     0.0000   2  14   0.1120   0.2337   0.1412  -0.1548   0.1773  -0.1198   0.00    0.0
2021/01/23 07:49:46.000  -2267033.5589   5008915.7384   3222125.5050         0.0000         0.0000         0.0000         0.0000     0.0000     0.0000   2  14   0.1119   0.2336   0.1411  -0.1548   0.1772  -0.1197   0.00    0.0
2021/01/23 07:49:47.000  -2267028.4032   5008918.6642   3222124.5685         0.0000         0.0000         0.0000         0.0000     0.0000     0.0000   2  14   0.1119   0.2335   0.1411  -0.1548   0.1772  -0.1197   0.00    0.0
2021/01/23 07:49:48.000  -2267023.4773   5008921.4866   3222123.6959         0.0000         0.0000         0.0000         0.0000     0.0000     0.0000   2  14   0.1119   0.2335   0.1411  -0.1547   0.1771  -0.1197   0.00    0.0
2021/01/23 07:49:49.000  -2267018.8548   5008924.0747   3222122.8431         0.0000         0.0000         0.0000         0.0000     0.0000     0.0000   2  15   0.1120   0.2334   0.1410  -0.1548   0.1771  -0.1197   0.00    0.0
2021/01/23 07:49:50.000  -2267014.9600   5008926.2290   3222122.1228         0.0000         0.0000         0.0000         0.0000     0.0000     0.0000   2  14   0.1117   0.2331   0.1410  -0.1545   0.1770  -0.1196   0.00    0.0
2021/01/23 07:49:51.000  -2267011.6545   5008927.9776   3222121.5933         0.0000         0.0000         0.0000         0.0000     0.0000     0.0000   2  14   0.1116   0.2330   0.1409  -0.1544   0.1769  -0.1195   0.00    0.0
2021/01/23 07:49:52.000  -2267008.3101   5008929.5419   3222121.3365         0.0000         0.0000         0.0000         0.0000     0.0000     0.0000   2  15   0.1114   0.2329   0.1407  -0.1542   0.1767  -0.1193   0.00    0.0
2021/01/23 07:49:53.000  -2267004.9338   5008930.8342   3222121.7117         0.0000         0.0000         0.0000         0.0000     0.0000     0.0000   2  15   0.1114   0.2329   0.1407  -0.1541   0.1767  -0.1193   0.00    0.0
2021/01/23 07:49:54.000  -2267001.6905   5008931.3830   3222123.0122         0.0000         0.0000         0.0000         0.0000     0.0000     0.0000   2  15   0.1113   0.2328   0.1407  -0.1541   0.1767  -0.1192   0.00    0.0
2021/01/23 07:49:55.000  -2266999.1376   5008931.0722   3222125.2302         0.0000         0.0000         0.0000         0.0000     0.0000     0.0000   2  14   0.1113   0.2328   0.1406  -0.1540   0.1766  -0.1192   0.00    0.0
2021/01/23 07:49:56.000  -2266997.4688   5008930.0173   3222127.9476         0.0000         0.0000         0.0000         0.0000     0.0000     0.0000   2  13   0.1113   0.2329   0.1406  -0.1540   0.1766  -0.1192   0.00    0.0
2021/01/23 07:49:57.000  -2266996.2549   5008928.8293   3222130.7414         0.0000         0.0000         0.0000         0.0000     0.0000     0.0000   2  13   0.1113   0.2328   0.1405  -0.1540   0.1766  -0.1191   0.00    0.0
2021/01/23 07:49:58.000  -2266995.0205   5008927.6195   3222133.5128         0.0000         0.0000         0.0000         0.0000     0.0000     0.0000   2  14   0.1113   0.2327   0.1405  -0.1539   0.1765  -0.1191   0.00    0.0
2021/01/23 07:49:59.000  -2266993.5800   5008926.3136   3222136.5733         0.0000         0.0000         0.0000         0.0000     0.0000     0.0000   2  14   0.1113   0.2327   0.1405  -0.1539   0.1765  -0.1191   0.00    0.0
2021/01/23 07:50:00.000  -2266991.9476   5008924.8345   3222140.0060         0.0000         0.0000         0.0000         0.0000     0.0000     0.0000   2  14   0.1113   0.2328   0.1405  -0.1539   0.1765  -0.1191   0.00    0.0
2021/01/23 07:50:01.000  -2266990.2837   5008923.1684   3222143.7392         0.0000         0.0000         0.0000         0.0000     0.0000     0.0000   2  13   0.1113   0.2329   0.1405  -0.1539   0.1766  -0.1191   0.00    0.0
2021/01/23 07:50:02.000  -2266988.7096   5008921.4327   3222147.5248         0.0000         0.0000         0.0000         0.0000     0.0000     0.0000   2  14   0.1113   0.2326   0.1405  -0.1539   0.1765  -0.1191   0.00    0.0
2021/01/23 07:50:03.000  -2266987.2795   5008919.6823   3222151.1887         0.0000         0.0000         0.0000         0.0000     0.0000     0.0000   2  13   0.1113   0.2327   0.1405  -0.1539   0.1766  -0.1190   0.00    0.0
2021/01/23 07:50:04.000  -2266985.9807   5008918.0265   3222154.6311         0.0000         0.0000         0.0000         0.0000     0.0000     0.0000   2  13   0.1114   0.2326   0.1405  -0.1539   0.1765  -0.1191   0.00    0.0
2021/01/23 07:50:05.000  -2266984.6819   5008916.4816   3222157.8546         0.0000         0.0000         0.0000         0.0000     0.0000     0.0000   2  13   0.1115   0.2327   0.1405  -0.1539   0.1766  -0.1191   0.00    0.0
2021/01/23 07:50:06.000  -2266982.9753   5008915.4217   3222160.7073         0.0000         0.0000         0.0000         0.0000     0.0000     0.0000   2  13   0.1116   0.2327   0.1404  -0.1541   0.1765  -0.1192   0.00    0.0
2021/01/23 07:50:07.000  -2266980.5100   5008915.2236   3222162.8120         0.0000         0.0000         0.0000         0.0000     0.0000     0.0000   2  12   0.1116   0.2329   0.1405  -0.1542   0.1766  -0.1192   0.00    0.0
2021/01/23 07:50:08.000  -2266977.6203   5008915.8204   3222163.8846         0.0000         0.0000         0.0000         0.0000     0.0000     0.0000   2  13   0.1115   0.2327   0.1404  -0.1540   0.1765  -0.1191   0.00    0.0
2021/01/23 07:50:09.000  -2266974.7865   5008917.0902   3222163.8482         0.0000         0.0000         0.0000         0.0000     0.0000     0.0000   2  13   0.1114   0.2326   0.1404  -0.1540   0.1764  -0.1191   0.00    0.0
2021/01/23 07:50:10.000  -2266972.4537   5008918.7295   3222162.7660         0.0000         0.0000         0.0000         0.0000     0.0000     0.0000   2  14   0.1115   0.2325   0.1404  -0.1540   0.1764  -0.1191   0.00    0.0
2021/01/23 07:50:11.000  -2266971.0141   5008920.6808   3222160.9301         0.0000         0.0000         0.0000         0.0000     0.0000     0.0000   2  13   0.1116   0.2326   0.1404  -0.1541   0.1764  -0.1191   0.00    0.0
2021/01/23 07:50:12.000  -2266970.2018   5008922.4650   3222158.5208         0.0000         0.0000         0.0000         0.0000     0.0000     0.0000   2  12   0.1123   0.2329   0.1405  -0.1545   0.1766  -0.1195   0.00    0.0
2021/01/23 07:50:13.000  -2266969.6371   5008924.3196   3222155.9399        -0.0000         0.0000         0.0000         0.0000     0.0000     0.0000   2  10   0.1117   0.2328   0.1404  -0.1541   0.1765  -0.1191   0.00    0.0
2021/01/23 07:50:14.000  -2266969.4846   5008926.3453   3222153.2822         0.0000         0.0000         0.0000         0.0000     0.0000     0.0000   2  10   0.1123   0.2330   0.1406  -0.1545   0.1767  -0.1195   0.00    0.0
2021/01/23 07:50:15.000  -2266969.5709   5008928.2046   3222150.2591         0.0000         0.0000         0.0000         0.0000     0.0000     0.0000   2  11   0.1119   0.2329   0.1405  -0.1543   0.1766  -0.1193   0.00    0.0
2021/01/23 07:50:16.000  -2266970.0655   5008930.0905   3222146.9254         0.0000         0.0000         0.0000         0.0000     0.0000     0.0000   2  13   0.1115   0.2325   0.1404  -0.1540   0.1764  -0.1191   0.00    0.0
2021/01/23 07:50:17.000  -2266970.8816   5008932.0209   3222143.3329         0.0000         0.0000         0.0000         0.0000     0.0000     0.0000   2  13   0.1117   0.2325   0.1405  -0.1542   0.1765  -0.1193   0.00    0.0
2021/01/23 07:50:18.000  -2266971.8898   5008933.8840   3222139.7038         0.0000         0.0000         0.0000         0.0000     0.0000     0.0000   2  12   0.1117   0.2326   0.1406  -0.1542   0.1765  -0.1193   0.00    0.0
2021/01/23 07:50:19.000  -2266972.9382   5008935.7418   3222136.2090         0.0000         0.0000         0.0000         0.0000     0.0000     0.0000   2  13   0.1115   0.2326   0.1405  -0.1541   0.1765  -0.1192   0.00    0.0
2021/01/23 07:50:20.000  -2266974.0681   5008937.5343   3222132.7034         0.0000         0.0000         0.0000         0.0000     0.0000     0.0000   2  13   0.1113   0.2325   0.1405  -0.1538   0.1764  -0.1191   0.00    0.0
2021/01/23 07:50:21.000  -2266975.2782   5008939.1611   3222129.1858         0.0000         0.0000         0.0000         0.0000     0.0000     0.0000   2  13   0.1113   0.2324   0.1405  -0.1538   0.1764  -0.1191   0.00    0.0
2021/01/23 07:50:22.000  -2266976.7501   5008940.6154   3222125.9263         0.0000         0.0000         0.0000         0.0000     0.0000     0.0000   2  12   0.1113   0.2324   0.1405  -0.1538   0.1764  -0.1191   0.00    0.0
2021/01/23 07:50:23.000  -2266978.8047   5008941.6120   3222123.0614         0.0000         0.0000         0.0000         0.0000     0.0000     0.0000   2  13   0.1113   0.2321   0.1405  -0.1537   0.1763  -0.1191   0.00    0.0
2021/01/23 07:50:24.000  -2266981.4672   5008941.9135   3222120.7220         0.0000         0.0000         0.0000         0.0000     0.0000     0.0000   2  12   0.1114   0.2321   0.1405  -0.1537   0.1763  -0.1191   0.00    0.0
2021/01/23 07:50:25.000  -2266984.5353   5008941.5860   3222119.1282         0.0000         0.0000         0.0000         0.0000     0.0000     0.0000   2  13   0.1114   0.2321   0.1405  -0.1537   0.1763  -0.1191   0.00    0.0
2021/01/23 07:50:26.000  -2266987.9073   5008940.5655   3222118.2856         0.0000         0.0000         0.0000         0.0000     0.0000     0.0000   2  15   0.1112   0.2319   0.1404  -0.1537   0.1762  -0.1190   0.00    0.0
2021/01/23 07:50:27.000  -2266991.3747   5008939.0809   3222118.0700         0.0000         0.0000         0.0000         0.0000     0.0000     0.0000   2  14   0.1112   0.2320   0.1405  -0.1537   0.1762  -0.1190   0.00    0.0
2021/01/23 07:50:28.000  -2266994.9375   5008937.4376   3222118.2588         0.0000         0.0000         0.0000         0.0000     0.0000     0.0000   2  14   0.1112   0.2320   0.1405  -0.1537   0.1763  -0.1191   0.00    0.0
2021/01/23 07:50:29.000  -2266998.5989   5008935.5895   3222118.5771         0.0000         0.0000         0.0000         0.0000     0.0000     0.0000   2  15   0.1112   0.2319   0.1405  -0.1537   0.1762  -0.1191   0.00    0.0
2021/01/23 07:50:30.000  -2267002.3538   5008933.6738   3222118.9903         0.0000         0.0000         0.0000         0.0000     0.0000     0.0000   2  15   0.1113   0.2320   0.1405  -0.1538   0.1763  -0.1191   0.00    0.0
2021/01/23 07:50:31.000  -2267006.3493   5008931.6254   3222119.4547         0.0000         0.0000         0.0000         0.0000     0.0000     0.0000   2  16   0.1113   0.2320   0.1406  -0.1538   0.1763  -0.1191   0.00    0.0
2021/01/23 07:50:32.000  -2267010.8097   5008929.2721   3222120.0523         0.0000         0.0000         0.0000         0.0000     0.0000     0.0000   2  16   0.1113   0.2320   0.1407  -0.1538   0.1764  -0.1192   0.00    0.0
2021/01/23 07:50:33.000  -2267015.4746   5008926.8036   3222120.7483         0.0000         0.0000         0.0000         0.0000     0.0000     0.0000   2  16   0.1114   0.2321   0.1407  -0.1539   0.1764  -0.1192   0.00    0.0
2021/01/23 07:50:34.000  -2267019.9991   5008924.2823   3222121.5871         0.0000         0.0000         0.0000         0.0000     0.0000     0.0000   2  16   0.1114   0.2321   0.1408  -0.1539   0.1765  -0.1193   0.00    0.0
2021/01/23 07:50:35.000  -2267024.6316   5008921.6350   3222122.4938         0.0000         0.0000         0.0000         0.0000     0.0000     0.0000   2  16   0.1115   0.2322   0.1408  -0.1540   0.1766  -0.1193   0.00    0.0
2021/01/23 07:50:36.000  -2267029.4573   5008918.8634   3222123.3744         0.0000         0.0000         0.0000         0.0000     0.0000     0.0000   2  15   0.1116   0.2323   0.1409  -0.1542   0.1766  -0.1194   0.00    0.0
2021/01/23 07:50:37.000  -2267034.4422   5008916.0204   3222124.2129         0.0000         0.0000         0.0000         0.0000     0.0000     0.0000   2  15   0.1116   0.2324   0.1409  -0.1542   0.1767  -0.1194   0.00    0.0
2021/01/23 07:50:38.000  -2267039.5831   5008913.1620   3222125.1005         0.0000         0.0000         0.0000         0.0000     0.0000     0.0000   2  14   0.1117   0.2325   0.1409  -0.1543   0.1767  -0.1194   0.00    0.0
2021/01/23 07:50:39.000  -2267044.8138   5008910.1747   3222125.9951         0.0000         0.0000         0.0000         0.0000     0.0000     0.0000   2  14   0.1117   0.2325   0.1410  -0.1543   0.1767  -0.1195   0.00    0.0
