%  GPST                      x-ecef(m)      y-ecef(m)      z-ecef(m)   Q  ns   sdx(m)   sdy(m)   sdz(m)  sdxy(m)  sdyz(m)  sdzx(m) age(s)  ratio
2016/06/27 00:00:00.000  -2200206.0169   5924895.4826   -855928.9426   -158563.3902         0.0000         0.0000         0.0000     2.5172     3.1370   6   8   1.7120   4.5882   1.4737  -2.2735  -2.0734   0.9826   0.00    0.0
2016/06/27 00:00:30.000  -2200206.6577   5924897.0129   -855929.0912   -158746.1549         0.0000         0.0000         0.0000     2.5165     3.1363   6   8   1.1051   2.6315   0.9116  -1.2871  -1.1303   0.5188   0.00    0.0
2016/06/27 00:01:00.000  -2200206.2876   5924895.9507   -855929.2058   -158935.4892         0.0000         0.0000         0.0000     2.5193     3.1346   6   8   0.8376   1.7353   0.6521  -0.8305  -0.6902   0.3053   0.00    0.0
2016/06/27 00:01:30.000  -2200206.5700   5924895.9471   -855929.1673   -159119.8480         0.0000         0.0000         0.0000     2.5219     3.1320   6   8   0.6890   1.2541   0.5021  -0.5824  -0.4541   0.1990   0.00    0.0
2016/06/27 00:02:00.000  -2200206.5183   5924895.8661   -855929.1195   -159303.9559         0.0000         0.0000         0.0000     2.5191     3.1286   6   8   0.5947   0.9708   0.4040  -0.4343  -0.3177   0.1476   0.00    0.0
2016/06/27 00:02:30.000  -2200206.5356   5924896.0612   -855929.0918   -159484.6701         0.0000         0.0000         0.0000     2.5141     3.1242   6   8   0.5288   0.7919   0.3346  -0.3396  -0.2351   0.1248   0.00    0.0
2016/06/27 00:03:00.000  -2200206.5259   5924896.1799   -855929.1175   -159661.6816         0.0000         0.0000         0.0000     2.5096     3.1190   6   8   0.4796   0.6725   0.2830  -0.2757  -0.1832   0.1154   0.00    0.0
2016/06/27 00:03:30.000  -2200206.5759   5924896.2166   -855929.1439   -159840.6538         0.0000         0.0000         0.0000     2.5090     3.1129   6   8   0.4410   0.5890   0.2434  -0.2308  -0.1499   0.1113   0.00    0.0
2016/06/27 00:04:00.000  -2200206.6934   5924896.1824   -855929.1328   -160021.0305         0.0000         0.0000         0.0000     2.5022     3.1059   6   8   0.4095   0.5283   0.2122  -0.1979  -0.1280   0.1089   0.00    0.0
2016/06/27 00:04:30.000  -2200206.7528   5924896.1699   -855929.1365   -160198.8023         0.0000         0.0000         0.0000     2.4988     3.0982   6   8   0.3830   0.4822   0.1872  -0.1727  -0.1131   0.1070   0.00    0.0
2016/06/27 00:05:00.000  -2200206.8142   5924896.1408   -855929.1670   -160373.0019         0.0000         0.0000         0.0000     2.4951     3.0897   6   8   0.3602   0.4460   0.1668  -0.1525  -0.1026   0.1049   0.00    0.0
2016/06/27 00:05:30.000  -2200206.8015   5924896.1829   -855929.1503   -160549.4129         0.0000         0.0000         0.0000     2.4881     3.0804   6   8   0.3402   0.4165   0.1499  -0.1356  -0.0946   0.1026   0.00    0.0
2016/06/27 00:06:00.000  -2200206.8118   5924896.2487   -855929.1364   -160724.2392         0.0000         0.0000         0.0000     2.4879     3.0704   6   8   0.3225   0.3916   0.1357  -0.1208  -0.0883   0.1001   0.00    0.0
2016/06/27 00:06:30.000  -2200206.8394   5924896.2545   -855929.1249   -160901.6097         0.0000         0.0000         0.0000     2.4909     3.0597   6   8   0.3065   0.3701   0.1237  -0.1073  -0.0829   0.0974   0.00    0.0
2016/06/27 00:07:00.000  -2200206.8373   5924896.2970   -855929.1177   -161077.0866         0.0000         0.0000         0.0000     2.4935     3.0484   6   8   0.2919   0.3511   0.1134  -0.0945  -0.0782   0.0946   0.00    0.0
2016/06/27 00:07:30.000  -2200206.9069   5924896.2945   -855929.1269   -161253.8071         0.0000         0.0000         0.0000     2.4910     3.0364   6   8   0.2787   0.3340   0.1045  -0.0821  -0.0739   0.0918   0.00    0.0
2016/06/27 00:08:00.000  -2200206.8915   5924896.2921   -855929.1204   -161431.3941         0.0000         0.0000         0.0000     2.4883     3.0238   6   8   0.2665   0.3184   0.0968  -0.0698  -0.0699   0.0890   0.00    0.0
2016/06/27 00:08:30.000  -2200206.8778   5924896.2864   -855929.1028   -161608.6493         0.0000         0.0000         0.0000     2.4944     3.0107   6   8   0.2553   0.3040   0.0900  -0.0570  -0.0662   0.0863   0.00    0.0
2016/06/27 00:09:00.000  -2200206.8957   5924896.2593   -855929.1029   -161787.3264         0.0000         0.0000         0.0000     2.5014     2.2980   6   9   0.2447   0.2905   0.0840  -0.0444  -0.0627   0.0835   0.00    0.0
2016/06/27 00:09:30.000  -2200206.9393   5924896.2175   -855929.0944   -161964.4801         0.0000         0.0000         0.0000     2.5105     2.2975   6   9   0.2349   0.2776   0.0786  -0.0284  -0.0593   0.0808   0.00    0.0
2016/06/27 00:10:00.000  -2200207.0185   5924896.1853   -855929.1015   -162143.1581         0.0000         0.0000         0.0000     2.5178     2.2968   6   9   0.2257   0.2653   0.0738   0.0163  -0.0558   0.0782   0.00    0.0
2016/06/27 00:10:30.000  -2200207.0343   5924896.1719   -855929.0997   -162319.4365         0.0000         0.0000         0.0000     2.5206     2.2957   6   9   0.2171   0.2533   0.0695   0.0355  -0.0524   0.0756   0.00    0.0
2016/06/27 00:11:00.000  -2200207.0483   5924896.1694   -855929.1076   -162495.6947         0.0000         0.0000         0.0000     2.5201     2.2943   6   9   0.2091   0.2417   0.0656   0.0465  -0.0489   0.0732   0.00    0.0
2016/06/27 00:11:30.000  -2200207.1035   5924896.1222   -855929.1131   -162667.4379         0.0000         0.0000         0.0000     2.5278     2.2926   6   9   0.2016   0.2305   0.0620   0.0545  -0.0453   0.0708   0.00    0.0
2016/06/27 00:12:00.000  -2200207.1365   5924896.1100   -855929.1215   -162838.7696         0.0000         0.0000         0.0000     2.5276     2.2906   6   9   0.1946   0.2198   0.0588   0.0607  -0.0418   0.0685   0.00    0.0
2016/06/27 00:12:30.000  -2200207.1426   5924896.1139   -855929.1209   -163010.0329         0.0000         0.0000         0.0000     2.5245     2.2884   6   9   0.1881   0.2095   0.0558   0.0655  -0.0384   0.0664   0.00    0.0
2016/06/27 00:13:00.000  -2200207.1516   5924896.1169   -855929.1193   -163177.7437         0.0000         0.0000         0.0000     2.5209     2.2858   6   9   0.1819   0.1997   0.0531   0.0692  -0.0350   0.0643   0.00    0.0
2016/06/27 00:13:30.000  -2200207.1778   5924896.0881   -855929.1210   -163343.9514         0.0000         0.0000         0.0000     2.5241     2.2829   6   9   0.1762   0.1905   0.0506   0.0721  -0.0317   0.0624   0.00    0.0
2016/06/27 00:14:00.000  -2200207.1862   5924896.0887   -855929.1229   -163510.4086         0.0000         0.0000         0.0000     2.5192     2.2798   6   9   0.1708   0.1819   0.0483   0.0744  -0.0285   0.0606   0.00    0.0
2016/06/27 00:14:30.000  -2200207.2020   5924896.0806   -855929.1207   -163674.4949         0.0000         0.0000         0.0000     2.5157     2.2764   6   9   0.1658   0.1738   0.0462   0.0760  -0.0253   0.0589   0.00    0.0
2016/06/27 00:15:00.000  -2200207.2076   5924896.0830   -855929.1186   -163837.6880         0.0000         0.0000         0.0000     2.5139     2.2728   6   9   0.1610   0.1663   0.0442   0.0772  -0.0223   0.0573   0.00    0.0
2016/06/27 00:15:30.000  -2200207.2256   5924896.0485   -855929.1180   -164003.1270         0.0000         0.0000         0.0000     2.5206     2.2688   6   9   0.1566   0.1593   0.0424   0.0780  -0.0192   0.0558   0.00    0.0
2016/06/27 00:16:00.000  -2200207.2648   5924896.0194   -855929.1223   -164168.8892         0.0000         0.0000         0.0000     2.5237     2.2647   6   9   0.1524   0.1527   0.0407   0.0784  -0.0161   0.0544   0.00    0.0
2016/06/27 00:16:30.000  -2200207.2767   5924896.0161   -855929.1234   -164335.9632         0.0000         0.0000         0.0000     2.5255     2.2603   6   9   0.1485   0.1467   0.0392   0.0787  -0.0129   0.0531   0.00    0.0
2016/06/27 00:17:00.000  -2200207.2817   5924896.0133   -855929.1247   -164499.7108         0.0000         0.0000         0.0000     2.5260     2.2556   6   9   0.1448   0.1410   0.0377   0.0787  -0.0093   0.0518   0.00    0.0
2016/06/27 00:17:30.000  -2200207.2776   5924896.0169   -855929.1239   -164670.2399         0.0000         0.0000         0.0000     2.5245     2.2508   6   9   0.1412   0.1358   0.0364   0.0785  -0.0044   0.0507   0.00    0.0
2016/06/27 00:18:00.000  -2200207.2650   5924896.0101   -855929.1185   -164839.3947         0.0000         0.0000         0.0000     2.5282     1.7577   6  10   0.1379   0.1309   0.0351   0.0782   0.0062   0.0495   0.00    0.0
2016/06/27 00:18:30.000  -2200207.2481   5924896.0182   -855929.1147   -165004.4277         0.0000         0.0000         0.0000     2.5297     1.7571   6  10   0.1347   0.1263   0.0339   0.0778   0.0094   0.0485   0.00    0.0
2016/06/27 00:19:00.000  -2200207.2358   5924896.0191   -855929.1132   -165166.8415         0.0000         0.0000         0.0000     2.5324     1.7565   6  10   0.1317   0.1221   0.0328   0.0773   0.0114   0.0475   0.00    0.0
2016/06/27 00:19:30.000  -2200207.2453   5924896.0112   -855929.1142   -165332.8778         0.0000         0.0000         0.0000     2.5353     1.7559   6  10   0.1288   0.1181   0.0318   0.0767   0.0129   0.0465   0.00    0.0
2016/06/27 00:20:00.000  -2200207.2451   5924896.0100   -855929.1129   -165503.5695         0.0000         0.0000         0.0000     2.5360     1.7552   6  10   0.1261   0.1144   0.0308   0.0761   0.0140   0.0456   0.00    0.0
2016/06/27 00:20:30.000  -2200207.2453   5924896.0050   -855929.1127   -165671.2460         0.0000         0.0000         0.0000     2.5378     1.7544   6  10   0.1235   0.1109   0.0299   0.0754   0.0148   0.0447   0.00    0.0
2016/06/27 00:21:00.000  -2200207.2424   5924895.9959   -855929.1109   -165840.3795         0.0000         0.0000         0.0000     2.5415     1.7536   6  10   0.1210   0.1076   0.0290   0.0747   0.0155   0.0439   0.00    0.0
2016/06/27 00:21:30.000  -2200207.2540   5924895.9826   -855929.1099   -166007.6795         0.0000         0.0000         0.0000     2.5452     1.7528   6  10   0.1186   0.1045   0.0282   0.0739   0.0161   0.0431   0.00    0.0
2016/06/27 00:22:00.000  -2200207.2627   5924895.9720   -855929.1128   -166175.4223         0.0000         0.0000         0.0000     2.5476     1.7519   6  10   0.1163   0.1016   0.0274   0.0732   0.0165   0.0423   0.00    0.0
2016/06/27 00:22:30.000  -2200207.2592   5924895.9714   -855929.1134   -166343.7723         0.0000         0.0000         0.0000     2.5477     1.7510   6  10   0.1141   0.0988   0.0267   0.0724   0.0168   0.0416   0.00    0.0
2016/06/27 00:23:00.000  -2200207.2539   5924895.9705   -855929.1130   -166510.4571         0.0000         0.0000         0.0000     2.5482     1.7500   6  10   0.1119   0.0962   0.0260   0.0716   0.0171   0.0409   0.00    0.0
2016/06/27 00:23:30.000  -2200207.2498   5924895.9676   -855929.1121   -166676.4942         0.0000         0.0000         0.0000     2.5486     1.7490   6  10   0.1099   0.0937   0.0254   0.0707   0.0173   0.0402   0.00    0.0
2016/06/27 00:24:00.000  -2200207.2481   5924895.9733   -855929.1118   -166841.3081         0.0000         0.0000         0.0000     2.5471     1.7480   6  10   0.1079   0.0914   0.0247   0.0699   0.0175   0.0396   0.00    0.0
2016/06/27 00:24:30.000  -2200207.2514   5924895.9755   -855929.1114   -167001.7390         0.0000         0.0000         0.0000     2.5464     1.7469   6  10   0.1060   0.0891   0.0241   0.0691   0.0176   0.0389   0.00    0.0
2016/06/27 00:25:00.000  -2200207.2648   5924895.9607   -855929.1117   -167159.5263         0.0000         0.0000         0.0000     2.5494     1.7457   6  10   0.1041   0.0870   0.0236   0.0682   0.0177   0.0383   0.00    0.0
2016/06/27 00:25:30.000  -2200207.2749   5924895.9517   -855929.1117   -167320.1668         0.0000         0.0000         0.0000     2.5513     1.7446   6  10   0.1023   0.0849   0.0230   0.0674   0.0177   0.0377   0.00    0.0
2016/06/27 00:26:00.000  -2200207.2766   5924895.9538   -855929.1108   -167486.1791         0.0000         0.0000         0.0000     2.5509     1.7434   6  10   0.1006   0.0830   0.0225   0.0666   0.0177   0.0371   0.00    0.0
2016/06/27 00:26:30.000  -2200207.2772   5924895.9533   -855929.1099   -167647.9608         0.0000         0.0000         0.0000     2.5508     1.7421   6  10   0.0989   0.0811   0.0220   0.0658   0.0177   0.0366   0.00    0.0
2016/06/27 00:27:00.000  -2200207.2670   5924895.9553   -855929.1079   -167805.7347         0.0000         0.0000         0.0000     2.5515     1.7408   6  10   0.0973   0.0793   0.0215   0.0649   0.0177   0.0360   0.00    0.0
2016/06/27 00:27:30.000  -2200207.2757   5924895.9456   -855929.1077   -167963.8351         0.0000         0.0000         0.0000     2.5531     1.7395   6  10   0.0957   0.0776   0.0211   0.0641   0.0177   0.0355   0.00    0.0
2016/06/27 00:28:00.000  -2200207.2814   5924895.9430   -855929.1078   -168120.6342         0.0000         0.0000         0.0000     2.5538     1.7382   6  10   0.0942   0.0760   0.0207   0.0633   0.0176   0.0350   0.00    0.0
2016/06/27 00:28:30.000  -2200207.2750   5924895.9474   -855929.1068   -168276.6003         0.0000         0.0000         0.0000     2.5522     1.7368   6  10   0.0927   0.0744   0.0202   0.0625   0.0175   0.0345   0.00    0.0
2016/06/27 00:29:00.000  -2200207.2881   5924895.9404   -855929.1082   -168433.5434         0.0000         0.0000         0.0000     2.5522     1.7353   6  10   0.0913   0.0728   0.0198   0.0617   0.0175   0.0340   0.00    0.0
2016/06/27 00:29:30.000  -2200207.2957   5924895.9289   -855929.1085   -168590.6781         0.0000         0.0000         0.0000     2.5537     1.7339   6  10   0.0899   0.0714   0.0195   0.0609   0.0174   0.0335   0.00    0.0
2016/06/27 00:30:00.000  -2200207.3084   5924895.9210   -855929.1107   -168749.4313         0.0000         0.0000         0.0000     2.5545     1.7324   6  10   0.0885   0.0699   0.0191   0.0601   0.0173   0.0331   0.00    0.0
2016/06/27 00:30:30.000  -2200207.3160   5924895.9120   -855929.1113   -168910.1667         0.0000         0.0000         0.0000     2.5556     1.7309   6  10   0.0872   0.0686   0.0187   0.0594   0.0172   0.0326   0.00    0.0
2016/06/27 00:31:00.000  -2200207.3285   5924895.9026   -855929.1136   -169072.4580         0.0000         0.0000         0.0000     2.5566     1.7293   6  10   0.0859   0.0672   0.0184   0.0586   0.0170   0.0322   0.00    0.0
2016/06/27 00:31:30.000  -2200207.3356   5924895.8957   -855929.1145   -169233.2168         0.0000         0.0000         0.0000     2.5577     1.7277   6  10   0.0846   0.0659   0.0181   0.0578   0.0169   0.0317   0.00    0.0
2016/06/27 00:32:00.000  -2200207.3479   5924895.8837   -855929.1152   -169397.2254         0.0000         0.0000         0.0000     2.5595     1.7261   6  10   0.0834   0.0646   0.0177   0.0571   0.0168   0.0313   0.00    0.0
2016/06/27 00:32:30.000  -2200207.3523   5924895.8777   -855929.1150   -169558.9966         0.0000         0.0000         0.0000     2.5598     1.7244   6  10   0.0822   0.0634   0.0174   0.0563   0.0166   0.0309   0.00    0.0
2016/06/27 00:33:00.000  -2200207.3603   5924895.8688   -855929.1165   -169718.4301         0.0000         0.0000         0.0000     2.5601     1.7228   6  10   0.0810   0.0622   0.0171   0.0556   0.0165   0.0305   0.00    0.0
2016/06/27 00:33:30.000  -2200207.3721   5924895.8597   -855929.1177   -169878.2448         0.0000         0.0000         0.0000     2.5614     1.7211   6  10   0.0798   0.0611   0.0169   0.0548   0.0164   0.0301   0.00    0.0
2016/06/27 00:34:00.000  -2200207.3785   5924895.8573   -855929.1180   -170041.2574         0.0000         0.0000         0.0000     2.5613     1.7193   6  10   0.0787   0.0599   0.0166   0.0541   0.0162   0.0297   0.00    0.0
2016/06/27 00:34:30.000  -2200207.3743   5924895.8614   -855929.1173   -170201.7970         0.0000         0.0000         0.0000     2.5601     1.7176   6  10   0.0776   0.0588   0.0163   0.0534   0.0161   0.0294   0.00    0.0
2016/06/27 00:35:00.000  -2200207.3879   5924895.8574   -855929.1184   -170361.6595         0.0000         0.0000         0.0000     2.5598     1.7158   6  10   0.0765   0.0577   0.0161   0.0526   0.0159   0.0290   0.00    0.0
2016/06/27 00:35:30.000  -2200207.4013   5924895.8509   -855929.1199   -170524.7181         0.0000         0.0000         0.0000     2.5603     1.7140   6  10   0.0754   0.0567   0.0158   0.0519   0.0157   0.0286   0.00    0.0
2016/06/27 00:36:00.000  -2200207.4212   5924895.8373   -855929.1215   -170683.4707         0.0000         0.0000         0.0000     2.5627     1.7121   6  10   0.0744   0.0556   0.0156   0.0512   0.0156   0.0283   0.00    0.0
2016/06/27 00:36:30.000  -2200207.4252   5924895.8333   -855929.1211   -170842.5127         0.0000         0.0000         0.0000     2.5644     1.7103   6  10   0.0734   0.0546   0.0153   0.0505   0.0154   0.0279   0.00    0.0
2016/06/27 00:37:00.000  -2200207.4286   5924895.8296   -855929.1211   -171001.1435         0.0000         0.0000         0.0000     2.5656     1.7084   6  10   0.0724   0.0536   0.0151   0.0498   0.0152   0.0276   0.00    0.0
2016/06/27 00:37:30.000  -2200207.4397   5924895.8237   -855929.1223   -171163.2991         0.0000         0.0000         0.0000     2.5666     1.7065   6  10   0.0714   0.0527   0.0149   0.0491   0.0151   0.0272   0.00    0.0
2016/06/27 00:38:00.000  -2200207.4436   5924895.8217   -855929.1223   -171325.5199         0.0000         0.0000         0.0000     2.5670     1.7046   6  10   0.0704   0.0517   0.0146   0.0484   0.0149   0.0269   0.00    0.0
2016/06/27 00:38:30.000  -2200207.4521   5924895.8156   -855929.1227   -171488.5329         0.0000         0.0000         0.0000     2.5682     1.4978   6  11   0.0694   0.0508   0.0144   0.0477   0.0147   0.0266   0.00    0.0
2016/06/27 00:39:00.000  -2200207.4572   5924895.8105   -855929.1223   -171651.8892         0.0000         0.0000         0.0000     2.5694     1.4965   6  11   0.0685   0.0499   0.0142   0.0470   0.0145   0.0263   0.00    0.0
2016/06/27 00:39:30.000  -2200207.4594   5924895.8090   -855929.1220   -171815.6797         0.0000         0.0000         0.0000     2.5695     1.4952   6  11   0.0676   0.0491   0.0140   0.0464   0.0143   0.0259   0.00    0.0
2016/06/27 00:40:00.000  -2200207.4654   5924895.8062   -855929.1220   -171975.7329         0.0000         0.0000         0.0000     2.5696     1.4939   6  11   0.0667   0.0485   0.0138   0.0457   0.0141   0.0256   0.00    0.0
2016/06/27 00:40:30.000  -2200207.4736   5924895.8009   -855929.1225   -172134.5703         0.0000         0.0000         0.0000     2.5699     1.4926   6  11   0.0658   0.0478   0.0136   0.0451   0.0139   0.0253   0.00    0.0
2016/06/27 00:41:00.000  -2200207.4784   5924895.7983   -855929.1226   -172289.9062         0.0000         0.0000         0.0000     2.5700     1.4913   6  11   0.0649   0.0471   0.0135   0.0445   0.0137   0.0250   0.00    0.0
2016/06/27 00:41:30.000  -2200207.4904   5924895.7912   -855929.1237   -172445.3850         0.0000         0.0000         0.0000     2.5709     1.4900   6  11   0.0640   0.0465   0.0133   0.0439   0.0135   0.0247   0.00    0.0
2016/06/27 00:42:00.000  -2200207.5034   5924895.7849   -855929.1251   -172599.5300         0.0000         0.0000         0.0000     2.5713     1.4887   6  10   0.0632   0.0458   0.0131   0.0433   0.0133   0.0244   0.00    0.0
2016/06/27 00:42:30.000  -2200207.5168   5924895.7756   -855929.1269   -172751.1128         0.0000         0.0000         0.0000     2.5724     1.4874   6  10   0.0624   0.0452   0.0129   0.0427   0.0130   0.0241   0.00    0.0
2016/06/27 00:43:00.000  -2200207.5267   5924895.7702   -855929.1283   -172903.7981         0.0000         0.0000         0.0000     2.5731     1.4862   6  10   0.0615   0.0446   0.0128   0.0422   0.0128   0.0238   0.00    0.0
2016/06/27 00:43:30.000  -2200207.5362   5924895.7618   -855929.1289   -173057.8370         0.0000         0.0000         0.0000     2.5742     1.4849   6  10   0.0607   0.0440   0.0126   0.0416   0.0126   0.0235   0.00    0.0
2016/06/27 00:44:00.000  -2200207.5478   5924895.7539   -855929.1302   -173215.2685         0.0000         0.0000         0.0000     2.5751     1.4836   6  10   0.0599   0.0434   0.0124   0.0410   0.0124   0.0232   0.00    0.0
2016/06/27 00:44:30.000  -2200207.5591   5924895.7458   -855929.1315   -173371.9753         0.0000         0.0000         0.0000     2.5763     1.4824   6  10   0.0591   0.0429   0.0123   0.0405   0.0122   0.0229   0.00    0.0
2016/06/27 00:45:00.000  -2200207.5670   5924895.7410   -855929.1318   -173525.6669         0.0000         0.0000         0.0000     2.5764     1.4811   6  10   0.0583   0.0423   0.0121   0.0399   0.0120   0.0226   0.00    0.0
2016/06/27 00:45:30.000  -2200207.5750   5924895.7355   -855929.1324   -173676.6434         0.0000         0.0000         0.0000     2.5767     1.4799   6  10   0.0576   0.0418   0.0120   0.0394   0.0118   0.0224   0.00    0.0
2016/06/27 00:46:00.000  -2200207.5824   5924895.7297   -855929.1329   -173818.2814         0.0000         0.0000         0.0000     2.5777     1.4786   6  10   0.0568   0.0412   0.0118   0.0388   0.0116   0.0221   0.00    0.0
2016/06/27 00:46:30.000  -2200207.5893   5924895.7266   -855929.1337   -173961.4479         0.0000         0.0000         0.0000     2.5777     1.4774   6  10   0.0561   0.0407   0.0117   0.0383   0.0114   0.0218   0.00    0.0
2016/06/27 00:47:00.000  -2200207.5949   5924895.7232   -855929.1342   -174106.0313         0.0000         0.0000         0.0000     2.5780     1.4761   6  10   0.0553   0.0402   0.0115   0.0378   0.0112   0.0215   0.00    0.0
2016/06/27 00:47:30.000  -2200207.6041   5924895.7166   -855929.1354   -174251.9864         0.0000         0.0000         0.0000     2.5788     1.4749   6  10   0.0546   0.0396   0.0114   0.0373   0.0110   0.0213   0.00    0.0
2016/06/27 00:48:00.000  -2200207.6068   5924895.7147   -855929.1358   -174400.2637         0.0000         0.0000         0.0000     2.5787     1.4737   6  10   0.0539   0.0391   0.0112   0.0367   0.0108   0.0210   0.00    0.0
2016/06/27 00:48:30.000  -2200207.6126   5924895.7097   -855929.1365   -174547.9273         0.0000         0.0000         0.0000     2.5795     1.4725   6  10   0.0532   0.0386   0.0111   0.0362   0.0106   0.0208   0.00    0.0
2016/06/27 00:49:00.000  -2200207.6180   5924895.7067   -855929.1373   -174690.8477         0.0000         0.0000         0.0000     2.5796     1.4713   6  10   0.0525   0.0381   0.0110   0.0357   0.0104   0.0205   0.00    0.0
2016/06/27 00:49:30.000  -2200207.6264   5924895.7018   -855929.1384   -174832.5869         0.0000         0.0000         0.0000     2.5799     1.4701   6  10   0.0518   0.0376   0.0108   0.0352   0.0102   0.0203   0.00    0.0
2016/06/27 00:50:00.000  -2200207.6358   5924895.6955   -855929.1397   -174974.2985         0.0000         0.0000         0.0000     2.5808     1.4689   6  10   0.0511   0.0371   0.0107   0.0347   0.0101   0.0200   0.00    0.0
2016/06/27 00:50:30.000  -2200207.6363   5924895.6959   -855929.1400   -175113.6254         0.0000         0.0000         0.0000     2.5805     1.4678   6  10   0.0507   0.0368   0.0106   0.0344   0.0100   0.0199   0.00    0.0
2016/06/27 00:51:00.000  -2200207.6362   5924895.6951   -855929.1396   -175253.3816         0.0000         0.0000         0.0000     2.5807     1.4666   6  10   0.0502   0.0364   0.0105   0.0341   0.0099   0.0197   0.00    0.0
2016/06/27 00:51:30.000  -2200207.6387   5924895.6944   -855929.1401   -175391.9450         0.0000         0.0000         0.0000     2.5811     1.4654   6  10   0.0498   0.0360   0.0104   0.0338   0.0098   0.0195   0.00    0.0
2016/06/27 00:52:00.000  -2200207.6416   5924895.6930   -855929.1406   -175527.2290         0.0000         0.0000         0.0000     2.5813     1.4643   6  10   0.0493   0.0357   0.0103   0.0335   0.0097   0.0194   0.00    0.0
2016/06/27 00:52:30.000  -2200207.6457   5924895.6909   -855929.1411   -175659.5446         0.0000         0.0000         0.0000     2.5816     1.4632   6  10   0.0489   0.0353   0.0102   0.0332   0.0096   0.0192   0.00    0.0
2016/06/27 00:53:00.000  -2200207.6464   5924895.6905   -855929.1410   -175788.4867         0.0000         0.0000         0.0000     2.5817     1.4620   6  10   0.0484   0.0349   0.0101   0.0329   0.0095   0.0190   0.00    0.0
2016/06/27 00:53:30.000  -2200207.6501   5924895.6893   -855929.1416   -175912.6956         0.0000         0.0000         0.0000     2.5817     1.4609   6  10   0.0480   0.0345   0.0100   0.0325   0.0094   0.0188   0.00    0.0
2016/06/27 00:54:00.000  -2200207.6552   5924895.6874   -855929.1424   -176037.9735         0.0000         0.0000         0.0000     2.5819     1.7453   6  10   0.0475   0.0341   0.0099   0.0322   0.0092   0.0187   0.00    0.0
2016/06/27 00:54:30.000  -2200207.6582   5924895.6873   -855929.1430   -176165.8221         0.0000         0.0000         0.0000     2.5818     1.7458   6  10   0.0470   0.0338   0.0098   0.0319   0.0091   0.0185   0.00    0.0
2016/06/27 00:55:00.000  -2200207.6603   5924895.6858   -855929.1433   -176296.0727         0.0000         0.0000         0.0000     2.5822     1.7463   6  10   0.0465   0.0334   0.0097   0.0315   0.0090   0.0183   0.00    0.0
2016/06/27 00:55:30.000  -2200207.6628   5924895.6842   -855929.1438   -176425.8649         0.0000         0.0000         0.0000     2.5826     1.7468   6  10   0.0461   0.0330   0.0096   0.0311   0.0089   0.0182   0.00    0.0
2016/06/27 00:56:00.000  -2200207.6677   5924895.6796   -855929.1442   -176557.4569         0.0000         0.0000         0.0000     2.5837     1.7473   6  10   0.0456   0.0326   0.0095   0.0308   0.0088   0.0180   0.00    0.0
2016/06/27 00:56:30.000  -2200207.6711   5924895.6768   -855929.1445   -176689.9982         0.0000         0.0000         0.0000     2.5845     1.7477   6  10   0.0451   0.0322   0.0094   0.0304   0.0086   0.0178   0.00    0.0
2016/06/27 00:57:00.000  -2200207.6740   5924895.6757   -855929.1446   -176820.0843         0.0000         0.0000         0.0000     2.5849     1.7481   6  10   0.0446   0.0318   0.0093   0.0301   0.0085   0.0176   0.00    0.0
2016/06/27 00:57:30.000  -2200207.6759   5924895.6755   -855929.1448   -176949.8905         0.0000         0.0000         0.0000     2.5849     1.7485   6  10   0.0442   0.0314   0.0092   0.0297   0.0084   0.0174   0.00    0.0
2016/06/27 00:58:00.000  -2200207.6777   5924895.6750   -855929.1453   -177081.6280         0.0000         0.0000         0.0000     2.5849     1.7488   6  10   0.0437   0.0310   0.0091   0.0293   0.0082   0.0173   0.00    0.0
2016/06/27 00:58:30.000  -2200207.6800   5924895.6746   -855929.1457   -177209.8297         0.0000         0.0000         0.0000     2.5849     1.7491   6  10   0.0432   0.0306   0.0090   0.0289   0.0081   0.0171   0.00    0.0
2016/06/27 00:59:00.000  -2200207.6837   5924895.6724   -855929.1458   -177339.1898         0.0000         0.0000         0.0000     2.5852     1.7494   6  10   0.0427   0.0303   0.0089   0.0286   0.0080   0.0169   0.00    0.0
2016/06/27 00:59:30.000  -2200207.6884   5924895.6696   -855929.1463   -177469.9813         0.0000         0.0000         0.0000     2.5854     1.7497   6  10   0.0422   0.0299   0.0088   0.0282   0.0078   0.0167   0.00    0.0
2016/06/27 01:00:00.000  -2200207.6927   5924895.6675   -855929.1469   -177601.9613         0.0000         0.0000         0.0000     2.5857     1.7499   6  10   0.0418   0.0295   0.0088   0.0278   0.0077   0.0166   0.00    0.0
2016/06/27 01:00:30.000  -2200207.6954   5924895.6666   -855929.1472   -177728.6267         0.0000         0.0000         0.0000     2.5856     1.7501   6  10   0.0413   0.0291   0.0087   0.0274   0.0076   0.0164   0.00    0.0
2016/06/27 01:01:00.000  -2200207.7004   5924895.6620   -855929.1477   -177855.4806         0.0000         0.0000         0.0000     2.5868     1.7502   6  10   0.0408   0.0287   0.0086   0.0271   0.0074   0.0162   0.00    0.0
2016/06/27 01:01:30.000  -2200207.7041   5924895.6605   -855929.1481   -177981.9876         0.0000         0.0000         0.0000     2.5868     1.7503   6  10   0.0403   0.0284   0.0085   0.0267   0.0073   0.0160   0.00    0.0
2016/06/27 01:02:00.000  -2200207.7086   5924895.6576   -855929.1487   -178108.8530         0.0000         0.0000         0.0000     2.5876     1.7504   6  10   0.0399   0.0280   0.0084   0.0263   0.0072   0.0159   0.00    0.0
2016/06/27 01:02:30.000  -2200207.7131   5924895.6559   -855929.1495   -178229.3744         0.0000         0.0000         0.0000     2.5878     1.7505   6  10   0.0394   0.0276   0.0083   0.0259   0.0070   0.0157   0.00    0.0
2016/06/27 01:03:00.000  -2200207.7198   5924895.6526   -855929.1506   -178349.1130         0.0000         0.0000         0.0000     2.5886     1.7505   6  10   0.0389   0.0272   0.0082   0.0256   0.0069   0.0155   0.00    0.0
2016/06/27 01:03:30.000  -2200207.7274   5924895.6476   -855929.1516   -178467.6655         0.0000         0.0000         0.0000     2.5896     1.7505   6  10   0.0384   0.0269   0.0082   0.0252   0.0068   0.0153   0.00    0.0
2016/06/27 01:04:00.000  -2200207.7325   5924895.6451   -855929.1523   -178586.7181         0.0000         0.0000         0.0000     2.5903     1.7504   6  10   0.0380   0.0265   0.0081   0.0248   0.0066   0.0152   0.00    0.0
2016/06/27 01:04:30.000  -2200207.7360   5924895.6439   -855929.1530   -178710.2211         0.0000         0.0000         0.0000     2.5903     1.7503   6  10   0.0375   0.0262   0.0080   0.0245   0.0065   0.0150   0.00    0.0
2016/06/27 01:05:00.000  -2200207.7411   5924895.6418   -855929.1539   -178831.9661         0.0000         0.0000         0.0000     2.5902     1.7502   6  10   0.0371   0.0258   0.0079   0.0241   0.0063   0.0148   0.00    0.0
2016/06/27 01:05:30.000  -2200207.7467   5924895.6384   -855929.1549   -178951.8456         0.0000         0.0000         0.0000     2.5912     1.7500   6  10   0.0366   0.0255   0.0078   0.0237   0.0062   0.0147   0.00    0.0
2016/06/27 01:06:00.000  -2200207.7546   5924895.6340   -855929.1561   -179072.6298         0.0000         0.0000         0.0000     2.5922     1.7499   6  10   0.0362   0.0251   0.0078   0.0234   0.0061   0.0145   0.00    0.0
2016/06/27 01:06:30.000  -2200207.7628   5924895.6289   -855929.1572   -179192.4793         0.0000         0.0000         0.0000     2.5936     1.7496   6  10   0.0357   0.0248   0.0077   0.0230   0.0059   0.0143   0.00    0.0
2016/06/27 01:07:00.000  -2200207.7691   5924895.6248   -855929.1579   -179308.1112         0.0000         0.0000         0.0000     2.5944     1.7494   6  10   0.0353   0.0244   0.0076   0.0227   0.0058   0.0142   0.00    0.0
2016/06/27 01:07:30.000  -2200207.7745   5924895.6223   -855929.1586   -179414.4494         0.0000         0.0000         0.0000     2.5946     1.7491   6  10   0.0349   0.0241   0.0075   0.0223   0.0057   0.0140   0.00    0.0
2016/06/27 01:08:00.000  -2200207.7792   5924895.6193   -855929.1591   -179523.0357         0.0000         0.0000         0.0000     2.5955     1.7487   6  10   0.0344   0.0238   0.0075   0.0220   0.0055   0.0139   0.00    0.0
2016/06/27 01:08:30.000  -2200207.7857   5924895.6131   -855929.1596   -179631.7885         0.0000         0.0000         0.0000     2.5975     1.7483   6  10   0.0340   0.0234   0.0074   0.0216   0.0054   0.0137   0.00    0.0
2016/06/27 01:09:00.000  -2200207.7942   5924895.6064   -855929.1607   -179734.2655         0.0000         0.0000         0.0000     2.5992     1.7479   6  10   0.0336   0.0231   0.0073   0.0213   0.0053   0.0135   0.00    0.0
2016/06/27 01:09:30.000  -2200207.7990   5924895.6021   -855929.1611   -179834.7214         0.0000         0.0000         0.0000     2.6004     1.7475   6  10   0.0331   0.0228   0.0072   0.0210   0.0051   0.0134   0.00    0.0
2016/06/27 01:10:00.000  -2200207.8011   5924895.6005   -855929.1613   -179936.0578         0.0000         0.0000         0.0000     2.6008     1.7470   6  10   0.0327   0.0225   0.0072   0.0206   0.0050   0.0132   0.00    0.0
2016/06/27 01:10:30.000  -2200207.8032   5924895.5976   -855929.1614   -180038.1454         0.0000         0.0000         0.0000     2.6015     1.7465   6  10   0.0323   0.0222   0.0071   0.0203   0.0049   0.0131   0.00    0.0
2016/06/27 01:11:00.000  -2200207.8068   5924895.5948   -855929.1618   -180133.5933         0.0000         0.0000         0.0000     2.6022     1.7459   6  10   0.0319   0.0219   0.0070   0.0200   0.0047   0.0129   0.00    0.0
2016/06/27 01:11:30.000  -2200207.8103   5924895.5914   -855929.1620   -180225.2472         0.0000         0.0000         0.0000     2.6029     1.7453   6  10   0.0315   0.0216   0.0069   0.0197   0.0046   0.0128   0.00    0.0
2016/06/27 01:12:00.000  -2200207.8148   5924895.5883   -855929.1623   -180316.5904         0.0000         0.0000         0.0000     2.6037     1.7447   6  10   0.0311   0.0213   0.0069   0.0194   0.0045   0.0126   0.00    0.0
2016/06/27 01:12:30.000  -2200207.8203   5924895.5845   -855929.1627   -180406.7010         0.0000         0.0000         0.0000     2.6046     1.7441   6  10   0.0307   0.0210   0.0068   0.0191   0.0043   0.0125   0.00    0.0
2016/06/27 01:13:00.000  -2200207.8275   5924895.5795   -855929.1634   -180497.3044         0.0000         0.0000         0.0000     2.6058     1.7434   6  10   0.0304   0.0207   0.0067   0.0187   0.0042   0.0123   0.00    0.0
2016/06/27 01:13:30.000  -2200207.8350   5924895.5761   -855929.1643   -180587.1861         0.0000         0.0000         0.0000     2.6065     1.7426   6  10   0.0300   0.0205   0.0067   0.0184   0.0041   0.0122   0.00    0.0
2016/06/27 01:14:00.000  -2200207.8414   5924895.5730   -855929.1650   -180677.1677         0.0000         0.0000         0.0000     2.6070     1.7419   6  10   0.0296   0.0202   0.0066   0.0182   0.0040   0.0120   0.00    0.0
2016/06/27 01:14:30.000  -2200207.8449   5924895.5722   -855929.1655   -180762.5369         0.0000         0.0000         0.0000     2.6071     1.7411   6  10   0.0292   0.0199   0.0066   0.0179   0.0038   0.0119   0.00    0.0
2016/06/27 01:15:00.000  -2200207.8475   5924895.5720   -855929.1658   -180851.7708         0.0000         0.0000         0.0000     2.6072     1.7402   6  10   0.0289   0.0197   0.0065   0.0176   0.0037   0.0118   0.00    0.0
2016/06/27 01:15:30.000  -2200207.8516   5924895.5693   -855929.1664   -180937.3202         0.0000         0.0000         0.0000     2.6078     1.7394   6  10   0.0285   0.0194   0.0064   0.0173   0.0036   0.0116   0.00    0.0
2016/06/27 01:16:00.000  -2200207.8550   5924895.5667   -855929.1667   -181020.9167         0.0000         0.0000         0.0000     2.6084     1.7385   6  10   0.0281   0.0191   0.0064   0.0170   0.0034   0.0115   0.00    0.0
2016/06/27 01:16:30.000  -2200207.8544   5924895.5671   -855929.1665   -181103.3306         0.0000         0.0000         0.0000     2.6081     1.7375   6  10   0.0278   0.0189   0.0063   0.0167   0.0033   0.0114   0.00    0.0
2016/06/27 01:17:00.000  -2200207.8521   5924895.5695   -855929.1661   -181181.5615         0.0000         0.0000         0.0000     2.6073     1.7366   6  10   0.0274   0.0187   0.0062   0.0165   0.0032   0.0112   0.00    0.0
2016/06/27 01:17:30.000  -2200207.8526   5924895.5698   -855929.1662   -181256.1634         0.0000         0.0000         0.0000     2.6071     1.7356   6  10   0.0271   0.0184   0.0062   0.0162   0.0030   0.0111   0.00    0.0
2016/06/27 01:18:00.000  -2200207.8584   5924895.5678   -855929.1670   -181330.8297         0.0000         0.0000         0.0000     2.6072     1.7345   6  10   0.0268   0.0182   0.0061   0.0159   0.0029   0.0110   0.00    0.0
2016/06/27 01:18:30.000  -2200207.8629   5924895.5658   -855929.1675   -181403.4557         0.0000         0.0000         0.0000     2.6075     1.7335   6  10   0.0264   0.0179   0.0061   0.0157   0.0028   0.0108   0.00    0.0
2016/06/27 01:19:00.000  -2200207.8670   5924895.5640   -855929.1679   -181471.3266         0.0000         0.0000         0.0000     2.6079     1.5064   6  11   0.0261   0.0177   0.0060   0.0154   0.0026   0.0107   0.00    0.0
2016/06/27 01:19:30.000  -2200207.8689   5924895.5631   -855929.1682   -181538.5358         0.0000         0.0000         0.0000     2.6080     1.5061   6  11   0.0258   0.0175   0.0059   0.0152   0.0025   0.0106   0.00    0.0
2016/06/27 01:20:00.000  -2200207.8705   5924895.5623   -855929.1684   -181599.3909         0.0000         0.0000         0.0000     2.6082     1.5057   6  11   0.0254   0.0173   0.0059   0.0149   0.0024   0.0105   0.00    0.0
2016/06/27 01:20:30.000  -2200207.8746   5924895.5600   -855929.1688   -181660.7887         0.0000         0.0000         0.0000     2.6087     1.5054   6  11   0.0251   0.0171   0.0058   0.0147   0.0022   0.0103   0.00    0.0
2016/06/27 01:21:00.000  -2200207.8788   5924895.5580   -855929.1695   -181722.8395         0.0000         0.0000         0.0000     2.6096     1.5050   6  11   0.0248   0.0168   0.0058   0.0144   0.0021   0.0102   0.00    0.0
2016/06/27 01:21:30.000  -2200207.8827   5924895.5557   -855929.1701   -181780.2939         0.0000         0.0000         0.0000     2.6102     1.5047   6  11   0.0245   0.0166   0.0057   0.0142   0.0019   0.0101   0.00    0.0
2016/06/27 01:22:00.000  -2200207.8867   5924895.5524   -855929.1705   -181838.4299         0.0000         0.0000         0.0000     2.6111     1.5043   6  11   0.0242   0.0164   0.0057   0.0140   0.0018   0.0100   0.00    0.0
2016/06/27 01:22:30.000  -2200207.8897   5924895.5511   -855929.1710   -181891.2850         0.0000         0.0000         0.0000     2.6113     1.5040   6  11   0.0239   0.0162   0.0056   0.0138   0.0016   0.0099   0.00    0.0
2016/06/27 01:23:00.000  -2200207.8918   5924895.5491   -855929.1713   -181945.5862         0.0000         0.0000         0.0000     2.6121     1.5037   6  11   0.0236   0.0160   0.0056   0.0135   0.0014   0.0098   0.00    0.0
2016/06/27 01:23:30.000  -2200207.8925   5924895.5486   -855929.1716   -181996.8508         0.0000         0.0000         0.0000     2.6124     1.5034   6  11   0.0233   0.0158   0.0055   0.0133   0.0012   0.0096   0.00    0.0
2016/06/27 01:24:00.000  -2200207.8945   5924895.5478   -855929.1719   -182046.8009         0.0000         0.0000         0.0000     2.6128     1.5031   6  11   0.0230   0.0156   0.0055   0.0131   0.0010   0.0095   0.00    0.0
2016/06/27 01:24:30.000  -2200207.8972   5924895.5465   -855929.1723   -182095.6475         0.0000         0.0000         0.0000     2.6132     1.5028   6  11   0.0227   0.0155   0.0054   0.0129   0.0006   0.0094   0.00    0.0
2016/06/27 01:25:00.000  -2200207.9006   5924895.5452   -855929.1728   -182144.5967         0.0000         0.0000         0.0000     2.6136     1.5025   6  11   0.0225   0.0153   0.0054   0.0127  -0.0002   0.0093   0.00    0.0
2016/06/27 01:25:30.000  -2200207.9057   5924895.5424   -855929.1734   -182193.3122         0.0000         0.0000         0.0000     2.6142     1.4539   6  12   0.0222   0.0151   0.0053   0.0125  -0.0007   0.0092   0.00    0.0
2016/06/27 01:26:00.000  -2200207.9091   5924895.5399   -855929.1738   -182241.5480         0.0000         0.0000         0.0000     2.6148     1.4540   6  11   0.0219   0.0149   0.0053   0.0123  -0.0010   0.0091   0.00    0.0
2016/06/27 01:26:30.000  -2200207.9108   5924895.5393   -855929.1741   -182284.2087         0.0000         0.0000         0.0000     2.6148     1.5138   6  11   0.0216   0.0148   0.0052   0.0121  -0.0012   0.0090   0.00    0.0
2016/06/27 01:27:00.000  -2200207.9119   5924895.5388   -855929.1744   -182330.5649         0.0000         0.0000         0.0000     2.6148     1.5151   6  11   0.0214   0.0147   0.0052   0.0119  -0.0014   0.0089   0.00    0.0
2016/06/27 01:27:30.000  -2200207.9146   5924895.5374   -855929.1748   -182378.1035         0.0000         0.0000         0.0000     2.6150     1.5163   6  11   0.0211   0.0146   0.0051   0.0117  -0.0016   0.0088   0.00    0.0
2016/06/27 01:28:00.000  -2200207.9165   5924895.5369   -855929.1754   -182423.6880         0.0000         0.0000         0.0000     2.6150     1.5175   6  11   0.0209   0.0145   0.0051   0.0115  -0.0017   0.0087   0.00    0.0
2016/06/27 01:28:30.000  -2200207.9195   5924895.5358   -855929.1760   -182465.3652         0.0000         0.0000         0.0000     2.6150     1.5188   6  11   0.0206   0.0144   0.0050   0.0114  -0.0018   0.0086   0.00    0.0
2016/06/27 01:29:00.000  -2200207.9225   5924895.5350   -855929.1765   -182507.2209         0.0000         0.0000         0.0000     2.6151     1.5201   6  11   0.0204   0.0143   0.0050   0.0112  -0.0020   0.0085   0.00    0.0
2016/06/27 01:29:30.000  -2200207.9239   5924895.5348   -855929.1769   -182547.1228         0.0000         0.0000         0.0000     2.6152     1.5214   6  11   0.0201   0.0142   0.0049   0.0110  -0.0021   0.0084   0.00    0.0
2016/06/27 01:30:00.000  -2200207.9249   5924895.5344   -855929.1770   -182585.3749         0.0000         0.0000         0.0000     2.6151     1.5227   6  11   0.0199   0.0141   0.0049   0.0109  -0.0022   0.0083   0.00    0.0
2016/06/27 01:30:30.000  -2200207.9266   5924895.5340   -855929.1773   -182628.6026         0.0000         0.0000         0.0000     2.6153     1.5240   6  11   0.0196   0.0140   0.0049   0.0107  -0.0023   0.0082   0.00    0.0
2016/06/27 01:31:00.000  -2200207.9294   5924895.5328   -855929.1778   -182681.0196         0.0000         0.0000         0.0000     2.6156     1.5253   6  11   0.0194   0.0139   0.0048   0.0105  -0.0023   0.0081   0.00    0.0
2016/06/27 01:31:30.000  -2200207.9313   5924895.5319   -855929.1781   -182723.7657         0.0000         0.0000         0.0000     2.6157     1.5267   6  11   0.0192   0.0138   0.0048   0.0104  -0.0024   0.0080   0.00    0.0
2016/06/27 01:32:00.000  -2200207.9325   5924895.5314   -855929.1784   -182759.3736         0.0000         0.0000         0.0000     2.6157     1.5280   6  11   0.0190   0.0137   0.0047   0.0102  -0.0025   0.0079   0.00    0.0
2016/06/27 01:32:30.000  -2200207.9330   5924895.5311   -855929.1786   -182795.1815         0.0000         0.0000         0.0000     2.6157     1.5294   6  11   0.0187   0.0136   0.0047   0.0101  -0.0026   0.0078   0.00    0.0
2016/06/27 01:33:00.000  -2200207.9342   5924895.5302   -855929.1789   -182833.1200         0.0000         0.0000         0.0000     2.6157     1.5308   6  11   0.0185   0.0136   0.0047   0.0099  -0.0026   0.0077   0.00    0.0
2016/06/27 01:33:30.000  -2200207.9352   5924895.5295   -855929.1791   -182867.9150         0.0000         0.0000         0.0000     2.6158     1.5322   6  11   0.0183   0.0135   0.0046   0.0098  -0.0027   0.0076   0.00    0.0
2016/06/27 01:34:00.000  -2200207.9376   5924895.5284   -855929.1795   -182902.4614         0.0000         0.0000         0.0000     2.6161     1.5336   6  11   0.0181   0.0134   0.0046   0.0096  -0.0027   0.0075   0.00    0.0
2016/06/27 01:34:30.000  -2200207.9399   5924895.5275   -855929.1799   -182939.3699         0.0000         0.0000         0.0000     2.6166     1.5351   6  11   0.0179   0.0133   0.0045   0.0095  -0.0028   0.0074   0.00    0.0
2016/06/27 01:35:00.000  -2200207.9436   5924895.5259   -855929.1803   -182970.7687         0.0000         0.0000         0.0000     2.6171     1.5365   6  11   0.0177   0.0132   0.0045   0.0093  -0.0028   0.0074   0.00    0.0
2016/06/27 01:35:30.000  -2200207.9473   5924895.5244   -855929.1808   -183002.8181         0.0000         0.0000         0.0000     2.6177     1.5380   6  11   0.0175   0.0132   0.0045   0.0092  -0.0029   0.0073   0.00    0.0
2016/06/27 01:36:00.000  -2200207.9490   5924895.5238   -855929.1811   -183031.5372         0.0000         0.0000         0.0000     2.6180     1.5395   6  11   0.0173   0.0131   0.0044   0.0091  -0.0029   0.0072   0.00    0.0
2016/06/27 01:36:30.000  -2200207.9492   5924895.5236   -855929.1812   -183056.8038         0.0000         0.0000         0.0000     2.6180     1.5410   6  10   0.0171   0.0130   0.0044   0.0090  -0.0030   0.0071   0.00    0.0
2016/06/27 01:37:00.000  -2200207.9497   5924895.5232   -855929.1813   -183079.6387         0.0000         0.0000         0.0000     2.6179     1.5425   6  11   0.0169   0.0130   0.0044   0.0088  -0.0030   0.0070   0.00    0.0
2016/06/27 01:37:30.000  -2200207.9501   5924895.5229   -855929.1814   -183102.9497         0.0000         0.0000         0.0000     2.6177     1.5440   6  11   0.0167   0.0129   0.0043   0.0087  -0.0030   0.0070   0.00    0.0
2016/06/27 01:38:00.000  -2200207.9490   5924895.5234   -855929.1814   -183128.3628         0.0000         0.0000         0.0000     2.6173     1.5456   6  11   0.0165   0.0128   0.0043   0.0086  -0.0031   0.0069   0.00    0.0
2016/06/27 01:38:30.000  -2200207.9478   5924895.5242   -855929.1813   -183148.6626         0.0000         0.0000         0.0000     2.6167     1.5471   6  11   0.0163   0.0127   0.0043   0.0084  -0.0031   0.0068   0.00    0.0
2016/06/27 01:39:00.000  -2200207.9462   5924895.5250   -855929.1812   -183170.4414         0.0000         0.0000         0.0000     2.6163     1.5487   6  11   0.0161   0.0127   0.0042   0.0083  -0.0031   0.0067   0.00    0.0
2016/06/27 01:39:30.000  -2200207.9448   5924895.5258   -855929.1812   -183193.6700         0.0000         0.0000         0.0000     2.6161     1.5503   6  11   0.0160   0.0126   0.0042   0.0082  -0.0032   0.0067   0.00    0.0
2016/06/27 01:40:00.000  -2200207.9444   5924895.5264   -855929.1814   -183221.1144         0.0000         0.0000         0.0000     2.6160     1.5519   6  11   0.0158   0.0125   0.0042   0.0080  -0.0032   0.0066   0.00    0.0
2016/06/27 01:40:30.000  -2200207.9444   5924895.5270   -855929.1815   -183246.3919         0.0000         0.0000         0.0000     2.6158     1.5535   6  11   0.0156   0.0125   0.0041   0.0079  -0.0032   0.0065   0.00    0.0
2016/06/27 01:41:00.000  -2200207.9450   5924895.5268   -855929.1817   -183275.1083         0.0000         0.0000         0.0000     2.6157     1.5552   6  11   0.0154   0.0124   0.0041   0.0078  -0.0032   0.0064   0.00    0.0
2016/06/27 01:41:30.000  -2200207.9458   5924895.5262   -855929.1818   -183301.3063         0.0000         0.0000         0.0000     2.6159     1.5568   6  11   0.0153   0.0123   0.0041   0.0077  -0.0033   0.0064   0.00    0.0
2016/06/27 01:42:00.000  -2200207.9473   5924895.5252   -855929.1820   -183327.8253         0.0000         0.0000         0.0000     2.6163     1.5585   6  11   0.0151   0.0122   0.0040   0.0075  -0.0033   0.0063   0.00    0.0
2016/06/27 01:42:30.000  -2200207.9494   5924895.5244   -855929.1824   -183351.4659         0.0000         0.0000         0.0000     2.6167     1.5602   6  11   0.0149   0.0122   0.0040   0.0074  -0.0033   0.0062   0.00    0.0
2016/06/27 01:43:00.000  -2200207.9513   5924895.5236   -855929.1827   -183373.4600         0.0000         0.0000         0.0000     2.6172     1.5619   6  11   0.0148   0.0121   0.0040   0.0073  -0.0033   0.0062   0.00    0.0
2016/06/27 01:43:30.000  -2200207.9522   5924895.5232   -855929.1830   -183397.1437         0.0000         0.0000         0.0000     2.6176     1.5636   6  11   0.0146   0.0120   0.0039   0.0072  -0.0034   0.0061   0.00    0.0
2016/06/27 01:44:00.000  -2200207.9532   5924895.5235   -855929.1832   -183421.3509         0.0000         0.0000         0.0000     2.6177     1.5653   6  11   0.0144   0.0120   0.0039   0.0071  -0.0034   0.0060   0.00    0.0
2016/06/27 01:44:30.000  -2200207.9537   5924895.5242   -855929.1835   -183440.2307         0.0000         0.0000         0.0000     2.6177     1.5670   6  11   0.0143   0.0119   0.0039   0.0070  -0.0034   0.0060   0.00    0.0
2016/06/27 01:45:00.000  -2200207.9540   5924895.5247   -855929.1836   -183460.9410         0.0000         0.0000         0.0000     2.6175     1.5688   6  11   0.0141   0.0118   0.0038   0.0068  -0.0034   0.0059   0.00    0.0
2016/06/27 01:45:30.000  -2200207.9547   5924895.5248   -855929.1838   -183484.3417         0.0000         0.0000         0.0000     2.6176     1.5706   6  11   0.0140   0.0118   0.0038   0.0067  -0.0034   0.0058   0.00    0.0
2016/06/27 01:46:00.000  -2200207.9540   5924895.5252   -855929.1838   -183507.0760         0.0000         0.0000         0.0000     2.6174     1.5723   6  11   0.0138   0.0117   0.0038   0.0066  -0.0034   0.0058   0.00    0.0
2016/06/27 01:46:30.000  -2200207.9532   5924895.5258   -855929.1839   -183528.4541         0.0000         0.0000         0.0000     2.6171     1.5741   6  11   0.0137   0.0116   0.0038   0.0065  -0.0034   0.0057   0.00    0.0
2016/06/27 01:47:00.000  -2200207.9524   5924895.5265   -855929.1839   -183546.5879         0.0000         0.0000         0.0000     2.6166     1.5760   6  11   0.0135   0.0116   0.0037   0.0064  -0.0035   0.0056   0.00    0.0
2016/06/27 01:47:30.000  -2200207.9531   5924895.5269   -855929.1841   -183566.3485         0.0000         0.0000         0.0000     2.6164     1.5778   6  11   0.0134   0.0115   0.0037   0.0063  -0.0035   0.0056   0.00    0.0
2016/06/27 01:48:00.000  -2200207.9531   5924895.5276   -855929.1843   -183583.8261         0.0000         0.0000         0.0000     2.6162     1.5796   6  11   0.0132   0.0114   0.0037   0.0062  -0.0035   0.0055   0.00    0.0
2016/06/27 01:48:30.000  -2200207.9540   5924895.5271   -855929.1845   -183600.1249         0.0000         0.0000         0.0000     2.6165     1.5815   6  11   0.0131   0.0114   0.0037   0.0061  -0.0035   0.0055   0.00    0.0
2016/06/27 01:49:00.000  -2200207.9546   5924895.5268   -855929.1847   -183617.9610         0.0000         0.0000         0.0000     2.6167     1.5833   6  11   0.0130   0.0113   0.0036   0.0060  -0.0035   0.0054   0.00    0.0
2016/06/27 01:49:30.000  -2200207.9549   5924895.5268   -855929.1847   -183639.5506         0.0000         0.0000         0.0000     2.6165     1.5852   6  11   0.0128   0.0112   0.0036   0.0059  -0.0035   0.0053   0.00    0.0
2016/06/27 01:50:00.000  -2200207.9548   5924895.5266   -855929.1848   -183656.4784         0.0000         0.0000         0.0000     2.6163     1.5871   6  11   0.0127   0.0112   0.0036   0.0058  -0.0035   0.0053   0.00    0.0
2016/06/27 01:50:30.000  -2200207.9554   5924895.5260   -855929.1848   -183668.4967         0.0000         0.0000         0.0000     2.6165     1.5890   6  11   0.0126   0.0111   0.0035   0.0057  -0.0035   0.0052   0.00    0.0
2016/06/27 01:51:00.000  -2200207.9560   5924895.5257   -855929.1848   -183682.2262         0.0000         0.0000         0.0000     2.6163     1.5909   6  11   0.0124   0.0111   0.0035   0.0056  -0.0035   0.0052   0.00    0.0
2016/06/27 01:51:30.000  -2200207.9562   5924895.5254   -855929.1848   -183695.2468         0.0000         0.0000         0.0000     2.6165     1.5928   6  11   0.0123   0.0110   0.0035   0.0055  -0.0035   0.0051   0.00    0.0
2016/06/27 01:52:00.000  -2200207.9568   5924895.5258   -855929.1849   -183709.2295         0.0000         0.0000         0.0000     2.6164     1.5947   6  11   0.0122   0.0109   0.0035   0.0054  -0.0035   0.0051   0.00    0.0
2016/06/27 01:52:30.000  -2200207.9571   5924895.5263   -855929.1850   -183720.5145         0.0000         0.0000         0.0000     2.6161     1.5967   6  11   0.0121   0.0109   0.0034   0.0053  -0.0035   0.0050   0.00    0.0
2016/06/27 01:53:00.000  -2200207.9581   5924895.5254   -855929.1852   -183732.3359         0.0000         0.0000         0.0000     2.6161     1.5986   6  11   0.0119   0.0108   0.0034   0.0052  -0.0035   0.0050   0.00    0.0
2016/06/27 01:53:30.000  -2200207.9589   5924895.5250   -855929.1854   -183744.3138         0.0000         0.0000         0.0000     2.6163     1.6006   6  11   0.0118   0.0107   0.0034   0.0051  -0.0035   0.0049   0.00    0.0
2016/06/27 01:54:00.000  -2200207.9591   5924895.5253   -855929.1856   -183754.9021         0.0000         0.0000         0.0000     2.6162     1.6025   6  11   0.0117   0.0107   0.0034   0.0050  -0.0035   0.0049   0.00    0.0
2016/06/27 01:54:30.000  -2200207.9592   5924895.5257   -855929.1859   -183762.4629         0.0000         0.0000         0.0000     2.6163     1.6045   6  11   0.0116   0.0106   0.0034   0.0049  -0.0035   0.0048   0.00    0.0
2016/06/27 01:55:00.000  -2200207.9593   5924895.5255   -855929.1860   -183772.2491         0.0000         0.0000         0.0000     2.6166     1.6065   6  11   0.0115   0.0106   0.0033   0.0049  -0.0035   0.0048   0.00    0.0
2016/06/27 01:55:30.000  -2200207.9603   5924895.5243   -855929.1861   -183783.9541         0.0000         0.0000         0.0000     2.6170     1.6085   6  11   0.0114   0.0105   0.0033   0.0048  -0.0035   0.0047   0.00    0.0
2016/06/27 01:56:00.000  -2200207.9607   5924895.5239   -855929.1860   -183794.5476         0.0000         0.0000         0.0000     2.6170     1.6105   6  11   0.0113   0.0104   0.0033   0.0047  -0.0035   0.0047   0.00    0.0
2016/06/27 01:56:30.000  -2200207.9610   5924895.5240   -855929.1861   -183809.3511         0.0000         0.0000         0.0000     2.6168     1.6125   6  11   0.0112   0.0104   0.0033   0.0046  -0.0035   0.0046   0.00    0.0
2016/06/27 01:57:00.000  -2200207.9612   5924895.5245   -855929.1862   -183825.2647         0.0000         0.0000         0.0000     2.6168     1.6145   6  11   0.0111   0.0103   0.0032   0.0045  -0.0035   0.0046   0.00    0.0
2016/06/27 01:57:30.000  -2200207.9618   5924895.5245   -855929.1863   -183840.2449         0.0000         0.0000         0.0000     2.6168     1.6165   6  11   0.0109   0.0103   0.0032   0.0045  -0.0035   0.0045   0.00    0.0
2016/06/27 01:58:00.000  -2200207.9621   5924895.5243   -855929.1863   -183858.8201         0.0000         0.0000         0.0000     2.6166     1.6185   6  11   0.0108   0.0102   0.0032   0.0044  -0.0035   0.0045   0.00    0.0
2016/06/27 01:58:30.000  -2200207.9622   5924895.5240   -855929.1863   -183880.4640         0.0000         0.0000         0.0000     2.6167     1.6205   6  11   0.0107   0.0101   0.0032   0.0043  -0.0035   0.0044   0.00    0.0
2016/06/27 01:59:00.000  -2200207.9623   5924895.5242   -855929.1864   -183902.4047         0.0000         0.0000         0.0000     2.6166     1.6225   6  11   0.0106   0.0101   0.0032   0.0042  -0.0035   0.0044   0.00    0.0
2016/06/27 01:59:30.000  -2200207.9623   5924895.5247   -855929.1864   -183922.3197         0.0000         0.0000         0.0000     2.6164     1.6246   6  11   0.0106   0.0100   0.0031   0.0041  -0.0035   0.0043   0.00    0.0
2016/06/27 02:00:00.000  -2200207.9626   5924895.5247   -855929.1864   -183944.8495         0.0000         0.0000         0.0000     2.6163     1.6266   6  11   0.0105   0.0100   0.0031   0.0041  -0.0035   0.0043   0.00    0.0
2016/06/27 02:00:30.000  -2200207.9632   5924895.5247   -855929.1867   -183970.3537         0.0000         0.0000         0.0000     2.6163     1.6286   6  11   0.0104   0.0099   0.0031   0.0040  -0.0035   0.0043   0.00    0.0
2016/06/27 02:01:00.000  -2200207.9640   5924895.5243   -855929.1869   -183995.9915         0.0000         0.0000         0.0000     2.6162     1.6306   6  11   0.0103   0.0099   0.0031   0.0039  -0.0035   0.0042   0.00    0.0
2016/06/27 02:01:30.000  -2200207.9645   5924895.5243   -855929.1871   -184022.2058         0.0000         0.0000         0.0000     2.6161     1.6327   6  11   0.0102   0.0098   0.0031   0.0039  -0.0035   0.0042   0.00    0.0
2016/06/27 02:02:00.000  -2200207.9652   5924895.5239   -855929.1872   -184045.1304         0.0000         0.0000         0.0000     2.6163     1.6347   6  11   0.0101   0.0097   0.0030   0.0038  -0.0035   0.0041   0.00    0.0
2016/06/27 02:02:30.000  -2200207.9653   5924895.5237   -855929.1873   -184070.1849         0.0000         0.0000         0.0000     2.6162     1.6367   6  11   0.0100   0.0097   0.0030   0.0037  -0.0035   0.0041   0.00    0.0
2016/06/27 02:03:00.000  -2200207.9646   5924895.5236   -855929.1872   -184095.9106         0.0000         0.0000         0.0000     2.6164     1.6387   6  11   0.0099   0.0096   0.0030   0.0037  -0.0035   0.0041   0.00    0.0
2016/06/27 02:03:30.000  -2200207.9639   5924895.5237   -855929.1872   -184120.8936         0.0000         0.0000         0.0000     2.6165     1.6408   6  11   0.0098   0.0096   0.0030   0.0036  -0.0035   0.0040   0.00    0.0
2016/06/27 02:04:00.000  -2200207.9632   5924895.5238   -855929.1871   -184144.4513         0.0000         0.0000         0.0000     2.6165     1.6428   6  11   0.0097   0.0095   0.0030   0.0035  -0.0035   0.0040   0.00    0.0
2016/06/27 02:04:30.000  -2200207.9633   5924895.5234   -855929.1871   -184168.6320         0.0000         0.0000         0.0000     2.6167     1.6448   6  11   0.0097   0.0095   0.0030   0.0035  -0.0035   0.0039   0.00    0.0
2016/06/27 02:05:00.000  -2200207.9643   5924895.5230   -855929.1873   -184193.6685         0.0000         0.0000         0.0000     2.6173     1.6468   6  11   0.0096   0.0094   0.0029   0.0034  -0.0035   0.0039   0.00    0.0
2016/06/27 02:05:30.000  -2200207.9657   5924895.5230   -855929.1876   -184216.4374         0.0000         0.0000         0.0000     2.6178     1.6488   6  11   0.0095   0.0094   0.0029   0.0033  -0.0035   0.0039   0.00    0.0
2016/06/27 02:06:00.000  -2200207.9673   5924895.5226   -855929.1878   -184242.4131         0.0000         0.0000         0.0000     2.6184     1.6508   6  11   0.0094   0.0093   0.0029   0.0033  -0.0035   0.0038   0.00    0.0
2016/06/27 02:06:30.000  -2200207.9686   5924895.5225   -855929.1881   -184268.6615         0.0000         0.0000         0.0000     2.6185     1.6528   6  11   0.0093   0.0093   0.0029   0.0032  -0.0035   0.0038   0.00    0.0
2016/06/27 02:07:00.000  -2200207.9696   5924895.5221   -855929.1882   -184291.8174         0.0000         0.0000         0.0000     2.6186     1.6548   6  11   0.0093   0.0092   0.0029   0.0032  -0.0035   0.0037   0.00    0.0
2016/06/27 02:07:30.000  -2200207.9698   5924895.5218   -855929.1883   -184316.4295         0.0000         0.0000         0.0000     2.6190     1.6568   6  11   0.0092   0.0092   0.0028   0.0031  -0.0035   0.0037   0.00    0.0
2016/06/27 02:08:00.000  -2200207.9692   5924895.5221   -855929.1883   -184341.6699         0.0000         0.0000         0.0000     2.6189     1.6587   6  10   0.0091   0.0091   0.0028   0.0031  -0.0034   0.0037   0.00    0.0
2016/06/27 02:08:30.000  -2200207.9688   5924895.5224   -855929.1884   -184365.5499         0.0000         0.0000         0.0000     2.6186     1.6607   6  11   0.0091   0.0091   0.0028   0.0031  -0.0034   0.0036   0.00    0.0
2016/06/27 02:09:00.000  -2200207.9681   5924895.5226   -855929.1883   -184389.7854         0.0000         0.0000         0.0000     2.6182     1.6626   6  10   0.0090   0.0091   0.0028   0.0031  -0.0034   0.0036   0.00    0.0
2016/06/27 02:09:30.000  -2200207.9670   5924895.5230   -855929.1883   -184416.9578         0.0000         0.0000         0.0000     2.6177     1.6646   6  10   0.0089   0.0091   0.0028   0.0031  -0.0034   0.0036   0.00    0.0
2016/06/27 02:10:00.000  -2200207.9665   5924895.5234   -855929.1883   -184443.6633         0.0000         0.0000         0.0000     2.6175     1.6665   6  10   0.0089   0.0090   0.0028   0.0031  -0.0034   0.0035   0.00    0.0
2016/06/27 02:10:30.000  -2200207.9665   5924895.5240   -855929.1884   -184467.6465         0.0000         0.0000         0.0000     2.6170     1.6684   6  10   0.0088   0.0090   0.0028   0.0030  -0.0034   0.0035   0.00    0.0
2016/06/27 02:11:00.000  -2200207.9667   5924895.5245   -855929.1885   -184493.3234         0.0000         0.0000         0.0000     2.6165     1.6703   6  10   0.0088   0.0090   0.0027   0.0030  -0.0034   0.0035   0.00    0.0
