%  GPST                      x-ecef(m)      y-ecef(m)      z-ecef(m)   Q  ns   sdx(m)   sdy(m)   sdz(m)  sdxy(m)  sdyz(m)  sdzx(m) age(s)  ratio
2016/06/27 00:00:00.000  -5743539.4516   1380504.2180  -2397898.7819       -21.2720         0.0000         0.0000       -15.9687     2.4720     1.4234   6  18   2.8516   1.3379   1.9645  -1.4045  -1.1679   1.9717   0.00    0.0
2016/06/27 00:00:30.000  -5743538.0942   1380503.6209  -2397897.1067       -25.5911         0.0000         0.0000       -16.4895     2.4711     1.4219   6  18   1.9145   0.9100   1.2520  -0.9165  -0.7370   1.2578   0.00    0.0
2016/06/27 00:01:00.000  -5743537.8694   1380503.4341  -2397896.4737       -26.9054         0.0000         0.0000       -16.3595     2.4750     1.5080   6  17   1.4929   0.7185   0.8986  -0.7002  -0.5277   0.9135   0.00    0.0
2016/06/27 00:01:30.000  -5743538.0040   1380503.4104  -2397896.4026       -26.3661         0.0000         0.0000       -16.4681     2.4751     1.5070   6  17   1.2232   0.5951   0.6779  -0.5565  -0.3931   0.6954   0.00    0.0
2016/06/27 00:02:00.000  -5743538.0774   1380503.3753  -2397896.3700       -26.1002         0.0000         0.0000       -16.3779     2.4821     1.5059   6  17   1.0369   0.5081   0.5319  -0.4573  -0.3037   0.5515   0.00    0.0
2016/06/27 00:02:30.000  -5743538.3694   1380503.4353  -2397896.3610       -25.1001         0.0000         0.0000       -16.6861     2.4811     1.5048   6  17   0.9010   0.4427   0.4311  -0.3865  -0.2427   0.4535   0.00    0.0
2016/06/27 00:03:00.000  -5743538.4490   1380503.4080  -2397896.3821       -24.6481         0.0000         0.0000       -16.9132     2.4872     1.5037   6  16   0.7976   0.3914   0.3591  -0.3339  -0.1998   0.3844   0.00    0.0
2016/06/27 00:03:30.000  -5743538.3760   1380503.3855  -2397896.3281       -24.9395         0.0000         0.0000       -16.8006     2.4867     1.5025   6  17   0.7149   0.3496   0.3056  -0.2936  -0.1691   0.3338   0.00    0.0
2016/06/27 00:04:00.000  -5743538.3752   1380503.4246  -2397896.2900       -24.8047         0.0000         0.0000       -16.9609     2.4837     1.5013   6  17   0.6470   0.3147   0.2647  -0.2615  -0.1461   0.2953   0.00    0.0
2016/06/27 00:04:30.000  -5743538.3684   1380503.4224  -2397896.2274       -25.0163         0.0000         0.0000       -16.9276     2.4896     1.5000   6  17   0.5897   0.2852   0.2325  -0.2353  -0.1283   0.2648   0.00    0.0
2016/06/27 00:05:00.000  -5743538.2504   1380503.4259  -2397896.2175       -25.2944         0.0000         0.0000       -16.8606     2.4874     1.4987   6  16   0.5463   0.2630   0.2068  -0.2181  -0.1119   0.2384   0.00    0.0
2016/06/27 00:05:30.000  -5743538.3548   1380503.4483  -2397896.2064       -25.2168         0.0000         0.0000       -16.8078     2.4825     1.4974   6  17   0.5011   0.2397   0.1852  -0.1971  -0.1011   0.2179   0.00    0.0
2016/06/27 00:06:00.000  -5743538.2520   1380503.4741  -2397896.2030       -25.5311         0.0000         0.0000       -16.7015     2.4810     1.4960   6  16   0.4667   0.2226   0.1675  -0.1845  -0.0896   0.1987   0.00    0.0
2016/06/27 00:06:30.000  -5743538.2917   1380503.4970  -2397896.2026       -25.5431         0.0000         0.0000       -16.7234     2.4757     1.4946   6  17   0.4302   0.2040   0.1520  -0.1673  -0.0824   0.1836   0.00    0.0
2016/06/27 00:07:00.000  -5743538.3035   1380503.5262  -2397896.1995       -25.5463         0.0000         0.0000       -16.7430     2.4756     1.4932   6  17   0.3981   0.1879   0.1387  -0.1529  -0.0759   0.1699   0.00    0.0
2016/06/27 00:07:30.000  -5743538.3156   1380503.5640  -2397896.1875       -25.6004         0.0000         0.0000       -16.6982     2.4751     1.7684   6  16   0.3746   0.1746   0.1281  -0.1438  -0.0716   0.1606   0.00    0.0
2016/06/27 00:08:00.000  -5743538.2396   1380503.5842  -2397896.1765       -25.8560         0.0000         0.0000       -16.6914     2.4770     1.7661   6  16   0.3544   0.1630   0.1191  -0.1366  -0.0681   0.1527   0.00    0.0
2016/06/27 00:08:30.000  -5743538.2004   1380503.6098  -2397896.1671       -25.9764         0.0000         0.0000       -16.8004     2.4783     1.7637   6  16   0.3370   0.1527   0.1113  -0.1306  -0.0651   0.1459   0.00    0.0
2016/06/27 00:09:00.000  -5743538.1637   1380503.6435  -2397896.1663       -26.0635         0.0000         0.0000       -16.8094     2.4786     1.7613   6  16   0.3219   0.1436   0.1046  -0.1256  -0.0625   0.1401   0.00    0.0
2016/06/27 00:09:30.000  -5743538.1346   1380503.6530  -2397896.1737       -26.3021         0.0000         0.0000       -16.7126     2.4790     1.7587   6  16   0.3086   0.1354   0.0988  -0.1215  -0.0604   0.1350   0.00    0.0
2016/06/27 00:10:00.000  -5743538.0941   1380503.6779  -2397896.1726       -26.6015         0.0000         0.0000       -16.6140     2.4807     1.7562   6  16   0.2970   0.1281   0.0937  -0.1179  -0.0585   0.1307   0.00    0.0
2016/06/27 00:10:30.000  -5743538.0265   1380503.6714  -2397896.1758       -26.8387         0.0000         0.0000       -16.6302     2.4827     1.7535   6  16   0.2867   0.1215   0.0892  -0.1148  -0.0569   0.1268   0.00    0.0
2016/06/27 00:11:00.000  -5743538.0122   1380503.6763  -2397896.1847       -26.9550         0.0000         0.0000       -16.6318     2.4817     1.7508   6  15   0.2775   0.1155   0.0852  -0.1121  -0.0554   0.1234   0.00    0.0
2016/06/27 00:11:30.000  -5743537.9797   1380503.6852  -2397896.1917       -27.1476         0.0000         0.0000       -16.5309     2.4821     1.7481   6  16   0.2692   0.1101   0.0816  -0.1097  -0.0542   0.1203   0.00    0.0
2016/06/27 00:12:00.000  -5743537.9282   1380503.6931  -2397896.1869       -27.4060         0.0000         0.0000       -16.4811     2.4846     1.7452   6  16   0.2617   0.1052   0.0784  -0.1075  -0.0530   0.1176   0.00    0.0
2016/06/27 00:12:30.000  -5743537.8961   1380503.6896  -2397896.1815       -27.6147         0.0000         0.0000       -16.4703     2.4863     1.7424   6  16   0.2549   0.1006   0.0755  -0.1055  -0.0520   0.1150   0.00    0.0
2016/06/27 00:13:00.000  -5743537.8744   1380503.6891  -2397896.1788       -27.6833         0.0000         0.0000       -16.5203     2.4876     1.7394   6  16   0.2487   0.0965   0.0728  -0.1036  -0.0510   0.1127   0.00    0.0
2016/06/27 00:13:30.000  -5743537.8543   1380503.6913  -2397896.1752       -27.8379         0.0000         0.0000       -16.5091     2.4901     1.7365   6  16   0.2429   0.0927   0.0704  -0.1019  -0.0501   0.1105   0.00    0.0
2016/06/27 00:14:00.000  -5743537.8350   1380503.6935  -2397896.1685       -27.9046         0.0000         0.0000       -16.5419     2.4926     1.7334   6  16   0.2375   0.0891   0.0682  -0.1002  -0.0492   0.1084   0.00    0.0
2016/06/27 00:14:30.000  -5743537.8092   1380503.6976  -2397896.1646       -27.9533         0.0000         0.0000       -16.5110     2.4959     1.7304   6  16   0.2324   0.0859   0.0662  -0.0987  -0.0484   0.1064   0.00    0.0
2016/06/27 00:15:00.000  -5743537.7836   1380503.6954  -2397896.1599       -28.1647         0.0000         0.0000       -16.4724     2.4999     1.7272   6  16   0.2276   0.0828   0.0642  -0.0971  -0.0476   0.1045   0.00    0.0
2016/06/27 00:15:30.000  -5743537.7847   1380503.6942  -2397896.1568       -28.2413         0.0000         0.0000       -16.5067     2.5014     1.7241   6  16   0.2230   0.0800   0.0624  -0.0956  -0.0468   0.1027   0.00    0.0
2016/06/27 00:16:00.000  -5743537.7977   1380503.6948  -2397896.1513       -28.3674         0.0000         0.0000       -16.5212     2.5035     1.7209   6  16   0.2186   0.0773   0.0607  -0.0941  -0.0460   0.1009   0.00    0.0
2016/06/27 00:16:30.000  -5743537.8204   1380503.7073  -2397896.1493       -28.4347         0.0000         0.0000       -16.5294     2.5024     1.7176   6  16   0.2144   0.0749   0.0591  -0.0927  -0.0452   0.0991   0.00    0.0
2016/06/27 00:17:00.000  -5743537.8341   1380503.7212  -2397896.1456       -28.5250         0.0000         0.0000       -16.4999     2.5036     1.7144   6  16   0.2103   0.0725   0.0576  -0.0912  -0.0445   0.0974   0.00    0.0
2016/06/27 00:17:30.000  -5743537.8419   1380503.7374  -2397896.1443       -28.6467         0.0000         0.0000       -16.5046     2.5032     1.7110   6  16   0.2062   0.0703   0.0561  -0.0897  -0.0437   0.0957   0.00    0.0
2016/06/27 00:18:00.000  -5743537.8441   1380503.7499  -2397896.1395       -28.7685         0.0000         0.0000       -16.4659     2.5035     1.7077   6  16   0.2023   0.0682   0.0547  -0.0883  -0.0430   0.0940   0.00    0.0
2016/06/27 00:18:30.000  -5743537.8528   1380503.7585  -2397896.1383       -28.7242         0.0000         0.0000       -16.4275     2.5032     1.7043   6  16   0.1984   0.0662   0.0534  -0.0868  -0.0422   0.0923   0.00    0.0
2016/06/27 00:19:00.000  -5743537.8600   1380503.7700  -2397896.1380       -28.7756         0.0000         0.0000       -16.4046     2.5028     1.7009   6  16   0.1946   0.0643   0.0521  -0.0854  -0.0414   0.0905   0.00    0.0
2016/06/27 00:19:30.000  -5743537.8661   1380503.7776  -2397896.1363       -28.8058         0.0000         0.0000       -16.3426     2.5030     1.6974   6  16   0.1908   0.0625   0.0508  -0.0839  -0.0407   0.0888   0.00    0.0
2016/06/27 00:20:00.000  -5743537.8751   1380503.7839  -2397896.1337       -28.8447         0.0000         0.0000       -16.2983     2.5034     1.6939   6  16   0.1870   0.0608   0.0496  -0.0824  -0.0399   0.0871   0.00    0.0
2016/06/27 00:20:30.000  -5743537.8864   1380503.7920  -2397896.1318       -28.9441         0.0000         0.0000       -16.2431     2.5016     1.6904   6  16   0.1833   0.0592   0.0483  -0.0809  -0.0391   0.0854   0.00    0.0
2016/06/27 00:21:00.000  -5743537.8884   1380503.8024  -2397896.1315       -28.9321         0.0000         0.0000       -16.2151     2.5004     1.6869   6  16   0.1796   0.0576   0.0472  -0.0794  -0.0384   0.0837   0.00    0.0
2016/06/27 00:21:30.000  -5743537.8957   1380503.8107  -2397896.1330       -28.9571         0.0000         0.0000       -16.1989     2.4977     1.6834   6  16   0.1759   0.0561   0.0460  -0.0779  -0.0376   0.0820   0.00    0.0
2016/06/27 00:22:00.000  -5743537.8977   1380503.8153  -2397896.1347       -28.9500         0.0000         0.0000       -16.1772     2.4961     1.6798   6  16   0.1722   0.0546   0.0449  -0.0764  -0.0368   0.0803   0.00    0.0
2016/06/27 00:22:30.000  -5743537.9008   1380503.8185  -2397896.1356       -28.9310         0.0000         0.0000       -16.1807     2.4937     1.6762   6  16   0.1686   0.0532   0.0438  -0.0749  -0.0361   0.0785   0.00    0.0
2016/06/27 00:23:00.000  -5743537.8996   1380503.8210  -2397896.1341       -29.0496         0.0000         0.0000       -16.1356     2.4931     1.6726   6  16   0.1650   0.0519   0.0427  -0.0734  -0.0353   0.0768   0.00    0.0
2016/06/27 00:23:30.000  -5743537.9062   1380503.8254  -2397896.1353       -29.1967         0.0000         0.0000       -16.1118     2.4905     1.6690   6  16   0.1614   0.0506   0.0416  -0.0719  -0.0345   0.0751   0.00    0.0
2016/06/27 00:24:00.000  -5743537.9039   1380503.8282  -2397896.1347       -29.2347         0.0000         0.0000       -16.0705     2.4905     1.6653   6  16   0.1578   0.0493   0.0406  -0.0704  -0.0338   0.0735   0.00    0.0
2016/06/27 00:24:30.000  -5743537.9023   1380503.8313  -2397896.1346       -29.2178         0.0000         0.0000       -16.0266     2.4904     1.6617   6  16   0.1543   0.0481   0.0396  -0.0689  -0.0330   0.0718   0.00    0.0
2016/06/27 00:25:00.000  -5743537.9075   1380503.8371  -2397896.1352       -29.2741         0.0000         0.0000       -15.9907     2.4891     1.6580   6  16   0.1508   0.0469   0.0386  -0.0674  -0.0323   0.0701   0.00    0.0
2016/06/27 00:25:30.000  -5743537.9118   1380503.8417  -2397896.1365       -29.3313         0.0000         0.0000       -15.9403     2.4875     1.6543   6  16   0.1474   0.0458   0.0376  -0.0659  -0.0315   0.0685   0.00    0.0
2016/06/27 00:26:00.000  -5743537.9226   1380503.8510  -2397896.1392       -29.3916         0.0000         0.0000       -15.9036     2.4849     1.6506   6  16   0.1440   0.0446   0.0366  -0.0645  -0.0308   0.0669   0.00    0.0
2016/06/27 00:26:30.000  -5743537.9280   1380503.8567  -2397896.1397       -29.4049         0.0000         0.0000       -15.9185     2.4839     1.6469   6  16   0.1407   0.0436   0.0357  -0.0631  -0.0301   0.0653   0.00    0.0
2016/06/27 00:27:00.000  -5743537.9329   1380503.8625  -2397896.1409       -29.4361         0.0000         0.0000       -15.9788     2.4826     1.6432   6  16   0.1374   0.0425   0.0348  -0.0616  -0.0294   0.0637   0.00    0.0
2016/06/27 00:27:30.000  -5743537.9382   1380503.8664  -2397896.1421       -29.3404         0.0000         0.0000       -15.9841     2.4824     1.6395   6  16   0.1342   0.0415   0.0339  -0.0603  -0.0287   0.0621   0.00    0.0
2016/06/27 00:28:00.000  -5743537.9452   1380503.8704  -2397896.1436       -29.5190         0.0000         0.0000       -15.9760     2.4824     1.6357   6  16   0.1310   0.0406   0.0330  -0.0589  -0.0280   0.0606   0.00    0.0
2016/06/27 00:28:30.000  -5743537.9464   1380503.8722  -2397896.1436       -29.5658         0.0000         0.0000       -15.9669     2.4833     1.6320   6  16   0.1279   0.0396   0.0322  -0.0576  -0.0273   0.0591   0.00    0.0
2016/06/27 00:29:00.000  -5743537.9404   1380503.8732  -2397896.1419       -29.6357         0.0000         0.0000       -15.9818     2.4854     1.6283   6  16   0.1249   0.0387   0.0313  -0.0562  -0.0267   0.0577   0.00    0.0
2016/06/27 00:29:30.000  -5743537.9411   1380503.8749  -2397896.1408       -29.6963         0.0000         0.0000       -16.0074     2.4862     1.6245   6  16   0.1219   0.0378   0.0305  -0.0549  -0.0260   0.0562   0.00    0.0
2016/06/27 00:30:00.000  -5743537.9441   1380503.8767  -2397896.1410       -29.7652         0.0000         0.0000       -16.0397     2.4855     1.6208   6  16   0.1190   0.0370   0.0298  -0.0537  -0.0254   0.0548   0.00    0.0
2016/06/27 00:30:30.000  -5743537.9354   1380503.8763  -2397896.1400       -29.8357         0.0000         0.0000       -16.0625     2.4867     1.6170   6  16   0.1161   0.0362   0.0290  -0.0525  -0.0248   0.0534   0.00    0.0
2016/06/27 00:31:00.000  -5743537.9348   1380503.8775  -2397896.1403       -29.8432         0.0000         0.0000       -16.0738     2.4859     1.6133   6  16   0.1133   0.0354   0.0283  -0.0513  -0.0242   0.0521   0.00    0.0
2016/06/27 00:31:30.000  -5743537.9321   1380503.8767  -2397896.1396       -29.8847         0.0000         0.0000       -16.0560     2.4862     1.6096   6  16   0.1106   0.0346   0.0275  -0.0501  -0.0236   0.0508   0.00    0.0
2016/06/27 00:32:00.000  -5743537.9327   1380503.8767  -2397896.1397       -29.8756         0.0000         0.0000       -16.0442     2.4859     1.6058   6  15   0.1080   0.0339   0.0268  -0.0489  -0.0230   0.0495   0.00    0.0
2016/06/27 00:32:30.000  -5743537.9335   1380503.8762  -2397896.1399       -29.9000         0.0000         0.0000       -16.0303     2.4853     1.6021   6  16   0.1054   0.0331   0.0262  -0.0478  -0.0225   0.0483   0.00    0.0
2016/06/27 00:33:00.000  -5743537.9359   1380503.8750  -2397896.1406       -29.8369         0.0000         0.0000       -16.0234     2.4843     1.5984   6  16   0.1029   0.0324   0.0255  -0.0467  -0.0219   0.0471   0.00    0.0
2016/06/27 00:33:30.000  -5743537.9341   1380503.8730  -2397896.1411       -29.8635         0.0000         0.0000       -16.0052     2.4841     1.5946   6  16   0.1004   0.0317   0.0249  -0.0457  -0.0214   0.0459   0.00    0.0
2016/06/27 00:34:00.000  -5743537.9338   1380503.8726  -2397896.1420       -29.7940         0.0000         0.0000       -16.0072     2.4832     1.5909   6  16   0.0980   0.0311   0.0242  -0.0446  -0.0209   0.0448   0.00    0.0
2016/06/27 00:34:30.000  -5743537.9272   1380503.8701  -2397896.1414       -29.7296         0.0000         0.0000       -15.9996     2.4839     1.5872   6  16   0.0957   0.0305   0.0236  -0.0436  -0.0204   0.0436   0.00    0.0
2016/06/27 00:35:00.000  -5743537.9221   1380503.8684  -2397896.1408       -29.6559         0.0000         0.0000       -16.0005     2.4848     1.5835   6  16   0.0935   0.0298   0.0231  -0.0427  -0.0199   0.0426   0.00    0.0
2016/06/27 00:35:30.000  -5743537.9183   1380503.8682  -2397896.1404       -29.5485         0.0000         0.0000       -15.9974     2.4856     1.5798   6  16   0.0913   0.0292   0.0225  -0.0417  -0.0195   0.0415   0.00    0.0
2016/06/27 00:36:00.000  -5743537.9163   1380503.8702  -2397896.1408       -29.3943         0.0000         0.0000       -16.0247     2.4852     1.5761   6  16   0.0892   0.0287   0.0220  -0.0408  -0.0190   0.0405   0.00    0.0
2016/06/27 00:36:30.000  -5743537.9089   1380503.8694  -2397896.1400       -29.1288         0.0000         0.0000       -16.0341     2.4860     1.5724   6  16   0.0871   0.0281   0.0214  -0.0399  -0.0186   0.0395   0.00    0.0
2016/06/27 00:37:00.000  -5743537.9018   1380503.8674  -2397896.1399       -29.0213         0.0000         0.0000       -16.0380     2.4870     1.5688   6  16   0.0851   0.0276   0.0209  -0.0390  -0.0181   0.0385   0.00    0.0
2016/06/27 00:37:30.000  -5743537.8943   1380503.8659  -2397896.1395       -28.7340         0.0000         0.0000       -16.0462     2.4879     1.5651   6  16   0.0831   0.0270   0.0204  -0.0382  -0.0177   0.0376   0.00    0.0
2016/06/27 00:38:00.000  -5743537.8873   1380503.8643  -2397896.1387       -28.6424         0.0000         0.0000       -16.0468     2.4891     1.5615   6  16   0.0812   0.0265   0.0199  -0.0374  -0.0173   0.0367   0.00    0.0
2016/06/27 00:38:30.000  -5743537.8826   1380503.8634  -2397896.1385       -28.4212         0.0000         0.0000       -16.0824     2.4893     1.5578   6  16   0.0794   0.0260   0.0195  -0.0366  -0.0169   0.0358   0.00    0.0
2016/06/27 00:39:00.000  -5743537.8778   1380503.8615  -2397896.1374       -28.3354         0.0000         0.0000       -16.1090     2.4899     1.5542   6  16   0.0776   0.0256   0.0190  -0.0358  -0.0166   0.0350   0.00    0.0
2016/06/27 00:39:30.000  -5743537.8740   1380503.8592  -2397896.1363       -28.2883         0.0000         0.0000       -16.1167     2.4903     1.5506   6  16   0.0759   0.0251   0.0186  -0.0351  -0.0162   0.0342   0.00    0.0
2016/06/27 00:40:00.000  -5743537.8724   1380503.8583  -2397896.1356       -28.1038         0.0000         0.0000       -16.1053     2.4906     1.5470   6  16   0.0742   0.0247   0.0182  -0.0344  -0.0158   0.0334   0.00    0.0
2016/06/27 00:40:30.000  -5743537.8690   1380503.8573  -2397896.1348       -27.9006         0.0000         0.0000       -16.1146     2.4911     1.3988   6  17   0.0726   0.0242   0.0178  -0.0336  -0.0155   0.0326   0.00    0.0
2016/06/27 00:41:00.000  -5743537.8656   1380503.8572  -2397896.1336       -27.8065         0.0000         0.0000       -16.0900     2.4917     1.3987   6  17   0.0710   0.0238   0.0174  -0.0330  -0.0152   0.0318   0.00    0.0
2016/06/27 00:41:30.000  -5743537.8636   1380503.8578  -2397896.1328       -27.7070         0.0000         0.0000       -16.1021     2.4922     1.2649   6  18   0.0695   0.0234   0.0170  -0.0323  -0.0148   0.0311   0.00    0.0
2016/06/27 00:42:00.000  -5743537.8608   1380503.8578  -2397896.1319       -27.6201         0.0000         0.0000       -16.0934     2.4928     1.2651   6  18   0.0679   0.0230   0.0166  -0.0316  -0.0145   0.0304   0.00    0.0
2016/06/27 00:42:30.000  -5743537.8597   1380503.8577  -2397896.1314       -27.3323         0.0000         0.0000       -16.1367     2.4927     1.2654   6  18   0.0664   0.0226   0.0162  -0.0310  -0.0142   0.0297   0.00    0.0
2016/06/27 00:43:00.000  -5743537.8557   1380503.8574  -2397896.1306       -27.2693         0.0000         0.0000       -16.1883     2.4932     1.2655   6  18   0.0649   0.0222   0.0158  -0.0303  -0.0139   0.0289   0.00    0.0
2016/06/27 00:43:30.000  -5743537.8566   1380503.8579  -2397896.1309       -27.0733         0.0000         0.0000       -16.2293     2.4927     1.2657   6  18   0.0635   0.0218   0.0155  -0.0297  -0.0136   0.0282   0.00    0.0
2016/06/27 00:44:00.000  -5743537.8578   1380503.8588  -2397896.1313       -27.1042         0.0000         0.0000       -16.2696     2.4922     1.2658   6  18   0.0620   0.0215   0.0151  -0.0291  -0.0133   0.0276   0.00    0.0
2016/06/27 00:44:30.000  -5743537.8598   1380503.8593  -2397896.1314       -26.9879         0.0000         0.0000       -16.3010     2.4914     1.2659   6  18   0.0606   0.0211   0.0148  -0.0285  -0.0130   0.0269   0.00    0.0
2016/06/27 00:45:00.000  -5743537.8625   1380503.8602  -2397896.1313       -26.9220         0.0000         0.0000       -16.3284     2.4904     1.2660   6  18   0.0592   0.0207   0.0144  -0.0279  -0.0127   0.0262   0.00    0.0
2016/06/27 00:45:30.000  -5743537.8667   1380503.8613  -2397896.1317       -26.9926         0.0000         0.0000       -16.3633     2.4893     1.2660   6  18   0.0579   0.0204   0.0141  -0.0273  -0.0124   0.0256   0.00    0.0
2016/06/27 00:46:00.000  -5743537.8734   1380503.8634  -2397896.1327       -26.7757         0.0000         0.0000       -16.3912     2.4876     1.2661   6  18   0.0566   0.0201   0.0138  -0.0267  -0.0121   0.0249   0.00    0.0
2016/06/27 00:46:30.000  -5743537.8765   1380503.8651  -2397896.1331       -26.7130         0.0000         0.0000       -16.4030     2.4867     1.2660   6  18   0.0553   0.0197   0.0135  -0.0261  -0.0118   0.0243   0.00    0.0
2016/06/27 00:47:00.000  -5743537.8793   1380503.8664  -2397896.1334       -26.6278         0.0000         0.0000       -16.4150     2.4858     1.2660   6  18   0.0542   0.0195   0.0132  -0.0257  -0.0116   0.0238   0.00    0.0
2016/06/27 00:47:30.000  -5743537.8827   1380503.8674  -2397896.1341       -26.3738         0.0000         0.0000       -16.4260     2.4849     1.2660   6  18   0.0532   0.0192   0.0129  -0.0253  -0.0114   0.0233   0.00    0.0
2016/06/27 00:48:00.000  -5743537.8854   1380503.8680  -2397896.1344       -26.4258         0.0000         0.0000       -16.4345     2.4844     1.2659   6  17   0.0522   0.0189   0.0127  -0.0248  -0.0112   0.0229   0.00    0.0
2016/06/27 00:48:30.000  -5743537.8907   1380503.8701  -2397896.1350       -26.2849         0.0000         0.0000       -16.4158     2.4832     1.2657   6  17   0.0512   0.0186   0.0125  -0.0244  -0.0110   0.0224   0.00    0.0
2016/06/27 00:49:00.000  -5743537.8936   1380503.8709  -2397896.1352       -26.2396         0.0000         0.0000       -16.4193     2.4826     1.2656   6  17   0.0503   0.0184   0.0122  -0.0240  -0.0108   0.0220   0.00    0.0
2016/06/27 00:49:30.000  -5743537.8966   1380503.8721  -2397896.1351       -26.1674         0.0000         0.0000       -16.4125     2.4820     1.2654   6  18   0.0494   0.0181   0.0120  -0.0236  -0.0106   0.0216   0.00    0.0
2016/06/27 00:50:00.000  -5743537.8992   1380503.8732  -2397896.1354       -26.0694         0.0000         0.0000       -16.4208     2.4816     1.2652   6  18   0.0484   0.0179   0.0118  -0.0232  -0.0104   0.0211   0.00    0.0
2016/06/27 00:50:30.000  -5743537.9025   1380503.8740  -2397896.1357       -26.0571         0.0000         0.0000       -16.4248     2.4809     1.2650   6  18   0.0475   0.0176   0.0115  -0.0229  -0.0103   0.0207   0.00    0.0
2016/06/27 00:51:00.000  -5743537.9042   1380503.8743  -2397896.1357       -25.9527         0.0000         0.0000       -16.4234     2.4806     1.2647   6  18   0.0466   0.0174   0.0113  -0.0225  -0.0101   0.0203   0.00    0.0
2016/06/27 00:51:30.000  -5743537.9052   1380503.8748  -2397896.1357       -25.8767         0.0000         0.0000       -16.4444     2.4804     1.2644   6  18   0.0458   0.0172   0.0111  -0.0221  -0.0099   0.0199   0.00    0.0
2016/06/27 00:52:00.000  -5743537.9057   1380503.8743  -2397896.1356       -25.7166         0.0000         0.0000       -16.4714     2.4803     1.3940   6  17   0.0454   0.0170   0.0110  -0.0219  -0.0098   0.0197   0.00    0.0
2016/06/27 00:52:30.000  -5743537.9066   1380503.8748  -2397896.1357       -25.6650         0.0000         0.0000       -16.4940     2.4800     1.3948   6  17   0.0449   0.0168   0.0109  -0.0218  -0.0097   0.0195   0.00    0.0
2016/06/27 00:53:00.000  -5743537.9074   1380503.8756  -2397896.1361       -25.7894         0.0000         0.0000       -16.5071     2.4797     1.3956   6  17   0.0445   0.0167   0.0108  -0.0216  -0.0097   0.0194   0.00    0.0
2016/06/27 00:53:30.000  -5743537.9060   1380503.8756  -2397896.1362       -25.8016         0.0000         0.0000       -16.5161     2.4797     1.3963   6  17   0.0441   0.0165   0.0107  -0.0214  -0.0096   0.0192   0.00    0.0
2016/06/27 00:54:00.000  -5743537.9046   1380503.8753  -2397896.1363       -25.6716         0.0000         0.0000       -16.5177     2.4797     1.3970   6  17   0.0437   0.0163   0.0105  -0.0212  -0.0095   0.0190   0.00    0.0
2016/06/27 00:54:30.000  -5743537.9043   1380503.8750  -2397896.1364       -25.6984         0.0000         0.0000       -16.5222     2.4797     1.3976   6  17   0.0432   0.0162   0.0104  -0.0210  -0.0094   0.0188   0.00    0.0
2016/06/27 00:55:00.000  -5743537.9045   1380503.8752  -2397896.1366       -25.6364         0.0000         0.0000       -16.5399     2.4795     1.3982   6  17   0.0428   0.0160   0.0103  -0.0208  -0.0093   0.0186   0.00    0.0
2016/06/27 00:55:30.000  -5743537.9037   1380503.8753  -2397896.1367       -25.6162         0.0000         0.0000       -16.5574     2.4793     1.3987   6  17   0.0424   0.0158   0.0102  -0.0207  -0.0092   0.0185   0.00    0.0
2016/06/27 00:56:00.000  -5743537.9030   1380503.8749  -2397896.1366       -25.5080         0.0000         0.0000       -16.5785     2.4792     1.3992   6  17   0.0419   0.0157   0.0101  -0.0205  -0.0091   0.0183   0.00    0.0
2016/06/27 00:56:30.000  -5743537.9029   1380503.8747  -2397896.1367       -25.5441         0.0000         0.0000       -16.5879     2.4789     1.3997   6  17   0.0415   0.0155   0.0100  -0.0203  -0.0091   0.0181   0.00    0.0
2016/06/27 00:57:00.000  -5743537.9022   1380503.8741  -2397896.1367       -25.5278         0.0000         0.0000       -16.6031     2.4787     1.4001   6  17   0.0411   0.0154   0.0099  -0.0201  -0.0090   0.0179   0.00    0.0
2016/06/27 00:57:30.000  -5743537.9025   1380503.8741  -2397896.1366       -25.5071         0.0000         0.0000       -16.6059     2.4782     1.4004   6  17   0.0407   0.0152   0.0098  -0.0199  -0.0089   0.0177   0.00    0.0
2016/06/27 00:58:00.000  -5743537.9022   1380503.8742  -2397896.1365       -25.5256         0.0000         0.0000       -16.6157     2.4778     1.4007   6  17   0.0402   0.0151   0.0097  -0.0197  -0.0088   0.0175   0.00    0.0
2016/06/27 00:58:30.000  -5743537.9027   1380503.8743  -2397896.1366       -25.4249         0.0000         0.0000       -16.6228     2.4775     1.4010   6  17   0.0398   0.0149   0.0096  -0.0195  -0.0087   0.0174   0.00    0.0
2016/06/27 00:59:00.000  -5743537.9028   1380503.8745  -2397896.1367       -25.3667         0.0000         0.0000       -16.6396     2.4773     1.4012   6  17   0.0394   0.0148   0.0094  -0.0193  -0.0086   0.0172   0.00    0.0
2016/06/27 00:59:30.000  -5743537.9012   1380503.8742  -2397896.1364       -25.2948         0.0000         0.0000       -16.6747     2.4777     1.4014   6  17   0.0389   0.0146   0.0093  -0.0191  -0.0085   0.0170   0.00    0.0
2016/06/27 01:00:00.000  -5743537.9016   1380503.8740  -2397896.1365       -24.9387         0.0000         0.0000       -16.6924     2.4775     1.4015   6  17   0.0385   0.0145   0.0092  -0.0189  -0.0084   0.0168   0.00    0.0
2016/06/27 01:00:30.000  -5743537.9024   1380503.8738  -2397896.1365       -24.8870         0.0000         0.0000       -16.7125     2.4775     1.4015   6  17   0.0381   0.0143   0.0091  -0.0188  -0.0084   0.0166   0.00    0.0
2016/06/27 01:01:00.000  -5743537.9027   1380503.8737  -2397896.1364       -24.7525         0.0000         0.0000       -16.7225     2.4772     1.4015   6  17   0.0377   0.0142   0.0090  -0.0186  -0.0083   0.0164   0.00    0.0
2016/06/27 01:01:30.000  -5743537.9047   1380503.8742  -2397896.1369       -24.5854         0.0000         0.0000       -16.7502     2.4765     1.4015   6  17   0.0372   0.0141   0.0089  -0.0184  -0.0082   0.0162   0.00    0.0
2016/06/27 01:02:00.000  -5743537.9061   1380503.8744  -2397896.1371       -24.5823         0.0000         0.0000       -16.7679     2.4761     1.4014   6  17   0.0368   0.0139   0.0088  -0.0182  -0.0081   0.0160   0.00    0.0
2016/06/27 01:02:30.000  -5743537.9082   1380503.8747  -2397896.1376       -24.3723         0.0000         0.0000       -16.7807     2.4756     1.4013   6  17   0.0364   0.0138   0.0087  -0.0180  -0.0080   0.0159   0.00    0.0
2016/06/27 01:03:00.000  -5743537.9100   1380503.8753  -2397896.1381       -24.3533         0.0000         0.0000       -16.8036     2.4751     1.4011   6  17   0.0360   0.0137   0.0086  -0.0178  -0.0079   0.0157   0.00    0.0
2016/06/27 01:03:30.000  -5743537.9131   1380503.8763  -2397896.1388       -24.0700         0.0000         0.0000       -16.8294     2.4743     1.4008   6  17   0.0356   0.0135   0.0085  -0.0176  -0.0078   0.0155   0.00    0.0
2016/06/27 01:04:00.000  -5743537.9172   1380503.8779  -2397896.1394       -23.8653         0.0000         0.0000       -16.8560     2.4734     1.4005   6  17   0.0352   0.0134   0.0084  -0.0175  -0.0078   0.0153   0.00    0.0
2016/06/27 01:04:30.000  -5743537.9204   1380503.8790  -2397896.1402       -23.9199         0.0000         0.0000       -16.8714     2.4727     1.4002   6  17   0.0348   0.0133   0.0083  -0.0173  -0.0077   0.0151   0.00    0.0
2016/06/27 01:05:00.000  -5743537.9231   1380503.8802  -2397896.1409       -23.8380         0.0000         0.0000       -16.8732     2.4721     1.3997   6  17   0.0343   0.0132   0.0082  -0.0171  -0.0076   0.0149   0.00    0.0
2016/06/27 01:05:30.000  -5743537.9258   1380503.8814  -2397896.1417       -23.9238         0.0000         0.0000       -16.8666     2.4716     1.3993   6  17   0.0339   0.0131   0.0081  -0.0169  -0.0075   0.0148   0.00    0.0
2016/06/27 01:06:00.000  -5743537.9308   1380503.8830  -2397896.1429       -23.8688         0.0000         0.0000       -16.8677     2.4706     1.3988   6  17   0.0336   0.0129   0.0080  -0.0168  -0.0074   0.0146   0.00    0.0
2016/06/27 01:06:30.000  -5743537.9351   1380503.8841  -2397896.1441       -23.7479         0.0000         0.0000       -16.8738     2.4696     1.3982   6  17   0.0332   0.0128   0.0079  -0.0166  -0.0073   0.0144   0.00    0.0
2016/06/27 01:07:00.000  -5743537.9377   1380503.8846  -2397896.1448       -23.6675         0.0000         0.0000       -16.8674     2.4691     1.3976   6  17   0.0328   0.0127   0.0078  -0.0164  -0.0073   0.0142   0.00    0.0
2016/06/27 01:07:30.000  -5743537.9397   1380503.8852  -2397896.1455       -23.5061         0.0000         0.0000       -16.8615     2.4689     1.3969   6  17   0.0324   0.0126   0.0077  -0.0163  -0.0072   0.0141   0.00    0.0
2016/06/27 01:08:00.000  -5743537.9415   1380503.8860  -2397896.1460       -23.5343         0.0000         0.0000       -16.8723     2.4686     1.3962   6  17   0.0320   0.0125   0.0076  -0.0161  -0.0071   0.0139   0.00    0.0
2016/06/27 01:08:30.000  -5743537.9428   1380503.8866  -2397896.1464       -23.4574         0.0000         0.0000       -16.8745     2.4684     1.3954   6  17   0.0316   0.0124   0.0076  -0.0159  -0.0070   0.0137   0.00    0.0
2016/06/27 01:09:00.000  -5743537.9449   1380503.8872  -2397896.1469       -23.4274         0.0000         0.0000       -16.8801     2.4681     1.3946   6  17   0.0313   0.0123   0.0075  -0.0158  -0.0070   0.0136   0.00    0.0
2016/06/27 01:09:30.000  -5743537.9468   1380503.8881  -2397896.1473       -23.4554         0.0000         0.0000       -16.8849     2.4678     1.3937   6  17   0.0309   0.0122   0.0074  -0.0156  -0.0069   0.0134   0.00    0.0
2016/06/27 01:10:00.000  -5743537.9489   1380503.8890  -2397896.1477       -23.5424         0.0000         0.0000       -16.8842     2.4675     1.3928   6  17   0.0306   0.0121   0.0073  -0.0155  -0.0068   0.0132   0.00    0.0
2016/06/27 01:10:30.000  -5743537.9505   1380503.8898  -2397896.1480       -23.6111         0.0000         0.0000       -16.8881     2.4674     1.3918   6  17   0.0302   0.0120   0.0072  -0.0153  -0.0068   0.0131   0.00    0.0
2016/06/27 01:11:00.000  -5743537.9520   1380503.8908  -2397896.1482       -23.6261         0.0000         0.0000       -16.8839     2.4673     1.3908   6  17   0.0299   0.0119   0.0071  -0.0152  -0.0067   0.0129   0.00    0.0
2016/06/27 01:11:30.000  -5743537.9529   1380503.8917  -2397896.1484       -23.6792         0.0000         0.0000       -16.8867     2.4671     1.3897   6  17   0.0295   0.0118   0.0070  -0.0150  -0.0066   0.0128   0.00    0.0
2016/06/27 01:12:00.000  -5743537.9530   1380503.8924  -2397896.1483       -23.6485         0.0000         0.0000       -16.8852     2.4672     1.3885   6  17   0.0292   0.0117   0.0070  -0.0149  -0.0066   0.0126   0.00    0.0
2016/06/27 01:12:30.000  -5743537.9543   1380503.8931  -2397896.1487       -23.7326         0.0000         0.0000       -16.8865     2.4668     1.3873   6  17   0.0288   0.0116   0.0069  -0.0147  -0.0065   0.0124   0.00    0.0
2016/06/27 01:13:00.000  -5743537.9556   1380503.8936  -2397896.1491       -23.8246         0.0000         0.0000       -16.8842     2.4665     1.3861   6  17   0.0285   0.0115   0.0068  -0.0146  -0.0064   0.0123   0.00    0.0
2016/06/27 01:13:30.000  -5743537.9578   1380503.8944  -2397896.1497       -24.0125         0.0000         0.0000       -16.8817     2.4660     1.3848   6  17   0.0282   0.0114   0.0067  -0.0144  -0.0064   0.0122   0.00    0.0
2016/06/27 01:14:00.000  -5743537.9598   1380503.8948  -2397896.1502       -24.0901         0.0000         0.0000       -16.8898     2.4658     1.3835   6  17   0.0279   0.0113   0.0066  -0.0143  -0.0063   0.0120   0.00    0.0
2016/06/27 01:14:30.000  -5743537.9618   1380503.8954  -2397896.1506       -24.2033         0.0000         0.0000       -16.9019     2.4655     1.3821   6  17   0.0275   0.0113   0.0066  -0.0142  -0.0062   0.0119   0.00    0.0
2016/06/27 01:15:00.000  -5743537.9635   1380503.8958  -2397896.1511       -24.2849         0.0000         0.0000       -16.9070     2.4651     1.3807   6  16   0.0272   0.0112   0.0065  -0.0140  -0.0062   0.0117   0.00    0.0
2016/06/27 01:15:30.000  -5743537.9655   1380503.8964  -2397896.1515       -24.1407         0.0000         0.0000       -16.8926     2.4648     1.3792   6  17   0.0269   0.0111   0.0064  -0.0139  -0.0061   0.0116   0.00    0.0
2016/06/27 01:16:00.000  -5743537.9678   1380503.8971  -2397896.1521       -24.1329         0.0000         0.0000       -16.9001     2.4644     1.3776   6  17   0.0266   0.0110   0.0064  -0.0138  -0.0061   0.0115   0.00    0.0
2016/06/27 01:16:30.000  -5743537.9688   1380503.8975  -2397896.1525       -24.1636         0.0000         0.0000       -16.9123     2.4643     1.3761   6  17   0.0263   0.0109   0.0063  -0.0137  -0.0060   0.0113   0.00    0.0
2016/06/27 01:17:00.000  -5743537.9703   1380503.8980  -2397896.1527       -24.0027         0.0000         0.0000       -16.9097     2.4642     1.3744   6  17   0.0260   0.0108   0.0062  -0.0135  -0.0059   0.0112   0.00    0.0
2016/06/27 01:17:30.000  -5743537.9716   1380503.8986  -2397896.1529       -23.9065         0.0000         0.0000       -16.8882     2.4642     1.3728   6  17   0.0257   0.0108   0.0062  -0.0134  -0.0059   0.0111   0.00    0.0
2016/06/27 01:18:00.000  -5743537.9723   1380503.8992  -2397896.1529       -23.8921         0.0000         0.0000       -16.8906     2.4642     1.3710   6  17   0.0255   0.0107   0.0061  -0.0133  -0.0058   0.0109   0.00    0.0
2016/06/27 01:18:30.000  -5743537.9726   1380503.8999  -2397896.1528       -23.8097         0.0000         0.0000       -16.8929     2.4644     1.3693   6  17   0.0252   0.0106   0.0060  -0.0132  -0.0058   0.0108   0.00    0.0
2016/06/27 01:19:00.000  -5743537.9724   1380503.9002  -2397896.1527       -23.7798         0.0000         0.0000       -16.8937     2.4645     1.3675   6  17   0.0249   0.0105   0.0060  -0.0131  -0.0057   0.0107   0.00    0.0
2016/06/27 01:19:30.000  -5743537.9722   1380503.9004  -2397896.1525       -23.8888         0.0000         0.0000       -16.8885     2.4647     1.6542   6  16   0.0247   0.0105   0.0059  -0.0130  -0.0057   0.0106   0.00    0.0
2016/06/27 01:20:00.000  -5743537.9722   1380503.9007  -2397896.1525       -23.8956         0.0000         0.0000       -16.8869     2.4647     1.6545   6  16   0.0245   0.0104   0.0059  -0.0129  -0.0057   0.0105   0.00    0.0
2016/06/27 01:20:30.000  -5743537.9729   1380503.9012  -2397896.1526       -23.8079         0.0000         0.0000       -16.8757     2.4647     1.6546   6  16   0.0243   0.0104   0.0059  -0.0128  -0.0056   0.0105   0.00    0.0
2016/06/27 01:21:00.000  -5743537.9734   1380503.9014  -2397896.1527       -23.5568         0.0000         0.0000       -16.8723     2.4647     1.6548   6  16   0.0241   0.0103   0.0058  -0.0127  -0.0056   0.0104   0.00    0.0
2016/06/27 01:21:30.000  -5743537.9743   1380503.9016  -2397896.1529       -23.3314         0.0000         0.0000       -16.8672     2.4647     1.6549   6  16   0.0239   0.0102   0.0058  -0.0126  -0.0056   0.0103   0.00    0.0
2016/06/27 01:22:00.000  -5743537.9746   1380503.9019  -2397896.1531       -23.1938         0.0000         0.0000       -16.8664     2.4648     1.6549   6  16   0.0237   0.0102   0.0058  -0.0126  -0.0055   0.0103   0.00    0.0
2016/06/27 01:22:30.000  -5743537.9753   1380503.9023  -2397896.1534       -23.1855         0.0000         0.0000       -16.8789     2.4649     1.6549   6  16   0.0235   0.0101   0.0057  -0.0125  -0.0055   0.0102   0.00    0.0
2016/06/27 01:23:00.000  -5743537.9755   1380503.9024  -2397896.1535       -23.1650         0.0000         0.0000       -16.8793     2.4651     1.6548   6  16   0.0233   0.0101   0.0057  -0.0124  -0.0055   0.0101   0.00    0.0
2016/06/27 01:23:30.000  -5743537.9759   1380503.9027  -2397896.1537       -23.2221         0.0000         0.0000       -16.8939     2.4652     1.6546   6  16   0.0231   0.0100   0.0057  -0.0123  -0.0055   0.0101   0.00    0.0
2016/06/27 01:24:00.000  -5743537.9770   1380503.9029  -2397896.1539       -23.2408         0.0000         0.0000       -16.9130     2.4651     1.6544   6  16   0.0229   0.0099   0.0057  -0.0122  -0.0054   0.0100   0.00    0.0
2016/06/27 01:24:30.000  -5743537.9778   1380503.9033  -2397896.1541       -23.3780         0.0000         0.0000       -16.9155     2.4651     1.6542   6  16   0.0228   0.0099   0.0056  -0.0122  -0.0054   0.0100   0.00    0.0
2016/06/27 01:25:00.000  -5743537.9790   1380503.9037  -2397896.1541       -23.5275         0.0000         0.0000       -16.9122     2.4648     1.6539   6  16   0.0226   0.0098   0.0056  -0.0121  -0.0054   0.0099   0.00    0.0
2016/06/27 01:25:30.000  -5743537.9795   1380503.9040  -2397896.1542       -23.5927         0.0000         0.0000       -16.9372     2.4647     1.6535   6  16   0.0224   0.0098   0.0056  -0.0120  -0.0054   0.0098   0.00    0.0
2016/06/27 01:26:00.000  -5743537.9801   1380503.9042  -2397896.1543       -23.6979         0.0000         0.0000       -16.9388     2.4647     1.6531   6  16   0.0222   0.0097   0.0056  -0.0119  -0.0053   0.0098   0.00    0.0
2016/06/27 01:26:30.000  -5743537.9814   1380503.9047  -2397896.1545       -23.5300         0.0000         0.0000       -16.9310     2.4644     1.6527   6  16   0.0221   0.0097   0.0055  -0.0118  -0.0053   0.0097   0.00    0.0
2016/06/27 01:27:00.000  -5743537.9821   1380503.9049  -2397896.1545       -23.5093         0.0000         0.0000       -16.9376     2.4643     1.6521   6  16   0.0219   0.0096   0.0055  -0.0118  -0.0053   0.0097   0.00    0.0
2016/06/27 01:27:30.000  -5743537.9825   1380503.9054  -2397896.1546       -23.5469         0.0000         0.0000       -16.9350     2.4642     1.6516   6  16   0.0217   0.0095   0.0055  -0.0117  -0.0052   0.0096   0.00    0.0
2016/06/27 01:28:00.000  -5743537.9828   1380503.9056  -2397896.1546       -23.6540         0.0000         0.0000       -16.9400     2.4643     1.6509   6  16   0.0216   0.0095   0.0055  -0.0116  -0.0052   0.0096   0.00    0.0
2016/06/27 01:28:30.000  -5743537.9840   1380503.9061  -2397896.1548       -23.6378         0.0000         0.0000       -16.9328     2.4642     1.6503   6  16   0.0214   0.0094   0.0054  -0.0116  -0.0052   0.0095   0.00    0.0
2016/06/27 01:29:00.000  -5743537.9852   1380503.9065  -2397896.1549       -23.5914         0.0000         0.0000       -16.9256     2.4641     1.6495   6  16   0.0212   0.0094   0.0054  -0.0115  -0.0052   0.0095   0.00    0.0
2016/06/27 01:29:30.000  -5743537.9857   1380503.9069  -2397896.1550       -23.5680         0.0000         0.0000       -16.9251     2.4641     1.6487   6  16   0.0211   0.0093   0.0054  -0.0114  -0.0051   0.0094   0.00    0.0
2016/06/27 01:30:00.000  -5743537.9863   1380503.9074  -2397896.1550       -23.5275         0.0000         0.0000       -16.9261     2.4640     1.6479   6  16   0.0209   0.0093   0.0054  -0.0113  -0.0051   0.0094   0.00    0.0
2016/06/27 01:30:30.000  -5743537.9870   1380503.9080  -2397896.1550       -23.3876         0.0000         0.0000       -16.9139     2.4640     1.6470   6  16   0.0208   0.0092   0.0054  -0.0113  -0.0051   0.0093   0.00    0.0
2016/06/27 01:31:00.000  -5743537.9869   1380503.9083  -2397896.1549       -23.3025         0.0000         0.0000       -16.9168     2.4642     1.6461   6  16   0.0206   0.0092   0.0054  -0.0112  -0.0051   0.0093   0.00    0.0
2016/06/27 01:31:30.000  -5743537.9870   1380503.9085  -2397896.1549       -23.2516         0.0000         0.0000       -16.9120     2.4643     1.6451   6  15   0.0205   0.0091   0.0053  -0.0111  -0.0051   0.0092   0.00    0.0
2016/06/27 01:32:00.000  -5743537.9880   1380503.9090  -2397896.1549       -23.1946         0.0000         0.0000       -16.9197     2.4643     1.6440   6  16   0.0203   0.0091   0.0053  -0.0111  -0.0050   0.0092   0.00    0.0
2016/06/27 01:32:30.000  -5743537.9894   1380503.9095  -2397896.1550       -23.1984         0.0000         0.0000       -16.9208     2.4642     1.6429   6  16   0.0202   0.0090   0.0053  -0.0110  -0.0050   0.0091   0.00    0.0
2016/06/27 01:33:00.000  -5743537.9902   1380503.9098  -2397896.1550       -23.1324         0.0000         0.0000       -16.9218     2.4643     1.6417   6  16   0.0200   0.0090   0.0053  -0.0109  -0.0050   0.0091   0.00    0.0
2016/06/27 01:33:30.000  -5743537.9912   1380503.9101  -2397896.1550       -23.1713         0.0000         0.0000       -16.9208     2.4643     1.6405   6  15   0.0199   0.0089   0.0053  -0.0109  -0.0050   0.0091   0.00    0.0
2016/06/27 01:34:00.000  -5743537.9918   1380503.9103  -2397896.1550       -23.1429         0.0000         0.0000       -16.9303     2.4645     1.6393   6  16   0.0198   0.0089   0.0053  -0.0108  -0.0049   0.0090   0.00    0.0
2016/06/27 01:34:30.000  -5743537.9929   1380503.9107  -2397896.1551       -23.0910         0.0000         0.0000       -16.9354     2.4646     1.6380   6  16   0.0196   0.0088   0.0052  -0.0107  -0.0049   0.0090   0.00    0.0
2016/06/27 01:35:00.000  -5743537.9939   1380503.9110  -2397896.1551       -22.9849         0.0000         0.0000       -16.9358     2.4647     1.6366   6  16   0.0195   0.0088   0.0052  -0.0107  -0.0049   0.0089   0.00    0.0
2016/06/27 01:35:30.000  -5743537.9949   1380503.9114  -2397896.1552       -22.9827         0.0000         0.0000       -16.9469     2.4647     1.6352   6  16   0.0194   0.0087   0.0052  -0.0106  -0.0049   0.0089   0.00    0.0
2016/06/27 01:36:00.000  -5743537.9960   1380503.9120  -2397896.1553       -22.9270         0.0000         0.0000       -16.9380     2.4646     1.6338   6  16   0.0192   0.0087   0.0052  -0.0105  -0.0049   0.0088   0.00    0.0
2016/06/27 01:36:30.000  -5743537.9969   1380503.9124  -2397896.1553       -22.9237         0.0000         0.0000       -16.9366     2.4646     1.6322   6  16   0.0191   0.0086   0.0052  -0.0105  -0.0048   0.0088   0.00    0.0
2016/06/27 01:37:00.000  -5743537.9975   1380503.9127  -2397896.1553       -22.9249         0.0000         0.0000       -16.9334     2.4647     1.6307   6  16   0.0190   0.0086   0.0052  -0.0104  -0.0048   0.0088   0.00    0.0
2016/06/27 01:37:30.000  -5743537.9981   1380503.9130  -2397896.1552       -22.8715         0.0000         0.0000       -16.9346     2.4650     1.6291   6  16   0.0188   0.0086   0.0052  -0.0103  -0.0048   0.0087   0.00    0.0
2016/06/27 01:38:00.000  -5743537.9984   1380503.9133  -2397896.1551       -22.8287         0.0000         0.0000       -16.9326     2.4653     1.6274   6  16   0.0187   0.0085   0.0051  -0.0103  -0.0048   0.0087   0.00    0.0
2016/06/27 01:38:30.000  -5743537.9991   1380503.9137  -2397896.1551       -22.6998         0.0000         0.0000       -16.9287     2.4654     1.6258   6  16   0.0186   0.0085   0.0051  -0.0102  -0.0048   0.0087   0.00    0.0
2016/06/27 01:39:00.000  -5743537.9995   1380503.9140  -2397896.1551       -22.7266         0.0000         0.0000       -16.9280     2.4656     1.6240   6  16   0.0185   0.0084   0.0051  -0.0101  -0.0047   0.0086   0.00    0.0
2016/06/27 01:39:30.000  -5743538.0004   1380503.9143  -2397896.1551       -22.7398         0.0000         0.0000       -16.9205     2.4657     1.6222   6  16   0.0183   0.0084   0.0051  -0.0101  -0.0047   0.0086   0.00    0.0
2016/06/27 01:40:00.000  -5743538.0008   1380503.9144  -2397896.1550       -22.7075         0.0000         0.0000       -16.9009     2.4660     1.6204   6  16   0.0182   0.0083   0.0051  -0.0100  -0.0047   0.0086   0.00    0.0
2016/06/27 01:40:30.000  -5743538.0013   1380503.9148  -2397896.1550       -22.6718         0.0000         0.0000       -16.8999     2.4661     1.6185   6  16   0.0181   0.0083   0.0051  -0.0100  -0.0047   0.0085   0.00    0.0
2016/06/27 01:41:00.000  -5743538.0016   1380503.9149  -2397896.1549       -22.5457         0.0000         0.0000       -16.8959     2.4662     1.6166   6  16   0.0180   0.0082   0.0051  -0.0099  -0.0047   0.0085   0.00    0.0
2016/06/27 01:41:30.000  -5743538.0020   1380503.9151  -2397896.1549       -22.4422         0.0000         0.0000       -16.9026     2.4664     1.6147   6  16   0.0179   0.0082   0.0051  -0.0098  -0.0046   0.0085   0.00    0.0
2016/06/27 01:42:00.000  -5743538.0030   1380503.9156  -2397896.1550       -22.3956         0.0000         0.0000       -16.9064     2.4665     1.6127   6  16   0.0178   0.0082   0.0050  -0.0098  -0.0046   0.0084   0.00    0.0
2016/06/27 01:42:30.000  -5743538.0036   1380503.9159  -2397896.1550       -22.2994         0.0000         0.0000       -16.9098     2.4666     1.6106   6  16   0.0176   0.0081   0.0050  -0.0097  -0.0046   0.0084   0.00    0.0
2016/06/27 01:43:00.000  -5743538.0041   1380503.9163  -2397896.1550       -22.2209         0.0000         0.0000       -16.9090     2.4667     1.6086   6  16   0.0175   0.0081   0.0050  -0.0097  -0.0046   0.0084   0.00    0.0
2016/06/27 01:43:30.000  -5743538.0044   1380503.9165  -2397896.1549       -22.2636         0.0000         0.0000       -16.9115     2.4670     1.6065   6  16   0.0174   0.0080   0.0050  -0.0096  -0.0046   0.0083   0.00    0.0
2016/06/27 01:44:00.000  -5743538.0053   1380503.9169  -2397896.1550       -22.2991         0.0000         0.0000       -16.9100     2.4671     1.6043   6  16   0.0173   0.0080   0.0050  -0.0095  -0.0045   0.0083   0.00    0.0
2016/06/27 01:44:30.000  -5743538.0063   1380503.9174  -2397896.1551       -22.3760         0.0000         0.0000       -16.8991     2.4673     1.6021   6  16   0.0172   0.0079   0.0050  -0.0095  -0.0045   0.0083   0.00    0.0
2016/06/27 01:45:00.000  -5743538.0076   1380503.9180  -2397896.1552       -22.4233         0.0000         0.0000       -16.8889     2.4673     1.5999   6  16   0.0171   0.0079   0.0050  -0.0094  -0.0045   0.0082   0.00    0.0
2016/06/27 01:45:30.000  -5743538.0080   1380503.9182  -2397896.1552       -22.4461         0.0000         0.0000       -16.8880     2.4675     1.5976   6  16   0.0170   0.0079   0.0050  -0.0094  -0.0045   0.0082   0.00    0.0
2016/06/27 01:46:00.000  -5743538.0088   1380503.9187  -2397896.1553       -22.4582         0.0000         0.0000       -16.8872     2.4675     1.5953   6  16   0.0169   0.0078   0.0050  -0.0093  -0.0045   0.0082   0.00    0.0
2016/06/27 01:46:30.000  -5743538.0095   1380503.9190  -2397896.1554       -22.4690         0.0000         0.0000       -16.8805     2.4675     1.5930   6  16   0.0168   0.0078   0.0050  -0.0092  -0.0044   0.0082   0.00    0.0
2016/06/27 01:47:00.000  -5743538.0100   1380503.9191  -2397896.1554       -22.4529         0.0000         0.0000       -16.8823     2.4676     1.5906   6  16   0.0167   0.0077   0.0049  -0.0092  -0.0044   0.0081   0.00    0.0
2016/06/27 01:47:30.000  -5743538.0106   1380503.9193  -2397896.1555       -22.4375         0.0000         0.0000       -16.8810     2.4676     1.5882   6  16   0.0166   0.0077   0.0049  -0.0091  -0.0044   0.0081   0.00    0.0
2016/06/27 01:48:00.000  -5743538.0112   1380503.9196  -2397896.1556       -22.5838         0.0000         0.0000       -16.8879     2.4677     1.5858   6  16   0.0165   0.0076   0.0049  -0.0091  -0.0044   0.0081   0.00    0.0
2016/06/27 01:48:30.000  -5743538.0116   1380503.9199  -2397896.1557       -22.6963         0.0000         0.0000       -16.8878     2.4677     1.5833   6  16   0.0164   0.0076   0.0049  -0.0090  -0.0044   0.0080   0.00    0.0
2016/06/27 01:49:00.000  -5743538.0118   1380503.9201  -2397896.1557       -22.7374         0.0000         0.0000       -16.8815     2.4680     1.5808   6  16   0.0163   0.0076   0.0049  -0.0090  -0.0044   0.0080   0.00    0.0
2016/06/27 01:49:30.000  -5743538.0124   1380503.9204  -2397896.1558       -22.7621         0.0000         0.0000       -16.8776     2.4680     1.5783   6  16   0.0162   0.0075   0.0049  -0.0089  -0.0043   0.0080   0.00    0.0
2016/06/27 01:50:00.000  -5743538.0123   1380503.9206  -2397896.1557       -22.8387         0.0000         0.0000       -16.8786     2.4684     1.5758   6  16   0.0161   0.0075   0.0049  -0.0089  -0.0043   0.0080   0.00    0.0
2016/06/27 01:50:30.000  -5743538.0125   1380503.9207  -2397896.1558       -22.7364         0.0000         0.0000       -16.8865     2.4685     1.5732   6  16   0.0160   0.0074   0.0049  -0.0088  -0.0043   0.0079   0.00    0.0
2016/06/27 01:51:00.000  -5743538.0128   1380503.9208  -2397896.1559       -22.6425         0.0000         0.0000       -16.8902     2.4683     1.5706   6  15   0.0159   0.0074   0.0049  -0.0088  -0.0043   0.0079   0.00    0.0
2016/06/27 01:51:30.000  -5743538.0135   1380503.9210  -2397896.1560       -22.6563         0.0000         0.0000       -16.8920     2.4682     1.5680   6  16   0.0158   0.0074   0.0049  -0.0087  -0.0043   0.0079   0.00    0.0
2016/06/27 01:52:00.000  -5743538.0144   1380503.9214  -2397896.1562       -22.6985         0.0000         0.0000       -16.8980     2.4678     1.5653   6  16   0.0157   0.0073   0.0048  -0.0086  -0.0043   0.0079   0.00    0.0
2016/06/27 01:52:30.000  -5743538.0149   1380503.9215  -2397896.1564       -22.6901         0.0000         0.0000       -16.8988     2.4674     1.5626   6  16   0.0156   0.0073   0.0048  -0.0086  -0.0042   0.0078   0.00    0.0
2016/06/27 01:53:00.000  -5743538.0154   1380503.9216  -2397896.1565       -22.6774         0.0000         0.0000       -16.9033     2.4670     1.5599   6  15   0.0155   0.0073   0.0048  -0.0085  -0.0042   0.0078   0.00    0.0
2016/06/27 01:53:30.000  -5743538.0154   1380503.9216  -2397896.1565       -22.7225         0.0000         0.0000       -16.9094     2.4671     1.5572   6  16   0.0155   0.0072   0.0048  -0.0085  -0.0042   0.0078   0.00    0.0
2016/06/27 01:54:00.000  -5743538.0157   1380503.9218  -2397896.1566       -22.8072         0.0000         0.0000       -16.9099     2.4669     1.5545   6  16   0.0154   0.0072   0.0048  -0.0084  -0.0042   0.0077   0.00    0.0
2016/06/27 01:54:30.000  -5743538.0159   1380503.9221  -2397896.1567       -22.8491         0.0000         0.0000       -16.8998     2.4668     1.5517   6  15   0.0153   0.0071   0.0048  -0.0084  -0.0042   0.0077   0.00    0.0
2016/06/27 01:55:00.000  -5743538.0161   1380503.9221  -2397896.1567       -22.9396         0.0000         0.0000       -16.8961     2.4667     1.5489   6  16   0.0152   0.0071   0.0048  -0.0083  -0.0042   0.0077   0.00    0.0
2016/06/27 01:55:30.000  -5743538.0165   1380503.9222  -2397896.1568       -22.8382         0.0000         0.0000       -16.8866     2.4665     1.5461   6  16   0.0151   0.0071   0.0048  -0.0083  -0.0041   0.0077   0.00    0.0
2016/06/27 01:56:00.000  -5743538.0165   1380503.9222  -2397896.1568       -22.8698         0.0000         0.0000       -16.8831     2.4666     1.5433   6  16   0.0150   0.0070   0.0048  -0.0082  -0.0041   0.0076   0.00    0.0
2016/06/27 01:56:30.000  -5743538.0171   1380503.9224  -2397896.1568       -22.8547         0.0000         0.0000       -16.8879     2.4663     1.5404   6  16   0.0149   0.0070   0.0048  -0.0082  -0.0041   0.0076   0.00    0.0
2016/06/27 01:57:00.000  -5743538.0174   1380503.9225  -2397896.1568       -22.6363         0.0000         0.0000       -16.8918     2.4662     1.5376   6  16   0.0149   0.0069   0.0047  -0.0081  -0.0041   0.0076   0.00    0.0
2016/06/27 01:57:30.000  -5743538.0171   1380503.9224  -2397896.1567       -22.3529         0.0000         0.0000       -16.8915     2.4662     1.5347   6  16   0.0148   0.0069   0.0047  -0.0081  -0.0041   0.0076   0.00    0.0
2016/06/27 01:58:00.000  -5743538.0176   1380503.9225  -2397896.1568       -22.2783         0.0000         0.0000       -16.8937     2.4658     1.5318   6  16   0.0147   0.0069   0.0047  -0.0080  -0.0041   0.0075   0.00    0.0
2016/06/27 01:58:30.000  -5743538.0177   1380503.9226  -2397896.1569       -22.1474         0.0000         0.0000       -16.9012     2.4654     1.5289   6  16   0.0146   0.0068   0.0047  -0.0080  -0.0040   0.0075   0.00    0.0
2016/06/27 01:59:00.000  -5743538.0183   1380503.9227  -2397896.1570       -22.0141         0.0000         0.0000       -16.8984     2.4652     1.5260   6  16   0.0145   0.0068   0.0047  -0.0079  -0.0040   0.0075   0.00    0.0
2016/06/27 01:59:30.000  -5743538.0190   1380503.9228  -2397896.1572       -22.0046         0.0000         0.0000       -16.9008     2.4646     1.5231   6  16   0.0144   0.0068   0.0047  -0.0079  -0.0040   0.0075   0.00    0.0
2016/06/27 02:00:00.000  -5743538.0195   1380503.9230  -2397896.1574       -22.1815         0.0000         0.0000       -16.8990     2.4642     1.5201   6  16   0.0144   0.0067   0.0047  -0.0078  -0.0040   0.0074   0.00    0.0
2016/06/27 02:00:30.000  -5743538.0196   1380503.9230  -2397896.1574       -22.1320         0.0000         0.0000       -16.9029     2.4641     1.5172   6  16   0.0143   0.0067   0.0047  -0.0078  -0.0040   0.0074   0.00    0.0
2016/06/27 02:01:00.000  -5743538.0199   1380503.9231  -2397896.1575       -22.0776         0.0000         0.0000       -16.9093     2.4639     1.5142   6  15   0.0142   0.0067   0.0047  -0.0077  -0.0039   0.0074   0.00    0.0
2016/06/27 02:01:30.000  -5743538.0201   1380503.9232  -2397896.1576       -22.0496         0.0000         0.0000       -16.9203     2.4636     1.3278   6  17   0.0141   0.0066   0.0046  -0.0077  -0.0039   0.0073   0.00    0.0
2016/06/27 02:02:00.000  -5743538.0208   1380503.9234  -2397896.1577       -21.8013         0.0000         0.0000       -16.9250     2.4632     1.3266   6  16   0.0140   0.0066   0.0046  -0.0076  -0.0039   0.0073   0.00    0.0
2016/06/27 02:02:30.000  -5743538.0214   1380503.9236  -2397896.1578       -21.8642         0.0000         0.0000       -16.9180     2.4630     1.3254   6  17   0.0139   0.0065   0.0046  -0.0076  -0.0039   0.0073   0.00    0.0
2016/06/27 02:03:00.000  -5743538.0215   1380503.9237  -2397896.1578       -21.7881         0.0000         0.0000       -16.9165     2.4631     1.2032   6  18   0.0139   0.0065   0.0046  -0.0075  -0.0039   0.0073   0.00    0.0
2016/06/27 02:03:30.000  -5743538.0220   1380503.9239  -2397896.1579       -21.8858         0.0000         0.0000       -16.9233     2.4629     1.2031   6  18   0.0138   0.0065   0.0046  -0.0075  -0.0039   0.0072   0.00    0.0
2016/06/27 02:04:00.000  -5743538.0220   1380503.9238  -2397896.1579       -21.8043         0.0000         0.0000       -16.9392     2.4629     1.2030   6  18   0.0137   0.0064   0.0046  -0.0074  -0.0038   0.0072   0.00    0.0
2016/06/27 02:04:30.000  -5743538.0219   1380503.9237  -2397896.1578       -21.7747         0.0000         0.0000       -16.9516     2.4629     1.2029   6  18   0.0136   0.0064   0.0046  -0.0074  -0.0038   0.0072   0.00    0.0
2016/06/27 02:05:00.000  -5743538.0220   1380503.9237  -2397896.1578       -21.7002         0.0000         0.0000       -16.9564     2.4629     1.2027   6  18   0.0135   0.0064   0.0046  -0.0073  -0.0038   0.0072   0.00    0.0
2016/06/27 02:05:30.000  -5743538.0220   1380503.9236  -2397896.1579       -21.8117         0.0000         0.0000       -16.9614     2.4631     1.2026   6  18   0.0135   0.0063   0.0045  -0.0073  -0.0038   0.0071   0.00    0.0
2016/06/27 02:06:00.000  -5743538.0220   1380503.9237  -2397896.1578       -21.8575         0.0000         0.0000       -16.9699     2.4633     1.2024   6  18   0.0134   0.0063   0.0045  -0.0072  -0.0038   0.0071   0.00    0.0
2016/06/27 02:06:30.000  -5743538.0216   1380503.9235  -2397896.1578       -21.9192         0.0000         0.0000       -16.9735     2.4636     1.2022   6  18   0.0133   0.0063   0.0045  -0.0072  -0.0037   0.0071   0.00    0.0
2016/06/27 02:07:00.000  -5743538.0215   1380503.9235  -2397896.1578       -21.9283         0.0000         0.0000       -16.9703     2.4639     1.2020   6  18   0.0132   0.0062   0.0045  -0.0071  -0.0037   0.0070   0.00    0.0
2016/06/27 02:07:30.000  -5743538.0215   1380503.9236  -2397896.1578       -21.9765         0.0000         0.0000       -16.9704     2.4639     1.2017   6  17   0.0131   0.0062   0.0045  -0.0071  -0.0037   0.0070   0.00    0.0
2016/06/27 02:08:00.000  -5743538.0216   1380503.9236  -2397896.1578       -22.0786         0.0000         0.0000       -16.9671     2.4641     1.2015   6  18   0.0131   0.0062   0.0045  -0.0070  -0.0037   0.0070   0.00    0.0
2016/06/27 02:08:30.000  -5743538.0218   1380503.9237  -2397896.1578       -22.0081         0.0000         0.0000       -16.9629     2.4643     1.2012   6  18   0.0130   0.0061   0.0045  -0.0070  -0.0037   0.0069   0.00    0.0
2016/06/27 02:09:00.000  -5743538.0216   1380503.9237  -2397896.1578       -21.8863         0.0000         0.0000       -16.9623     2.4646     1.2009   6  17   0.0129   0.0061   0.0044  -0.0069  -0.0036   0.0069   0.00    0.0
2016/06/27 02:09:30.000  -5743538.0216   1380503.9237  -2397896.1578       -21.8495         0.0000         0.0000       -16.9681     2.4648     1.2006   6  18   0.0128   0.0060   0.0044  -0.0069  -0.0036   0.0069   0.00    0.0
2016/06/27 02:10:00.000  -5743538.0214   1380503.9237  -2397896.1577       -21.9332         0.0000         0.0000       -16.9671     2.4651     1.2003   6  18   0.0127   0.0060   0.0044  -0.0068  -0.0036   0.0068   0.00    0.0
2016/06/27 02:10:30.000  -5743538.0212   1380503.9237  -2397896.1577       -21.8789         0.0000         0.0000       -16.9594     2.4654     1.1999   6  18   0.0127   0.0060   0.0044  -0.0068  -0.0036   0.0068   0.00    0.0
2016/06/27 02:11:00.000  -5743538.0208   1380503.9235  -2397896.1576       -22.0118         0.0000         0.0000       -16.9504     2.4657     1.2458   6  17   0.0126   0.0059   0.0044  -0.0067  -0.0036   0.0068   0.00    0.0
