%  GPST                      x-ecef(m)      y-ecef(m)      z-ecef(m)   Q  ns   sdx(m)   sdy(m)   sdz(m)  sdxy(m)  sdyz(m)  sdzx(m) age(s)  ratio
2016/06/27 00:00:00.000   1202379.2837    252474.5041   6237792.1763    -96667.6348         0.0000         0.0000         0.0000     2.3858     3.3089   6   9   1.0633   1.4046   5.8838  -0.1739   1.8612   0.5688   0.00    0.0
2016/06/27 00:00:30.000   1202379.4016    252474.3780   6237789.0759    -97713.6735         0.0000         0.0000         0.0000     2.3859     3.3130   6   9   0.7436   0.9342   3.0942  -0.1241   0.9319   0.3933   0.00    0.0
2016/06/27 00:01:00.000   1202379.4169    252474.0184   6237787.9322    -98753.1366         0.0000         0.0000         0.0000     2.3809     3.3155   6   9   0.5955   0.7281   1.9454  -0.0950   0.5339   0.3285   0.00    0.0
2016/06/27 00:01:30.000   1202379.6942    252474.1382   6237787.0036    -99791.9974         0.0000         0.0000         0.0000     2.3766     3.3164   6   9   0.5025   0.6060   1.3820  -0.0745   0.3244   0.2955   0.00    0.0
2016/06/27 00:02:00.000   1202379.9245    252474.4252   6237786.8387   -100830.5034         0.0000         0.0000         0.0000     2.3775     3.3158   6   9   0.4356   0.5216   1.0706  -0.0599   0.1915   0.2745   0.00    0.0
2016/06/27 00:02:30.000   1202379.7741    252474.4291   6237786.9858   -101865.0134         0.0000         0.0000         0.0000     2.3855     3.3136   6   9   0.3839   0.4578   0.8814  -0.0501   0.0800   0.2586   0.00    0.0
2016/06/27 00:03:00.000   1202379.7230    252474.5152   6237786.8281   -102904.2082         0.0000         0.0000         0.0000     2.3739     3.3098   6   9   0.3422   0.4071   0.7563  -0.0441  -0.0911   0.2450   0.00    0.0
2016/06/27 00:03:30.000   1202379.7083    252474.4791   6237786.8733   -103942.4053         0.0000         0.0000         0.0000     2.3694     3.3045   6   9   0.3075   0.3654   0.6670  -0.0408  -0.1252   0.2324   0.00    0.0
2016/06/27 00:04:00.000   1202379.7324    252474.5003   6237786.8073   -104980.4301         0.0000         0.0000         0.0000     2.3735     3.2976   6   9   0.2782   0.3304   0.5988  -0.0390  -0.1385   0.2202   0.00    0.0
2016/06/27 00:04:30.000   1202379.7175    252474.4636   6237786.8121   -106020.2771         0.0000         0.0000         0.0000     2.3635     3.2893   6   9   0.2531   0.3006   0.5439  -0.0378  -0.1432   0.2083   0.00    0.0
2016/06/27 00:05:00.000   1202379.6511    252474.4332   6237786.8133   -107063.0319         0.0000         0.0000         0.0000     2.3711     3.2795   6   9   0.2312   0.2749   0.4979  -0.0367  -0.1433   0.1967   0.00    0.0
2016/06/27 00:05:30.000   1202379.6138    252474.4152   6237786.8347   -108108.3588         0.0000         0.0000         0.0000     2.3637     3.2683   6   9   0.2122   0.2524   0.4583  -0.0353  -0.1407   0.1854   0.00    0.0
2016/06/27 00:06:00.000   1202379.5821    252474.4030   6237786.8348   -109150.7488         0.0000         0.0000         0.0000     2.3613     3.2558   6   9   0.1954   0.2328   0.4236  -0.0338  -0.1364   0.1747   0.00    0.0
2016/06/27 00:06:30.000   1202379.5989    252474.4448   6237786.8374   -110195.6282         0.0000         0.0000         0.0000     2.3575     3.2419   6   9   0.1805   0.2154   0.3929  -0.0320  -0.1313   0.1646   0.00    0.0
2016/06/27 00:07:00.000   1202379.5409    252474.4669   6237786.7759   -111239.3200         0.0000         0.0000         0.0000     2.3708     3.2268   6   9   0.1673   0.1999   0.3655  -0.0301  -0.1256   0.1550   0.00    0.0
2016/06/27 00:07:30.000   1202379.5046    252474.4664   6237786.7385   -112285.9874         0.0000         0.0000         0.0000     2.3785     3.2106   6   9   0.1555   0.1861   0.3409  -0.0280  -0.1197   0.1461   0.00    0.0
2016/06/27 00:08:00.000   1202379.4856    252474.4502   6237786.7572   -113326.6836         0.0000         0.0000         0.0000     2.3679     3.1932   6   9   0.1450   0.1737   0.3187  -0.0259  -0.1138   0.1378   0.00    0.0
2016/06/27 00:08:30.000   1202379.4871    252474.4677   6237786.7639   -114369.3120         0.0000         0.0000         0.0000     2.3670     3.1748   6   9   0.1355   0.1626   0.2986  -0.0237  -0.1080   0.1300   0.00    0.0
2016/06/27 00:09:00.000   1202379.4836    252474.4786   6237786.7515   -115414.3109         0.0000         0.0000         0.0000     2.3679     3.1554   6   9   0.1269   0.1525   0.2804  -0.0215  -0.1023   0.1229   0.00    0.0
2016/06/27 00:09:30.000   1202379.4706    252474.4975   6237786.6954   -116458.1629         0.0000         0.0000         0.0000     2.3786     3.1351   6   9   0.1192   0.1434   0.2638  -0.0193  -0.0969   0.1163   0.00    0.0
2016/06/27 00:10:00.000   1202379.4709    252474.5170   6237786.7011   -117497.5045         0.0000         0.0000         0.0000     2.3778     3.1139   6   9   0.1121   0.1353   0.2489  -0.0173  -0.0922   0.1102   0.00    0.0
2016/06/27 00:10:30.000   1202379.4706    252474.5272   6237786.6853   -118540.8947         0.0000         0.0000         0.0000     2.3802     3.0920   6   9   0.1058   0.1279   0.2352  -0.0151  -0.0876   0.1045   0.00    0.0
2016/06/27 00:11:00.000   1202379.4652    252474.5309   6237786.7022   -119585.5702         0.0000         0.0000         0.0000     2.3767     3.0694   6   9   0.0999   0.1212   0.2226  -0.0129  -0.0831   0.0992   0.00    0.0
2016/06/27 00:11:30.000   1202379.4595    252474.5400   6237786.6984   -120628.0796         0.0000         0.0000         0.0000     2.3760     3.0462   6   9   0.0946   0.1150   0.2110  -0.0104  -0.0788   0.0943   0.00    0.0
2016/06/27 00:12:00.000   1202379.4461    252474.5574   6237786.6751   -121673.4982         0.0000         0.0000         0.0000     2.3801     3.0224   6   9   0.0897   0.1093   0.2002  -0.0076  -0.0748   0.0898   0.00    0.0
2016/06/27 00:12:30.000   1202379.4433    252474.5695   6237786.6629   -122714.4903         0.0000         0.0000         0.0000     2.3793     2.9982   6   9   0.0852   0.1040   0.1903  -0.0037  -0.0709   0.0856   0.00    0.0
2016/06/27 00:13:00.000   1202379.4392    252474.5764   6237786.6509   -123760.5275         0.0000         0.0000         0.0000     2.3828     2.9735   6   9   0.0811   0.0992   0.1811   0.0051  -0.0672   0.0816   0.00    0.0
2016/06/27 00:13:30.000   1202379.4255    252474.5850   6237786.6364   -124808.3490         0.0000         0.0000         0.0000     2.3838     2.9484   6   9   0.0773   0.0947   0.1726   0.0078  -0.0637   0.0780   0.00    0.0
2016/06/27 00:14:00.000   1202379.4244    252474.5901   6237786.6407   -125853.4203         0.0000         0.0000         0.0000     2.3814     2.9231   6   9   0.0737   0.0905   0.1646   0.0095  -0.0604   0.0746   0.00    0.0
2016/06/27 00:14:30.000   1202379.4129    252474.6031   6237786.6203   -126896.2633         0.0000         0.0000         0.0000     2.3849     2.8974   6   9   0.0704   0.0867   0.1573   0.0108  -0.0573   0.0714   0.00    0.0
2016/06/27 00:15:00.000   1202379.4108    252474.6086   6237786.6144   -127937.7902         0.0000         0.0000         0.0000     2.3845     2.8716   6   9   0.0674   0.0831   0.1504   0.0118  -0.0544   0.0684   0.00    0.0
2016/06/27 00:15:30.000   1202379.4078    252474.6084   6237786.6163   -128980.3793         0.0000         0.0000         0.0000     2.3835     2.8457   6   9   0.0646   0.0797   0.1440   0.0126  -0.0516   0.0656   0.00    0.0
2016/06/27 00:16:00.000   1202379.3997    252474.6099   6237786.6050   -130023.5818         0.0000         0.0000         0.0000     2.3857     2.8197   6   9   0.0619   0.0766   0.1380   0.0132  -0.0490   0.0630   0.00    0.0
2016/06/27 00:16:30.000   1202379.3987    252474.6109   6237786.5970   -131073.4193         0.0000         0.0000         0.0000     2.3862     2.7936   6   9   0.0595   0.0737   0.1324   0.0137  -0.0465   0.0606   0.00    0.0
2016/06/27 00:17:00.000   1202379.3926    252474.6123   6237786.5848   -132120.7833         0.0000         0.0000         0.0000     2.3873     2.7675   6   9   0.0572   0.0710   0.1271   0.0141  -0.0442   0.0583   0.00    0.0
2016/06/27 00:17:30.000   1202379.3914    252474.6095   6237786.5776   -133166.5174         0.0000         0.0000         0.0000     2.3888     2.7414   6   9   0.0550   0.0684   0.1222   0.0144  -0.0420   0.0561   0.00    0.0
2016/06/27 00:18:00.000   1202379.3895    252474.6152   6237786.5725   -134215.6485         0.0000         0.0000         0.0000     2.3897     2.7154   6   9   0.0530   0.0660   0.1176   0.0147  -0.0399   0.0541   0.00    0.0
2016/06/27 00:18:30.000   1202379.3879    252474.6195   6237786.5811   -135262.9347         0.0000         0.0000         0.0000     2.3877     2.6895   6   9   0.0511   0.0638   0.1132   0.0149  -0.0379   0.0522   0.00    0.0
2016/06/27 00:19:00.000   1202379.3903    252474.6221   6237786.5858   -136311.1596         0.0000         0.0000         0.0000     2.3872     2.6637   6   9   0.0493   0.0617   0.1091   0.0151  -0.0360   0.0504   0.00    0.0
2016/06/27 00:19:30.000   1202379.3872    252474.6226   6237786.5851   -137363.0872         0.0000         0.0000         0.0000     2.3875     2.6381   6   9   0.0476   0.0597   0.1052   0.0152  -0.0342   0.0486   0.00    0.0
2016/06/27 00:20:00.000   1202379.3819    252474.6221   6237786.5834   -138414.5878         0.0000         0.0000         0.0000     2.3877     2.6126   6   9   0.0460   0.0578   0.1015   0.0153  -0.0326   0.0470   0.00    0.0
2016/06/27 00:20:30.000   1202379.3775    252474.6186   6237786.5764   -139467.8004         0.0000         0.0000         0.0000     2.3893     2.5874   6   9   0.0445   0.0563   0.0995   0.0157  -0.0324   0.0452   0.00    0.0
2016/06/27 00:21:00.000   1202379.3774    252474.6228   6237786.5734   -140522.8325         0.0000         0.0000         0.0000     2.3901     2.5624   6   9   0.0431   0.0549   0.0977   0.0160  -0.0323   0.0434   0.00    0.0
2016/06/27 00:21:30.000   1202379.3781    252474.6267   6237786.5739   -141574.8128         0.0000         0.0000         0.0000     2.3902     2.5376   6   9   0.0418   0.0536   0.0958   0.0162  -0.0321   0.0417   0.00    0.0
2016/06/27 00:22:00.000   1202379.3782    252474.6273   6237786.5773   -142622.0899         0.0000         0.0000         0.0000     2.3892     2.5131   6   9   0.0406   0.0523   0.0941   0.0164  -0.0319   0.0401   0.00    0.0
2016/06/27 00:22:30.000   1202379.3792    252474.6318   6237786.5772   -143667.7523         0.0000         0.0000         0.0000     2.3892     2.4889   6   9   0.0394   0.0510   0.0924   0.0165  -0.0316   0.0386   0.00    0.0
2016/06/27 00:23:00.000   1202379.3772    252474.6330   6237786.5739   -144717.6834         0.0000         0.0000         0.0000     2.3896     2.4649   6   9   0.0385   0.0502   0.0911   0.0158  -0.0322   0.0376   0.00    0.0
2016/06/27 00:23:30.000   1202379.3752    252474.6369   6237786.5674   -145767.3962         0.0000         0.0000         0.0000     2.3915     2.4413   6   9   0.0376   0.0495   0.0899   0.0151  -0.0327   0.0367   0.00    0.0
2016/06/27 00:24:00.000   1202379.3756    252474.6376   6237786.5660   -146821.2284         0.0000         0.0000         0.0000     2.3915     2.4180   6   9   0.0368   0.0487   0.0887   0.0145  -0.0331   0.0358   0.00    0.0
2016/06/27 00:24:30.000   1202379.3739    252474.6372   6237786.5626   -147873.6395         0.0000         0.0000         0.0000     2.3916     2.3949   6   9   0.0360   0.0483   0.0877   0.0138  -0.0329   0.0349   0.00    0.0
2016/06/27 00:25:00.000   1202379.3738    252474.6382   6237786.5625   -148925.1622         0.0000         0.0000         0.0000     2.3917     2.3723   6   9   0.0352   0.0478   0.0868   0.0130  -0.0327   0.0340   0.00    0.0
2016/06/27 00:25:30.000   1202379.3719    252474.6394   6237786.5594   -149974.3070         0.0000         0.0000         0.0000     2.3916     2.3499   6   9   0.0345   0.0474   0.0858   0.0122  -0.0324   0.0331   0.00    0.0
2016/06/27 00:26:00.000   1202379.3703    252474.6384   6237786.5564   -151024.2342         0.0000         0.0000         0.0000     2.3919     2.3279   6   9   0.0338   0.0470   0.0854   0.0113  -0.0324   0.0325   0.00    0.0
2016/06/27 00:26:30.000   1202379.3673    252474.6382   6237786.5511   -152083.2669         0.0000         0.0000         0.0000     2.3920     2.3062   6   9   0.0332   0.0466   0.0850   0.0104  -0.0323   0.0319   0.00    0.0
2016/06/27 00:27:00.000   1202379.3668    252474.6379   6237786.5488   -153142.6685         0.0000         0.0000         0.0000     2.3927     2.2848   6   9   0.0326   0.0461   0.0846   0.0094  -0.0322   0.0313   0.00    0.0
2016/06/27 00:27:30.000   1202379.3659    252474.6383   6237786.5463   -154197.5450         0.0000         0.0000         0.0000     2.3931     2.2638   6   9   0.0320   0.0457   0.0841   0.0084  -0.0320   0.0308   0.00    0.0
2016/06/27 00:28:00.000   1202379.3645    252474.6399   6237786.5428   -155255.0315         0.0000         0.0000         0.0000     2.3938     2.2432   6   9   0.0314   0.0453   0.0837   0.0073  -0.0319   0.0303   0.00    0.0
2016/06/27 00:28:30.000   1202379.3639    252474.6369   6237786.5415   -156317.3048         0.0000         0.0000         0.0000     2.3940     2.2229   6   9   0.0309   0.0449   0.0832   0.0061  -0.0317   0.0298   0.00    0.0
2016/06/27 00:29:00.000   1202379.3649    252474.6371   6237786.5432   -157379.6231         0.0000         0.0000         0.0000     2.3934     2.2029   6   9   0.0304   0.0445   0.0829   0.0048  -0.0314   0.0294   0.00    0.0
2016/06/27 00:29:30.000   1202379.3638    252474.6381   6237786.5410   -158441.3584         0.0000         0.0000         0.0000     2.3934     2.1833   6   9   0.0299   0.0441   0.0826   0.0031  -0.0311   0.0290   0.00    0.0
2016/06/27 00:30:00.000   1202379.3619    252474.6388   6237786.5381   -159503.4203         0.0000         0.0000         0.0000     2.3936     2.1640   6   9   0.0295   0.0437   0.0824  -0.0018  -0.0308   0.0287   0.00    0.0
2016/06/27 00:30:30.000   1202379.3630    252474.6377   6237786.5401   -160568.5741         0.0000         0.0000         0.0000     2.3930     2.1450   6   9   0.0290   0.0432   0.0821  -0.0039  -0.0305   0.0284   0.00    0.0
2016/06/27 00:31:00.000   1202379.3624    252474.6381   6237786.5391   -161631.3535         0.0000         0.0000         0.0000     2.3930     2.1264   6   9   0.0286   0.0428   0.0819  -0.0051  -0.0301   0.0282   0.00    0.0
2016/06/27 00:31:30.000   1202379.3608    252474.6390   6237786.5367   -162690.8854         0.0000         0.0000         0.0000     2.3932     2.1081   6   9   0.0283   0.0424   0.0816  -0.0056  -0.0297   0.0279   0.00    0.0
2016/06/27 00:32:00.000   1202379.3593    252474.6373   6237786.5364   -163753.2116         0.0000         0.0000         0.0000     2.3930     2.0901   6   9   0.0280   0.0420   0.0813  -0.0060  -0.0293   0.0276   0.00    0.0
2016/06/27 00:32:30.000   1202379.3591    252474.6367   6237786.5361   -164818.5380         0.0000         0.0000         0.0000     2.3930     2.0725   6   9   0.0277   0.0417   0.0810  -0.0064  -0.0289   0.0274   0.00    0.0
2016/06/27 00:33:00.000   1202379.3611    252474.6361   6237786.5432   -165880.6382         0.0000         0.0000         0.0000     2.3919     2.0552   6   9   0.0274   0.0412   0.0807  -0.0067  -0.0284   0.0271   0.00    0.0
2016/06/27 00:33:30.000   1202379.3597    252474.6344   6237786.5389   -166941.7596         0.0000         0.0000         0.0000     2.3928     2.0382   6   9   0.0271   0.0408   0.0803  -0.0069  -0.0279   0.0269   0.00    0.0
2016/06/27 00:34:00.000   1202379.3598    252474.6359   6237786.5375   -168002.6719         0.0000         0.0000         0.0000     2.3929     2.0215   6   9   0.0269   0.0404   0.0801  -0.0071  -0.0275   0.0267   0.00    0.0
2016/06/27 00:34:30.000   1202379.3585    252474.6358   6237786.5372   -169062.2161         0.0000         0.0000         0.0000     2.3925     2.3719   6   8   0.0267   0.0400   0.0799  -0.0073  -0.0270   0.0266   0.00    0.0
2016/06/27 00:35:00.000   1202379.3583    252474.6368   6237786.5363   -170121.5995         0.0000         0.0000         0.0000     2.3926     3.7597   6   7   0.0264   0.0396   0.0797  -0.0074  -0.0265   0.0264   0.00    0.0
2016/06/27 00:35:30.000   1202379.3572    252474.6356   6237786.5366   -171182.1599         0.0000         0.0000         0.0000     2.3922     3.7246   6   7   0.0262   0.0391   0.0795  -0.0075  -0.0260   0.0263   0.00    0.0
2016/06/27 00:36:00.000   1202379.3574    252474.6364   6237786.5362   -172235.8741         0.0000         0.0000         0.0000     2.3922     3.6896   6   7   0.0260   0.0387   0.0793  -0.0076  -0.0254   0.0262   0.00    0.0
2016/06/27 00:36:30.000   1202379.3583    252474.6385   6237786.5356   -173297.8484         0.0000         0.0000         0.0000     2.3925     3.6548   6   7   0.0258   0.0382   0.0791  -0.0076  -0.0249   0.0261   0.00    0.0
2016/06/27 00:37:00.000   1202379.3579    252474.6381   6237786.5353   -174356.0619         0.0000         0.0000         0.0000     2.3925     3.6202   6   7   0.0256   0.0378   0.0789  -0.0076  -0.0243   0.0260   0.00    0.0
2016/06/27 00:37:30.000   1202379.3586    252474.6382   6237786.5359   -175415.6110         0.0000         0.0000         0.0000     2.3926     3.5860   6   7   0.0254   0.0373   0.0787  -0.0076  -0.0237   0.0259   0.00    0.0
2016/06/27 00:38:00.000   1202379.3586    252474.6389   6237786.5362   -176470.5450         0.0000         0.0000         0.0000     2.3929     3.5520   6   7   0.0252   0.0369   0.0784  -0.0075  -0.0231   0.0258   0.00    0.0
2016/06/27 00:38:30.000   1202379.3580    252474.6397   6237786.5349   -177526.7678         0.0000         0.0000         0.0000     2.3927     3.5183   6   7   0.0250   0.0364   0.0782  -0.0075  -0.0224   0.0258   0.00    0.0
2016/06/27 00:39:00.000   1202379.3568    252474.6411   6237786.5331   -178581.0435         0.0000         0.0000         0.0000     2.3927     2.5475   6   8   0.0248   0.0359   0.0779  -0.0074  -0.0218   0.0257   0.00    0.0
2016/06/27 00:39:30.000   1202379.3567    252474.6396   6237786.5334   -179635.1794         0.0000         0.0000         0.0000     2.3921     2.5421   6   8   0.0246   0.0354   0.0777  -0.0072  -0.0211   0.0257   0.00    0.0
2016/06/27 00:40:00.000   1202379.3565    252474.6397   6237786.5332   -180686.8061         0.0000         0.0000         0.0000     2.3917     2.5365   6   8   0.0245   0.0350   0.0774  -0.0071  -0.0204   0.0256   0.00    0.0
2016/06/27 00:40:30.000   1202379.3571    252474.6381   6237786.5353   -181737.5050         0.0000         0.0000         0.0000     2.3914     2.5308   6   8   0.0243   0.0345   0.0771  -0.0069  -0.0196   0.0256   0.00    0.0
2016/06/27 00:41:00.000   1202379.3567    252474.6375   6237786.5367   -182791.7108         0.0000         0.0000         0.0000     2.3906     2.5248   6   8   0.0241   0.0340   0.0767  -0.0067  -0.0188   0.0255   0.00    0.0
2016/06/27 00:41:30.000   1202379.3568    252474.6381   6237786.5375   -183840.7608         0.0000         0.0000         0.0000     2.3907     2.5187   6   8   0.0239   0.0335   0.0764  -0.0065  -0.0180   0.0255   0.00    0.0
2016/06/27 00:42:00.000   1202379.3564    252474.6376   6237786.5379   -184888.2779         0.0000         0.0000         0.0000     2.3904     2.5124   6   8   0.0238   0.0330   0.0760  -0.0062  -0.0172   0.0254   0.00    0.0
2016/06/27 00:42:30.000   1202379.3563    252474.6363   6237786.5390   -185939.0670         0.0000         0.0000         0.0000     2.3899     2.5060   6   8   0.0236   0.0325   0.0756  -0.0059  -0.0164   0.0254   0.00    0.0
2016/06/27 00:43:00.000   1202379.3562    252474.6367   6237786.5390   -186991.0226         0.0000         0.0000         0.0000     2.3901     2.4994   6   8   0.0234   0.0321   0.0752  -0.0056  -0.0155   0.0253   0.00    0.0
2016/06/27 00:43:30.000   1202379.3556    252474.6358   6237786.5415   -188039.1987         0.0000         0.0000         0.0000     2.3896     2.4927   6   8   0.0233   0.0316   0.0747  -0.0053  -0.0146   0.0253   0.00    0.0
2016/06/27 00:44:00.000   1202379.3557    252474.6367   6237786.5401   -189089.7852         0.0000         0.0000         0.0000     2.3900     2.4858   6   8   0.0231   0.0311   0.0743  -0.0049  -0.0136   0.0253   0.00    0.0
2016/06/27 00:44:30.000   1202379.3563    252474.6366   6237786.5405   -190142.1345         0.0000         0.0000         0.0000     2.3896     2.4788   6   8   0.0229   0.0307   0.0738  -0.0045  -0.0126   0.0252   0.00    0.0
2016/06/27 00:45:00.000   1202379.3560    252474.6356   6237786.5399   -191190.0262         0.0000         0.0000         0.0000     2.3898     2.4717   6   8   0.0227   0.0302   0.0733  -0.0040  -0.0116   0.0252   0.00    0.0
2016/06/27 00:45:30.000   1202379.3558    252474.6351   6237786.5412   -192242.5231         0.0000         0.0000         0.0000     2.3894     2.4645   6   8   0.0226   0.0297   0.0729  -0.0034  -0.0105   0.0251   0.00    0.0
2016/06/27 00:46:00.000   1202379.3555    252474.6351   6237786.5409   -193292.9656         0.0000         0.0000         0.0000     2.3893     2.4571   6   8   0.0224   0.0293   0.0724  -0.0027  -0.0094   0.0250   0.00    0.0
2016/06/27 00:46:30.000   1202379.3555    252474.6368   6237786.5403   -194346.3896         0.0000         0.0000         0.0000     2.3892     2.4497   6   8   0.0222   0.0288   0.0720  -0.0018  -0.0081   0.0250   0.00    0.0
2016/06/27 00:47:00.000   1202379.3557    252474.6378   6237786.5398   -195402.4132         0.0000         0.0000         0.0000     2.3893     2.4421   6   8   0.0221   0.0284   0.0715   0.0009  -0.0067   0.0249   0.00    0.0
2016/06/27 00:47:30.000   1202379.3557    252474.6384   6237786.5400   -196454.2763         0.0000         0.0000         0.0000     2.3890     2.4344   6   8   0.0219   0.0280   0.0710   0.0022  -0.0049   0.0248   0.00    0.0
2016/06/27 00:48:00.000   1202379.3555    252474.6401   6237786.5386   -197509.7408         0.0000         0.0000         0.0000     2.3891     2.4267   6   8   0.0217   0.0276   0.0704   0.0030  -0.0023   0.0247   0.00    0.0
2016/06/27 00:48:30.000   1202379.3554    252474.6403   6237786.5404   -198562.1217         0.0000         0.0000         0.0000     2.3888     2.4189   6   8   0.0215   0.0271   0.0699   0.0036   0.0036   0.0246   0.00    0.0
2016/06/27 00:49:00.000   1202379.3557    252474.6416   6237786.5417   -199613.4339         0.0000         0.0000         0.0000     2.3883     2.4110   6   8   0.0213   0.0267   0.0693   0.0041   0.0055   0.0245   0.00    0.0
2016/06/27 00:49:30.000   1202379.3551    252474.6430   6237786.5389   -200666.0359         0.0000         0.0000         0.0000     2.3894     2.4030   6   8   0.0212   0.0263   0.0687   0.0045   0.0068   0.0243   0.00    0.0
2016/06/27 00:50:00.000   1202379.3555    252474.6439   6237786.5386   -201715.4277         0.0000         0.0000         0.0000     2.3896     2.3950   6   8   0.0210   0.0259   0.0681   0.0049   0.0079   0.0242   0.00    0.0
2016/06/27 00:50:30.000   1202379.3559    252474.6434   6237786.5404   -202764.7682         0.0000         0.0000         0.0000     2.3889     2.3869   6   8   0.0208   0.0255   0.0675   0.0052   0.0088   0.0241   0.00    0.0
2016/06/27 00:51:00.000   1202379.3546    252474.6448   6237786.5365   -203820.2086         0.0000         0.0000         0.0000     2.3902     2.3787   6   8   0.0206   0.0252   0.0668   0.0055   0.0095   0.0239   0.00    0.0
2016/06/27 00:51:30.000   1202379.3541    252474.6467   6237786.5376   -204872.0942         0.0000         0.0000         0.0000     2.3896     2.3705   6   8   0.0204   0.0248   0.0662   0.0058   0.0101   0.0238   0.00    0.0
2016/06/27 00:52:00.000   1202379.3539    252474.6478   6237786.5366   -205923.3664         0.0000         0.0000         0.0000     2.3897     2.3622   6   8   0.0202   0.0244   0.0657   0.0060   0.0107   0.0237   0.00    0.0
2016/06/27 00:52:30.000   1202379.3540    252474.6482   6237786.5374   -206976.4569         0.0000         0.0000         0.0000     2.3896     2.3539   6   8   0.0201   0.0241   0.0652   0.0062   0.0111   0.0237   0.00    0.0
2016/06/27 00:53:00.000   1202379.3536    252474.6484   6237786.5384   -208029.3605         0.0000         0.0000         0.0000     2.3895     2.3456   6   8   0.0199   0.0237   0.0647   0.0064   0.0116   0.0236   0.00    0.0
2016/06/27 00:53:30.000   1202379.3530    252474.6501   6237786.5372   -209078.8307         0.0000         0.0000         0.0000     2.3897     2.3372   6   8   0.0197   0.0234   0.0642   0.0066   0.0120   0.0235   0.00    0.0
2016/06/27 00:54:00.000   1202379.3520    252474.6504   6237786.5378   -210130.5695         0.0000         0.0000         0.0000     2.3899     2.3288   6   8   0.0196   0.0230   0.0637   0.0068   0.0123   0.0235   0.00    0.0
2016/06/27 00:54:30.000   1202379.3519    252474.6509   6237786.5386   -211176.7992         0.0000         0.0000         0.0000     2.3898     2.3204   6   8   0.0194   0.0227   0.0632   0.0070   0.0127   0.0234   0.00    0.0
2016/06/27 00:55:00.000   1202379.3516    252474.6516   6237786.5389   -212225.2056         0.0000         0.0000         0.0000     2.3898     2.3119   6   8   0.0192   0.0224   0.0627   0.0071   0.0130   0.0233   0.00    0.0
2016/06/27 00:55:30.000   1202379.3509    252474.6530   6237786.5389   -213271.2530         0.0000         0.0000         0.0000     2.3898     2.3035   6   8   0.0191   0.0220   0.0622   0.0073   0.0132   0.0232   0.00    0.0
2016/06/27 00:56:00.000   1202379.3505    252474.6528   6237786.5390   -214319.6354         0.0000         0.0000         0.0000     2.3899     2.2950   6   8   0.0189   0.0217   0.0616   0.0074   0.0134   0.0231   0.00    0.0
2016/06/27 00:56:30.000   1202379.3503    252474.6533   6237786.5389   -215371.6914         0.0000         0.0000         0.0000     2.3900     1.9934   6   9   0.0187   0.0214   0.0611   0.0075   0.0137   0.0230   0.00    0.0
2016/06/27 00:57:00.000   1202379.3502    252474.6531   6237786.5383   -216422.6899         0.0000         0.0000         0.0000     2.3901     1.9952   6   9   0.0185   0.0211   0.0605   0.0076   0.0138   0.0228   0.00    0.0
2016/06/27 00:57:30.000   1202379.3501    252474.6532   6237786.5400   -217472.3430         0.0000         0.0000         0.0000     2.3899     1.9969   6   9   0.0184   0.0208   0.0599   0.0077   0.0140   0.0227   0.00    0.0
2016/06/27 00:58:00.000   1202379.3504    252474.6537   6237786.5415   -218517.0630         0.0000         0.0000         0.0000     2.3896     1.9984   6   9   0.0182   0.0206   0.0593   0.0078   0.0141   0.0225   0.00    0.0
2016/06/27 00:58:30.000   1202379.3499    252474.6539   6237786.5417   -219562.8220         0.0000         0.0000         0.0000     2.3897     1.9996   6   9   0.0180   0.0203   0.0587   0.0078   0.0142   0.0224   0.00    0.0
2016/06/27 00:59:00.000   1202379.3497    252474.6553   6237786.5403   -220609.7949         0.0000         0.0000         0.0000     2.3898     2.0007   6   9   0.0178   0.0200   0.0580   0.0079   0.0143   0.0222   0.00    0.0
2016/06/27 00:59:30.000   1202379.3496    252474.6549   6237786.5413   -221662.0934         0.0000         0.0000         0.0000     2.3897     2.1574   6   8   0.0177   0.0197   0.0575   0.0080   0.0145   0.0221   0.00    0.0
2016/06/27 01:00:00.000   1202379.3495    252474.6550   6237786.5429   -222719.0528         0.0000         0.0000         0.0000     2.3895     2.1654   6   8   0.0175   0.0195   0.0570   0.0080   0.0146   0.0221   0.00    0.0
2016/06/27 01:00:30.000   1202379.3495    252474.6552   6237786.5438   -223772.8752         0.0000         0.0000         0.0000     2.3894     2.1735   6   8   0.0174   0.0192   0.0565   0.0081   0.0147   0.0220   0.00    0.0
2016/06/27 01:01:00.000   1202379.3501    252474.6555   6237786.5434   -224832.8922         0.0000         0.0000         0.0000     2.3894     2.1816   6   8   0.0172   0.0190   0.0560   0.0081   0.0148   0.0219   0.00    0.0
2016/06/27 01:01:30.000   1202379.3499    252474.6555   6237786.5438   -225892.9053         0.0000         0.0000         0.0000     2.3893     2.1897   6   8   0.0171   0.0187   0.0555   0.0082   0.0148   0.0218   0.00    0.0
2016/06/27 01:02:00.000   1202379.3494    252474.6550   6237786.5420   -226953.2359         0.0000         0.0000         0.0000     2.3897     2.1979   6   8   0.0170   0.0185   0.0550   0.0082   0.0149   0.0217   0.00    0.0
2016/06/27 01:02:30.000   1202379.3495    252474.6562   6237786.5443   -228015.9810         0.0000         0.0000         0.0000     2.3893     2.2061   6   8   0.0168   0.0182   0.0544   0.0083   0.0150   0.0216   0.00    0.0
2016/06/27 01:03:00.000   1202379.3494    252474.6566   6237786.5450   -229076.2432         0.0000         0.0000         0.0000     2.3892     2.2144   6   8   0.0167   0.0180   0.0539   0.0083   0.0150   0.0214   0.00    0.0
2016/06/27 01:03:30.000   1202379.3491    252474.6573   6237786.5440   -230137.8764         0.0000         0.0000         0.0000     2.3894     2.2226   6   8   0.0165   0.0178   0.0534   0.0083   0.0150   0.0213   0.00    0.0
2016/06/27 01:04:00.000   1202379.3492    252474.6570   6237786.5445   -231201.4532         0.0000         0.0000         0.0000     2.3893     2.2309   6   8   0.0164   0.0176   0.0529   0.0083   0.0151   0.0212   0.00    0.0
2016/06/27 01:04:30.000   1202379.3492    252474.6573   6237786.5458   -232266.4316         0.0000         0.0000         0.0000     2.3890     2.2393   6   8   0.0162   0.0173   0.0524   0.0084   0.0151   0.0211   0.00    0.0
2016/06/27 01:05:00.000   1202379.3493    252474.6574   6237786.5458   -233333.6993         0.0000         0.0000         0.0000     2.3890     2.2476   6   8   0.0161   0.0171   0.0518   0.0084   0.0151   0.0209   0.00    0.0
2016/06/27 01:05:30.000   1202379.3493    252474.6576   6237786.5468   -234401.4114         0.0000         0.0000         0.0000     2.3890     2.2559   6   8   0.0159   0.0169   0.0513   0.0084   0.0151   0.0208   0.00    0.0
2016/06/27 01:06:00.000   1202379.3498    252474.6582   6237786.5470   -235471.5797         0.0000         0.0000         0.0000     2.3886     1.8913   6   9   0.0158   0.0167   0.0508   0.0084   0.0151   0.0207   0.00    0.0
2016/06/27 01:06:30.000   1202379.3489    252474.6581   6237786.5462   -236544.0386         0.0000         0.0000         0.0000     2.3892     1.9032   6   9   0.0156   0.0165   0.0503   0.0084   0.0151   0.0205   0.00    0.0
2016/06/27 01:07:00.000   1202379.3487    252474.6582   6237786.5461   -237615.9320         0.0000         0.0000         0.0000     2.3892     1.9153   6   9   0.0155   0.0163   0.0497   0.0084   0.0150   0.0204   0.00    0.0
2016/06/27 01:07:30.000   1202379.3500    252474.6597   6237786.5480   -238685.8419         0.0000         0.0000         0.0000     2.3884     1.9276   6   9   0.0153   0.0161   0.0492   0.0084   0.0150   0.0202   0.00    0.0
2016/06/27 01:08:00.000   1202379.3497    252474.6607   6237786.5485   -239758.5649         0.0000         0.0000         0.0000     2.3883     1.9399   6   9   0.0152   0.0159   0.0487   0.0083   0.0150   0.0201   0.00    0.0
2016/06/27 01:08:30.000   1202379.3491    252474.6605   6237786.5477   -240826.6065         0.0000         0.0000         0.0000     2.3886     1.9524   6   9   0.0151   0.0158   0.0482   0.0083   0.0150   0.0200   0.00    0.0
2016/06/27 01:09:00.000   1202379.3480    252474.6602   6237786.5445   -241896.6385         0.0000         0.0000         0.0000     2.3893     1.9651   6   9   0.0149   0.0156   0.0477   0.0083   0.0149   0.0198   0.00    0.0
2016/06/27 01:09:30.000   1202379.3473    252474.6599   6237786.5428   -242968.5682         0.0000         0.0000         0.0000     2.3899     1.9778   6   9   0.0148   0.0154   0.0472   0.0083   0.0149   0.0197   0.00    0.0
2016/06/27 01:10:00.000   1202379.3470    252474.6606   6237786.5437   -244042.8290         0.0000         0.0000         0.0000     2.3898     1.9907   6   9   0.0146   0.0152   0.0467   0.0083   0.0148   0.0195   0.00    0.0
2016/06/27 01:10:30.000   1202379.3459    252474.6606   6237786.5412   -245122.3754         0.0000         0.0000         0.0000     2.3904     2.0037   6   9   0.0145   0.0150   0.0462   0.0082   0.0148   0.0193   0.00    0.0
2016/06/27 01:11:00.000   1202379.3455    252474.6611   6237786.5411   -246202.1603         0.0000         0.0000         0.0000     2.3904     2.0168   6   9   0.0144   0.0149   0.0457   0.0082   0.0147   0.0192   0.00    0.0
2016/06/27 01:11:30.000   1202379.3450    252474.6613   6237786.5409   -247284.4107         0.0000         0.0000         0.0000     2.3905     2.0301   6   9   0.0143   0.0147   0.0452   0.0082   0.0147   0.0191   0.00    0.0
2016/06/27 01:12:00.000   1202379.3449    252474.6608   6237786.5420   -248368.9357         0.0000         0.0000         0.0000     2.3904     2.0434   6   9   0.0141   0.0146   0.0447   0.0082   0.0146   0.0189   0.00    0.0
2016/06/27 01:12:30.000   1202379.3448    252474.6605   6237786.5427   -249453.5180         0.0000         0.0000         0.0000     2.3903     2.0568   6   9   0.0140   0.0144   0.0443   0.0082   0.0146   0.0188   0.00    0.0
2016/06/27 01:13:00.000   1202379.3450    252474.6604   6237786.5421   -250537.9644         0.0000         0.0000         0.0000     2.3903     2.0704   6   9   0.0139   0.0142   0.0438   0.0082   0.0146   0.0187   0.00    0.0
2016/06/27 01:13:30.000   1202379.3446    252474.6601   6237786.5418   -251618.2871         0.0000         0.0000         0.0000     2.3904     2.0840   6   9   0.0138   0.0141   0.0434   0.0081   0.0145   0.0185   0.00    0.0
2016/06/27 01:14:00.000   1202379.3444    252474.6596   6237786.5405   -252702.5202         0.0000         0.0000         0.0000     2.3906     2.0977   6   9   0.0137   0.0140   0.0429   0.0081   0.0145   0.0184   0.00    0.0
2016/06/27 01:14:30.000   1202379.3447    252474.6597   6237786.5414   -253789.5597         0.0000         0.0000         0.0000     2.3903     2.1115   6   9   0.0135   0.0138   0.0425   0.0081   0.0144   0.0183   0.00    0.0
2016/06/27 01:15:00.000   1202379.3443    252474.6595   6237786.5401   -254876.7317         0.0000         0.0000         0.0000     2.3906     2.1253   6   9   0.0134   0.0137   0.0421   0.0081   0.0144   0.0182   0.00    0.0
2016/06/27 01:15:30.000   1202379.3444    252474.6596   6237786.5394   -255969.8976         0.0000         0.0000         0.0000     2.3907     2.1392   6   9   0.0133   0.0135   0.0417   0.0081   0.0143   0.0180   0.00    0.0
2016/06/27 01:16:00.000   1202379.3443    252474.6594   6237786.5396   -257063.8975         0.0000         0.0000         0.0000     2.3908     2.1532   6   9   0.0132   0.0134   0.0413   0.0080   0.0143   0.0179   0.00    0.0
2016/06/27 01:16:30.000   1202379.3440    252474.6593   6237786.5392   -258158.2480         0.0000         0.0000         0.0000     2.3909     2.1671   6   9   0.0131   0.0133   0.0409   0.0080   0.0142   0.0178   0.00    0.0
2016/06/27 01:17:00.000   1202379.3440    252474.6590   6237786.5411   -259251.2160         0.0000         0.0000         0.0000     2.3907     2.1812   6   9   0.0130   0.0131   0.0405   0.0080   0.0142   0.0177   0.00    0.0
2016/06/27 01:17:30.000   1202379.3435    252474.6584   6237786.5397   -260342.7881         0.0000         0.0000         0.0000     2.3910     2.1952   6   9   0.0129   0.0130   0.0401   0.0079   0.0141   0.0176   0.00    0.0
2016/06/27 01:18:00.000   1202379.3441    252474.6585   6237786.5409   -261434.1712         0.0000         0.0000         0.0000     2.3904     2.2092   6   9   0.0128   0.0129   0.0397   0.0079   0.0140   0.0174   0.00    0.0
2016/06/27 01:18:30.000   1202379.3440    252474.6579   6237786.5410   -262526.9050         0.0000         0.0000         0.0000     2.3904     2.2233   6   8   0.0127   0.0127   0.0394   0.0079   0.0140   0.0173   0.00    0.0
2016/06/27 01:19:00.000   1202379.3438    252474.6573   6237786.5396   -263621.0801         0.0000         0.0000         0.0000     2.3910     2.2373   6   9   0.0126   0.0126   0.0390   0.0079   0.0139   0.0172   0.00    0.0
2016/06/27 01:19:30.000   1202379.3435    252474.6572   6237786.5379   -264714.4928         0.0000         0.0000         0.0000     2.3914     2.2513   6   9   0.0125   0.0125   0.0386   0.0078   0.0139   0.0171   0.00    0.0
2016/06/27 01:20:00.000   1202379.3437    252474.6568   6237786.5375   -265808.5703         0.0000         0.0000         0.0000     2.3914     2.2652   6   9   0.0124   0.0124   0.0383   0.0078   0.0138   0.0170   0.00    0.0
2016/06/27 01:20:30.000   1202379.3429    252474.6563   6237786.5357   -266903.5042         0.0000         0.0000         0.0000     2.3920     2.2791   6   9   0.0123   0.0123   0.0379   0.0078   0.0137   0.0168   0.00    0.0
2016/06/27 01:21:00.000   1202379.3426    252474.6561   6237786.5348   -267999.2923         0.0000         0.0000         0.0000     2.3923     2.2929   6   9   0.0122   0.0121   0.0375   0.0077   0.0137   0.0167   0.00    0.0
2016/06/27 01:21:30.000   1202379.3428    252474.6556   6237786.5349   -269095.9571         0.0000         0.0000         0.0000     2.3924     2.3066   6   9   0.0121   0.0120   0.0372   0.0077   0.0136   0.0166   0.00    0.0
2016/06/27 01:22:00.000   1202379.3426    252474.6556   6237786.5350   -270193.4973         0.0000         0.0000         0.0000     2.3925     2.3202   6   9   0.0120   0.0119   0.0368   0.0076   0.0135   0.0165   0.00    0.0
2016/06/27 01:22:30.000   1202379.3424    252474.6553   6237786.5340   -271289.7273         0.0000         0.0000         0.0000     2.3927     2.3336   6   9   0.0119   0.0118   0.0365   0.0076   0.0134   0.0164   0.00    0.0
2016/06/27 01:23:00.000   1202379.3427    252474.6548   6237786.5347   -272388.8065         0.0000         0.0000         0.0000     2.3926     2.3469   6   9   0.0118   0.0117   0.0361   0.0076   0.0133   0.0162   0.00    0.0
2016/06/27 01:23:30.000   1202379.3421    252474.6540   6237786.5325   -273487.7152         0.0000         0.0000         0.0000     2.3935     2.3601   6   9   0.0118   0.0116   0.0358   0.0075   0.0132   0.0160   0.00    0.0
2016/06/27 01:24:00.000   1202379.3420    252474.6537   6237786.5322   -274585.2575         0.0000         0.0000         0.0000     2.3936     2.3730   6   9   0.0117   0.0115   0.0354   0.0075   0.0132   0.0159   0.00    0.0
2016/06/27 01:24:30.000   1202379.3415    252474.6528   6237786.5305   -275677.1582         0.0000         0.0000         0.0000     2.3944     2.3858   6   9   0.0117   0.0114   0.0351   0.0075   0.0131   0.0157   0.00    0.0
2016/06/27 01:25:00.000   1202379.3413    252474.6523   6237786.5296   -276775.8363         0.0000         0.0000         0.0000     2.3949     2.3983   6   9   0.0116   0.0113   0.0348   0.0074   0.0130   0.0156   0.00    0.0
2016/06/27 01:25:30.000   1202379.3414    252474.6524   6237786.5296   -277877.6714         0.0000         0.0000         0.0000     2.3950     2.4106   6   9   0.0115   0.0111   0.0344   0.0074   0.0129   0.0154   0.00    0.0
2016/06/27 01:26:00.000   1202379.3414    252474.6524   6237786.5291   -278972.6934         0.0000         0.0000         0.0000     2.3952     2.4226   6   9   0.0115   0.0110   0.0341   0.0074   0.0128   0.0153   0.00    0.0
2016/06/27 01:26:30.000   1202379.3409    252474.6517   6237786.5269   -280066.9235         0.0000         0.0000         0.0000     2.3959     2.4344   6   9   0.0114   0.0109   0.0338   0.0073   0.0126   0.0151   0.00    0.0
2016/06/27 01:27:00.000   1202379.3407    252474.6514   6237786.5261   -281163.3912         0.0000         0.0000         0.0000     2.3962     2.4458   6   9   0.0114   0.0108   0.0334   0.0073   0.0125   0.0150   0.00    0.0
2016/06/27 01:27:30.000   1202379.3413    252474.6514   6237786.5283   -282260.9641         0.0000         0.0000         0.0000     2.3954     2.4569   6   9   0.0113   0.0107   0.0331   0.0073   0.0124   0.0148   0.00    0.0
2016/06/27 01:28:00.000   1202379.3417    252474.6512   6237786.5290   -283358.7596         0.0000         0.0000         0.0000     2.3951     2.4676   6   9   0.0112   0.0106   0.0328   0.0072   0.0123   0.0147   0.00    0.0
2016/06/27 01:28:30.000   1202379.3415    252474.6510   6237786.5285   -284456.8972         0.0000         0.0000         0.0000     2.3956     2.4780   6   9   0.0112   0.0105   0.0324   0.0072   0.0122   0.0145   0.00    0.0
2016/06/27 01:29:00.000   1202379.3413    252474.6504   6237786.5271   -285559.8816         0.0000         0.0000         0.0000     2.3963     2.4880   6   9   0.0111   0.0105   0.0321   0.0072   0.0121   0.0144   0.00    0.0
2016/06/27 01:29:30.000   1202379.3415    252474.6503   6237786.5270   -286661.3786         0.0000         0.0000         0.0000     2.3962     2.4976   6   9   0.0111   0.0104   0.0318   0.0071   0.0119   0.0142   0.00    0.0
2016/06/27 01:30:00.000   1202379.3410    252474.6502   6237786.5251   -287760.3069         0.0000         0.0000         0.0000     2.3969     2.5067   6   9   0.0110   0.0103   0.0315   0.0071   0.0118   0.0141   0.00    0.0
2016/06/27 01:30:30.000   1202379.3410    252474.6503   6237786.5246   -288856.7315         0.0000         0.0000         0.0000     2.3970     3.0895   6   8   0.0110   0.0102   0.0313   0.0071   0.0117   0.0140   0.00    0.0
2016/06/27 01:31:00.000   1202379.3408    252474.6502   6237786.5243   -289958.7222         0.0000         0.0000         0.0000     2.3970     3.1276   6   8   0.0110   0.0102   0.0311   0.0071   0.0117   0.0139   0.00    0.0
2016/06/27 01:31:30.000   1202379.3406    252474.6503   6237786.5235   -291063.7442         0.0000         0.0000         0.0000     2.3971     3.1663   6   8   0.0109   0.0101   0.0309   0.0071   0.0116   0.0138   0.00    0.0
2016/06/27 01:32:00.000   1202379.3406    252474.6504   6237786.5230   -292169.4579         0.0000         0.0000         0.0000     2.3971     3.2057   6   8   0.0109   0.0101   0.0307   0.0071   0.0115   0.0137   0.00    0.0
2016/06/27 01:32:30.000   1202379.3406    252474.6504   6237786.5227   -293277.7308         0.0000         0.0000         0.0000     2.3972     3.2458   6   8   0.0109   0.0100   0.0306   0.0071   0.0116   0.0137   0.00    0.0
2016/06/27 01:33:00.000   1202379.3407    252474.6505   6237786.5226   -294385.7639         0.0000         0.0000         0.0000     2.3973     3.2864   6   8   0.0109   0.0100   0.0305   0.0071   0.0116   0.0136   0.00    0.0
2016/06/27 01:33:30.000   1202379.3407    252474.6505   6237786.5228   -295494.2215         0.0000         0.0000         0.0000     2.3973     3.3277   6   8   0.0108   0.0100   0.0304   0.0071   0.0116   0.0136   0.00    0.0
2016/06/27 01:34:00.000   1202379.3406    252474.6505   6237786.5222   -296598.9643         0.0000         0.0000         0.0000     2.3974     3.3695   6   8   0.0108   0.0100   0.0302   0.0072   0.0116   0.0135   0.00    0.0
2016/06/27 01:34:30.000   1202379.3404    252474.6503   6237786.5218   -297703.5081         0.0000         0.0000         0.0000     2.3974     3.4118   6   8   0.0108   0.0100   0.0301   0.0072   0.0116   0.0135   0.00    0.0
2016/06/27 01:35:00.000   1202379.3403    252474.6502   6237786.5215   -298810.4343         0.0000         0.0000         0.0000     2.3974     3.4546   6   8   0.0108   0.0099   0.0300   0.0072   0.0116   0.0134   0.00    0.0
2016/06/27 01:35:30.000   1202379.3404    252474.6502   6237786.5218   -299915.5613         0.0000         0.0000         0.0000     2.3974     3.4979   6   8   0.0107   0.0099   0.0299   0.0072   0.0117   0.0134   0.00    0.0
2016/06/27 01:36:00.000   1202379.3392    252474.6504   6237786.5201   -301018.3660         0.0000         0.0000         0.0000     2.3976     3.5415   6   8   0.0107   0.0099   0.0298   0.0072   0.0117   0.0133   0.00    0.0
2016/06/27 01:36:30.000   1202379.3388    252474.6506   6237786.5183   -302128.1512         0.0000         0.0000         0.0000     2.3978     3.5854   6   8   0.0107   0.0099   0.0297   0.0072   0.0117   0.0133   0.00    0.0
2016/06/27 01:37:00.000   1202379.3380    252474.6506   6237786.5168   -303238.9708         0.0000         0.0000         0.0000     2.3979     3.6295   6   8   0.0107   0.0098   0.0296   0.0073   0.0117   0.0132   0.00    0.0
2016/06/27 01:37:30.000   1202379.3382    252474.6509   6237786.5167   -304348.0659         0.0000         0.0000         0.0000     2.3980     3.6738   6   8   0.0107   0.0098   0.0295   0.0073   0.0117   0.0132   0.00    0.0
2016/06/27 01:38:00.000   1202379.3381    252474.6512   6237786.5166   -305463.0026         0.0000         0.0000         0.0000     2.3980     3.7182   6   8   0.0106   0.0098   0.0294   0.0073   0.0117   0.0132   0.00    0.0
2016/06/27 01:38:30.000   1202379.3382    252474.6512   6237786.5168   -306577.9172         0.0000         0.0000         0.0000     2.3980     3.7625   6   8   0.0106   0.0098   0.0293   0.0073   0.0117   0.0131   0.00    0.0
2016/06/27 01:39:00.000   1202379.3381    252474.6510   6237786.5170   -307690.8324         0.0000         0.0000         0.0000     2.3980     3.8067   6   8   0.0106   0.0098   0.0292   0.0073   0.0118   0.0131   0.00    0.0
2016/06/27 01:39:30.000   1202379.3381    252474.6508   6237786.5172   -308801.8106         0.0000         0.0000         0.0000     2.3979     3.8507   6   8   0.0106   0.0097   0.0291   0.0073   0.0118   0.0130   0.00    0.0
2016/06/27 01:40:00.000   1202379.3382    252474.6507   6237786.5171   -309911.3021         0.0000         0.0000         0.0000     2.3978     3.8943   6   8   0.0105   0.0097   0.0290   0.0073   0.0118   0.0130   0.00    0.0
2016/06/27 01:40:30.000   1202379.3381    252474.6506   6237786.5172   -311026.6986         0.0000         0.0000         0.0000     2.3979     3.9373   6   8   0.0105   0.0097   0.0289   0.0073   0.0118   0.0130   0.00    0.0
2016/06/27 01:41:00.000   1202379.3380    252474.6506   6237786.5171   -312138.6499         0.0000         0.0000         0.0000     2.3979     3.9798   6   8   0.0105   0.0097   0.0288   0.0073   0.0118   0.0129   0.00    0.0
2016/06/27 01:41:30.000   1202379.3380    252474.6507   6237786.5176   -313249.7958         0.0000         0.0000         0.0000     2.3979     4.0214   6   8   0.0105   0.0097   0.0287   0.0073   0.0118   0.0129   0.00    0.0
2016/06/27 01:42:00.000   1202379.3379    252474.6509   6237786.5176   -314359.8716         0.0000         0.0000         0.0000     2.3979     4.0621   6   8   0.0105   0.0096   0.0286   0.0073   0.0118   0.0129   0.00    0.0
2016/06/27 01:42:30.000   1202379.3380    252474.6508   6237786.5179   -315468.5728         0.0000         0.0000         0.0000     2.3980     4.1017   6   8   0.0104   0.0096   0.0286   0.0073   0.0118   0.0128   0.00    0.0
2016/06/27 01:43:00.000   1202379.3379    252474.6507   6237786.5177   -316575.9855         0.0000         0.0000         0.0000     2.3980     4.1400   6   8   0.0104   0.0096   0.0285   0.0073   0.0118   0.0128   0.00    0.0
2016/06/27 01:43:30.000   1202379.3379    252474.6508   6237786.5181   -317683.7878         0.0000         0.0000         0.0000     2.3981     4.1768   6   8   0.0104   0.0096   0.0284   0.0073   0.0118   0.0128   0.00    0.0
2016/06/27 01:44:00.000   1202379.3378    252474.6507   6237786.5173   -318791.6758         0.0000         0.0000         0.0000     2.3981     4.2120   6   8   0.0104   0.0095   0.0283   0.0074   0.0118   0.0127   0.00    0.0
2016/06/27 01:44:30.000   1202379.3377    252474.6506   6237786.5163   -319898.2203         0.0000         0.0000         0.0000     2.3981     4.2454   6   8   0.0103   0.0095   0.0282   0.0074   0.0118   0.0127   0.00    0.0
2016/06/27 01:45:00.000   1202379.3378    252474.6509   6237786.5164   -321003.5276         0.0000         0.0000         0.0000     2.3982     4.2768   6   8   0.0103   0.0095   0.0281   0.0074   0.0118   0.0127   0.00    0.0
2016/06/27 01:45:30.000   1202379.3377    252474.6510   6237786.5160   -322109.5473         0.0000         0.0000         0.0000     2.3981     4.3060   6   8   0.0103   0.0095   0.0280   0.0074   0.0118   0.0126   0.00    0.0
2016/06/27 01:46:00.000   1202379.3379    252474.6509   6237786.5164   -323215.1695         0.0000         0.0000         0.0000     2.3982     4.3328   6   8   0.0103   0.0094   0.0280   0.0073   0.0118   0.0126   0.00    0.0
2016/06/27 01:46:30.000   1202379.3379    252474.6510   6237786.5162   -324319.9081         0.0000         0.0000         0.0000     2.3982     4.3572   6   8   0.0103   0.0094   0.0279   0.0073   0.0118   0.0126   0.00    0.0
2016/06/27 01:47:00.000   1202379.3380    252474.6511   6237786.5156   -325418.8720         0.0000         0.0000         0.0000     2.3982     4.3789   6   8   0.0102   0.0094   0.0278   0.0073   0.0118   0.0126   0.00    0.0
2016/06/27 01:47:30.000   1202379.3378    252474.6511   6237786.5151   -326522.4330         0.0000         0.0000         0.0000     2.3982     4.3978   6   8   0.0102   0.0094   0.0277   0.0073   0.0118   0.0125   0.00    0.0
2016/06/27 01:48:00.000   1202379.3377    252474.6510   6237786.5148   -327626.2939         0.0000         0.0000         0.0000     2.3981     4.4137   6   8   0.0102   0.0093   0.0277   0.0073   0.0118   0.0125   0.00    0.0
2016/06/27 01:48:30.000   1202379.3376    252474.6509   6237786.5145   -328728.9279         0.0000         0.0000         0.0000     2.3981     4.4266   6   8   0.0101   0.0093   0.0276   0.0073   0.0118   0.0125   0.00    0.0
2016/06/27 01:49:00.000   1202379.3375    252474.6510   6237786.5144   -329833.0881         0.0000         0.0000         0.0000     2.3981     4.4364   6   8   0.0101   0.0093   0.0275   0.0073   0.0118   0.0125   0.00    0.0
2016/06/27 01:49:30.000   1202379.3376    252474.6511   6237786.5139   -330936.7427         0.0000         0.0000         0.0000     2.3980     4.4430   6   8   0.0101   0.0092   0.0275   0.0073   0.0118   0.0124   0.00    0.0
2016/06/27 01:50:00.000   1202379.3376    252474.6510   6237786.5140   -332039.2474         0.0000         0.0000         0.0000     2.3980     4.4463   6   8   0.0101   0.0092   0.0274   0.0073   0.0118   0.0124   0.00    0.0
2016/06/27 01:50:30.000   1202379.3374    252474.6510   6237786.5134   -333144.0966         0.0000         0.0000         0.0000     2.3979     4.4464   6   8   0.0100   0.0092   0.0273   0.0073   0.0118   0.0124   0.00    0.0
2016/06/27 01:51:00.000   1202379.3375    252474.6509   6237786.5131   -334249.7159         0.0000         0.0000         0.0000     2.3979     4.4432   6   8   0.0100   0.0091   0.0273   0.0073   0.0118   0.0123   0.00    0.0
2016/06/27 01:51:30.000   1202379.3374    252474.6510   6237786.5126   -335352.2570         0.0000         0.0000         0.0000     2.3978     4.4367   6   8   0.0100   0.0091   0.0272   0.0073   0.0118   0.0123   0.00    0.0
2016/06/27 01:52:00.000   1202379.3373    252474.6509   6237786.5122   -336456.6426         0.0000         0.0000         0.0000     2.3977     4.4270   6   8   0.0100   0.0091   0.0271   0.0072   0.0118   0.0123   0.00    0.0
2016/06/27 01:52:30.000   1202379.3373    252474.6509   6237786.5122   -337562.0003         0.0000         0.0000         0.0000     2.3977     4.4142   6   8   0.0099   0.0091   0.0271   0.0072   0.0118   0.0123   0.00    0.0
2016/06/27 01:53:00.000   1202379.3372    252474.6508   6237786.5123   -338664.1552         0.0000         0.0000         0.0000     2.3977     4.3983   6   8   0.0099   0.0090   0.0270   0.0072   0.0117   0.0122   0.00    0.0
2016/06/27 01:53:30.000   1202379.3369    252474.6507   6237786.5119   -339770.1027         0.0000         0.0000         0.0000     2.3976     4.3795   6   8   0.0099   0.0090   0.0270   0.0072   0.0117   0.0122   0.00    0.0
2016/06/27 01:54:00.000   1202379.3370    252474.6507   6237786.5122   -340874.4501         0.0000         0.0000         0.0000     2.3978     4.3578   6   8   0.0098   0.0089   0.0269   0.0072   0.0117   0.0122   0.00    0.0
2016/06/27 01:54:30.000   1202379.3368    252474.6507   6237786.5117   -341983.5114         0.0000         0.0000         0.0000     2.3976     4.3334   6   8   0.0098   0.0089   0.0268   0.0072   0.0117   0.0122   0.00    0.0
2016/06/27 01:55:00.000   1202379.3367    252474.6505   6237786.5117   -343094.0783         0.0000         0.0000         0.0000     2.3976     4.3065   6   8   0.0098   0.0089   0.0268   0.0071   0.0117   0.0121   0.00    0.0
2016/06/27 01:55:30.000   1202379.3366    252474.6505   6237786.5111   -344202.9397         0.0000         0.0000         0.0000     2.3973     4.2772   6   8   0.0097   0.0088   0.0267   0.0071   0.0117   0.0121   0.00    0.0
2016/06/27 01:56:00.000   1202379.3368    252474.6505   6237786.5106   -345309.1302         0.0000         0.0000         0.0000     2.3971     4.2457   6   8   0.0097   0.0088   0.0267   0.0071   0.0117   0.0121   0.00    0.0
2016/06/27 01:56:30.000   1202379.3370    252474.6506   6237786.5107   -346416.7758         0.0000         0.0000         0.0000     2.3970     4.2122   6   8   0.0097   0.0088   0.0266   0.0071   0.0116   0.0120   0.00    0.0
2016/06/27 01:57:00.000   1202379.3366    252474.6507   6237786.5105   -347530.3985         0.0000         0.0000         0.0000     2.3972     4.1768   6   8   0.0096   0.0087   0.0266   0.0070   0.0116   0.0120   0.00    0.0
2016/06/27 01:57:30.000   1202379.3365    252474.6509   6237786.5102   -348645.8633         0.0000         0.0000         0.0000     2.3970     4.1398   6   8   0.0096   0.0087   0.0265   0.0070   0.0116   0.0120   0.00    0.0
2016/06/27 01:58:00.000   1202379.3364    252474.6507   6237786.5097   -349756.7398         0.0000         0.0000         0.0000     2.3969     4.1012   6   8   0.0096   0.0087   0.0265   0.0070   0.0116   0.0120   0.00    0.0
2016/06/27 01:58:30.000   1202379.3364    252474.6506   6237786.5094   -350870.5618         0.0000         0.0000         0.0000     2.3969     4.0613   6   8   0.0095   0.0086   0.0264   0.0070   0.0116   0.0119   0.00    0.0
2016/06/27 01:59:00.000   1202379.3364    252474.6506   6237786.5091   -351980.6636         0.0000         0.0000         0.0000     2.3968     2.7646   6   9   0.0095   0.0086   0.0264   0.0069   0.0115   0.0119   0.00    0.0
2016/06/27 01:59:30.000   1202379.3367    252474.6508   6237786.5091   -353091.5460         0.0000         0.0000         0.0000     2.3966     2.7659   6   9   0.0094   0.0085   0.0263   0.0069   0.0115   0.0119   0.00    0.0
2016/06/27 02:00:00.000   1202379.3368    252474.6509   6237786.5089   -354202.4778         0.0000         0.0000         0.0000     2.3964     2.7665   6   9   0.0094   0.0085   0.0263   0.0069   0.0115   0.0118   0.00    0.0
2016/06/27 02:00:30.000   1202379.3368    252474.6508   6237786.5086   -355312.1605         0.0000         0.0000         0.0000     2.3962     2.7663   6   9   0.0094   0.0084   0.0262   0.0068   0.0115   0.0118   0.00    0.0
2016/06/27 02:01:00.000   1202379.3368    252474.6509   6237786.5087   -356415.4854         0.0000         0.0000         0.0000     2.3962     2.7653   6   9   0.0093   0.0084   0.0262   0.0068   0.0114   0.0117   0.00    0.0
2016/06/27 02:01:30.000   1202379.3371    252474.6512   6237786.5085   -357519.5093         0.0000         0.0000         0.0000     2.3959     2.7636   6   9   0.0093   0.0084   0.0261   0.0068   0.0114   0.0117   0.00    0.0
2016/06/27 02:02:00.000   1202379.3374    252474.6512   6237786.5091   -358622.6883         0.0000         0.0000         0.0000     2.3959     2.7611   6   9   0.0092   0.0083   0.0260   0.0067   0.0114   0.0117   0.00    0.0
2016/06/27 02:02:30.000   1202379.3379    252474.6513   6237786.5089   -359727.2123         0.0000         0.0000         0.0000     2.3960     2.7578   6   9   0.0092   0.0083   0.0260   0.0067   0.0113   0.0116   0.00    0.0
2016/06/27 02:03:00.000   1202379.3378    252474.6512   6237786.5078   -360832.8777         0.0000         0.0000         0.0000     2.3964     2.7538   6   9   0.0091   0.0082   0.0259   0.0067   0.0113   0.0116   0.00    0.0
2016/06/27 02:03:30.000   1202379.3380    252474.6517   6237786.5080   -361934.5088         0.0000         0.0000         0.0000     2.3964     2.7490   6   9   0.0091   0.0082   0.0258   0.0066   0.0112   0.0115   0.00    0.0
2016/06/27 02:04:00.000   1202379.3381    252474.6519   6237786.5075   -363037.5628         0.0000         0.0000         0.0000     2.3966     2.7434   6   9   0.0091   0.0081   0.0258   0.0066   0.0112   0.0115   0.00    0.0
2016/06/27 02:04:30.000   1202379.3379    252474.6517   6237786.5072   -364141.0064         0.0000         0.0000         0.0000     2.3969     2.7372   6   9   0.0090   0.0081   0.0257   0.0065   0.0112   0.0114   0.00    0.0
2016/06/27 02:05:00.000   1202379.3379    252474.6518   6237786.5068   -365245.0688         0.0000         0.0000         0.0000     2.3969     2.7303   6   9   0.0090   0.0080   0.0257   0.0065   0.0111   0.0114   0.00    0.0
2016/06/27 02:05:30.000   1202379.3377    252474.6520   6237786.5065   -366351.7947         0.0000         0.0000         0.0000     2.3969     2.7226   6   9   0.0089   0.0080   0.0256   0.0065   0.0111   0.0114   0.00    0.0
2016/06/27 02:06:00.000   1202379.3376    252474.6519   6237786.5060   -367456.3009         0.0000         0.0000         0.0000     2.3970     2.7143   6   9   0.0089   0.0079   0.0255   0.0064   0.0110   0.0113   0.00    0.0
2016/06/27 02:06:30.000   1202379.3375    252474.6519   6237786.5058   -368559.2562         0.0000         0.0000         0.0000     2.3970     2.7054   6   9   0.0088   0.0079   0.0255   0.0064   0.0110   0.0113   0.00    0.0
2016/06/27 02:07:00.000   1202379.3372    252474.6519   6237786.5052   -369662.3052         0.0000         0.0000         0.0000     2.3969     2.6958   6   9   0.0088   0.0078   0.0254   0.0063   0.0109   0.0112   0.00    0.0
2016/06/27 02:07:30.000   1202379.3370    252474.6516   6237786.5049   -370768.4628         0.0000         0.0000         0.0000     2.3973     2.6857   6   9   0.0087   0.0078   0.0253   0.0063   0.0109   0.0112   0.00    0.0
2016/06/27 02:08:00.000   1202379.3367    252474.6516   6237786.5040   -371870.8337         0.0000         0.0000         0.0000     2.3977     2.6749   6   9   0.0087   0.0077   0.0253   0.0062   0.0108   0.0111   0.00    0.0
2016/06/27 02:08:30.000   1202379.3364    252474.6514   6237786.5033   -372973.0712         0.0000         0.0000         0.0000     2.3979     2.6636   6   9   0.0086   0.0077   0.0252   0.0062   0.0108   0.0110   0.00    0.0
2016/06/27 02:09:00.000   1202379.3363    252474.6514   6237786.5030   -374073.0807         0.0000         0.0000         0.0000     2.3979     2.6518   6   9   0.0086   0.0076   0.0251   0.0061   0.0107   0.0110   0.00    0.0
2016/06/27 02:09:30.000   1202379.3360    252474.6511   6237786.5022   -375171.4863         0.0000         0.0000         0.0000     2.3982     2.6395   6   9   0.0085   0.0076   0.0251   0.0061   0.0107   0.0109   0.00    0.0
2016/06/27 02:10:00.000   1202379.3356    252474.6507   6237786.5013   -376268.4821         0.0000         0.0000         0.0000     2.3984     2.6267   6   9   0.0085   0.0075   0.0250   0.0060   0.0106   0.0109   0.00    0.0
2016/06/27 02:10:30.000   1202379.3354    252474.6506   6237786.5010   -377369.8474         0.0000         0.0000         0.0000     2.3985     2.6135   6   9   0.0084   0.0075   0.0249   0.0060   0.0106   0.0108   0.00    0.0
2016/06/27 02:11:00.000   1202379.3350    252474.6501   6237786.5001   -378469.5030         0.0000         0.0000         0.0000     2.3986     2.5998   6   9   0.0084   0.0075   0.0248   0.0060   0.0105   0.0107   0.00    0.0
