%  GPST                      x-ecef(m)      y-ecef(m)      z-ecef(m)   Q  ns   sdx(m)   sdy(m)   sdz(m)  sdxy(m)  sdyz(m)  sdzx(m) age(s)  ratio
2016/06/27 00:00:00.000  -4387891.3314    733421.0789  -4555176.5786    492813.8073         0.0000         0.0000         0.0000     2.3776     1.6975   6  10   2.3008   1.0787   2.1253  -0.8993  -0.7359   1.6583   0.00    0.0
2016/06/27 00:00:30.000  -4387891.7169    733420.6676  -4555177.8180    487912.4397         0.0000         0.0000         0.0000     2.3743     1.6995   6  10   1.5647   0.7489   1.3873  -0.5975  -0.4746   1.0809   0.00    0.0
2016/06/27 00:01:00.000  -4387891.1453    733420.6355  -4555176.8280    483005.2100         0.0000         0.0000         0.0000     2.3667     1.7013   6  10   1.2141   0.5957   1.0227  -0.4492  -0.3453   0.7971   0.00    0.0
2016/06/27 00:01:30.000  -4387890.6333    733420.6444  -4555176.7358    478095.4487         0.0000         0.0000         0.0000     2.3735     1.7031   6  10   0.9979   0.5005   0.8003  -0.3570  -0.2695   0.6279   0.00    0.0
2016/06/27 00:02:00.000  -4387890.6515    733420.5758  -4555176.5209    473186.9144         0.0000         0.0000         0.0000     2.3669     1.7049   6  10   0.8487   0.4332   0.6538  -0.2948  -0.2234   0.5201   0.00    0.0
2016/06/27 00:02:30.000  -4387890.7705    733420.6424  -4555176.5194    468279.2856         0.0000         0.0000         0.0000     2.3575     1.7065   6  10   0.7381   0.3820   0.5514  -0.2506  -0.1941   0.4468   0.00    0.0
2016/06/27 00:03:00.000  -4387891.0580    733420.6717  -4555176.4601    463371.6735         0.0000         0.0000         0.0000     2.3503     1.7081   6  10   0.6514   0.3412   0.4757  -0.2177  -0.1739   0.3931   0.00    0.0
2016/06/27 00:03:30.000  -4387891.1758    733420.7102  -4555176.3944    458462.2034         0.0000         0.0000         0.0000     2.3526     1.7096   6  10   0.5808   0.3075   0.4169  -0.1920  -0.1586   0.3509   0.00    0.0
2016/06/27 00:04:00.000  -4387891.1568    733420.7132  -4555176.3728    453551.5783         0.0000         0.0000         0.0000     2.3440     1.7110   6  10   0.5217   0.2791   0.3694  -0.1712  -0.1458   0.3161   0.00    0.0
2016/06/27 00:04:30.000  -4387890.9417    733420.7658  -4555176.2956    448642.1433         0.0000         0.0000         0.0000     2.3537     1.7123   6  10   0.4712   0.2547   0.3300  -0.1539  -0.1346   0.2864   0.00    0.0
2016/06/27 00:05:00.000  -4387890.9848    733420.7421  -4555176.2546    443735.0016         0.0000         0.0000         0.0000     2.3547     1.7136   6  10   0.4277   0.2334   0.2969  -0.1392  -0.1245   0.2606   0.00    0.0
2016/06/27 00:05:30.000  -4387891.0263    733420.8165  -4555176.2264    438830.1968         0.0000         0.0000         0.0000     2.3481     1.7147   6  10   0.3899   0.2148   0.2685  -0.1265  -0.1153   0.2380   0.00    0.0
2016/06/27 00:06:00.000  -4387891.0077    733420.8282  -4555176.2180    433921.9079         0.0000         0.0000         0.0000     2.3496     1.7158   6  10   0.3569   0.1984   0.2442  -0.1155  -0.1069   0.2181   0.00    0.0
2016/06/27 00:06:30.000  -4387890.9622    733420.8171  -4555176.1722    429014.4263         0.0000         0.0000         0.0000     2.3546     1.7168   6  10   0.3279   0.1838   0.2230  -0.1059  -0.0993   0.2006   0.00    0.0
2016/06/27 00:07:00.000  -4387890.9493    733420.8453  -4555176.1477    424109.7192         0.0000         0.0000         0.0000     2.3560     1.7177   6  10   0.3023   0.1708   0.2046  -0.0974  -0.0924   0.1851   0.00    0.0
2016/06/27 00:07:30.000  -4387890.9893    733420.8369  -4555176.1430    419203.6458         0.0000         0.0000         0.0000     2.3566     1.7185   6  10   0.2797   0.1591   0.1884  -0.0900  -0.0860   0.1713   0.00    0.0
2016/06/27 00:08:00.000  -4387891.0031    733420.8369  -4555176.1246    414299.0498         0.0000         0.0000         0.0000     2.3602     1.7192   6  10   0.2596   0.1487   0.1742  -0.0834  -0.0803   0.1590   0.00    0.0
2016/06/27 00:08:30.000  -4387891.0555    733420.8385  -4555176.1255    409397.5669         0.0000         0.0000         0.0000     2.3611     1.7198   6  10   0.2416   0.1392   0.1615  -0.0776  -0.0751   0.1480   0.00    0.0
2016/06/27 00:09:00.000  -4387891.0643    733420.8615  -4555176.1179    404496.4766         0.0000         0.0000         0.0000     2.3598     1.7204   6  10   0.2255   0.1307   0.1503  -0.0724  -0.0703   0.1382   0.00    0.0
2016/06/27 00:09:30.000  -4387891.0662    733420.8585  -4555176.1247    399598.3613         0.0000         0.0000         0.0000     2.3538     1.7208   6  10   0.2111   0.1230   0.1403  -0.0677  -0.0660   0.1293   0.00    0.0
2016/06/27 00:10:00.000  -4387891.0885    733420.8701  -4555176.1360    394696.4868         0.0000         0.0000         0.0000     2.3462     1.7212   6  10   0.1981   0.1160   0.1313  -0.0636  -0.0621   0.1213   0.00    0.0
2016/06/27 00:10:30.000  -4387891.0860    733420.8764  -4555176.1291    389786.6839         0.0000         0.0000         0.0000     2.3478     1.7214   6  10   0.1863   0.1096   0.1232  -0.0598  -0.0585   0.1141   0.00    0.0
2016/06/27 00:11:00.000  -4387891.0800    733420.8810  -4555176.1264    384879.1906         0.0000         0.0000         0.0000     2.3481     1.7216   6  10   0.1756   0.1038   0.1159  -0.0565  -0.0552   0.1076   0.00    0.0
2016/06/27 00:11:30.000  -4387891.0642    733420.8778  -4555176.1080    379973.5921         0.0000         0.0000         0.0000     2.3529     1.7217   6  10   0.1659   0.0985   0.1092  -0.0534  -0.0522   0.1016   0.00    0.0
2016/06/27 00:12:00.000  -4387891.0835    733420.8853  -4555176.1175    375063.9487         0.0000         0.0000         0.0000     2.3476     1.7216   6  10   0.1570   0.0936   0.1032  -0.0506  -0.0494   0.0962   0.00    0.0
2016/06/27 00:12:30.000  -4387891.0642    733420.8698  -4555176.1158    370149.5791         0.0000         0.0000         0.0000     2.3475     1.7215   6  10   0.1488   0.0891   0.0976  -0.0481  -0.0468   0.0912   0.00    0.0
2016/06/27 00:13:00.000  -4387891.0513    733420.8707  -4555176.1075    365231.8928         0.0000         0.0000         0.0000     2.3507     1.7213   6  10   0.1413   0.0849   0.0926  -0.0458  -0.0445   0.0866   0.00    0.0
2016/06/27 00:13:30.000  -4387891.0416    733420.8683  -4555176.1047    360318.9881         0.0000         0.0000         0.0000     2.3516     1.7210   6  10   0.1344   0.0811   0.0879  -0.0437  -0.0423   0.0823   0.00    0.0
2016/06/27 00:14:00.000  -4387891.0329    733420.8635  -4555176.1031    355408.0062         0.0000         0.0000         0.0000     2.3543     1.7206   6  10   0.1281   0.0775   0.0836  -0.0418  -0.0403   0.0784   0.00    0.0
2016/06/27 00:14:30.000  -4387891.0297    733420.8510  -4555176.1014    350495.1773         0.0000         0.0000         0.0000     2.3565     1.7201   6  10   0.1222   0.0742   0.0797  -0.0400  -0.0385   0.0748   0.00    0.0
2016/06/27 00:15:00.000  -4387891.0266    733420.8470  -4555176.0993    345580.2611         0.0000         0.0000         0.0000     2.3554     1.7195   6  10   0.1168   0.0712   0.0760  -0.0384  -0.0368   0.0715   0.00    0.0
2016/06/27 00:15:30.000  -4387891.0238    733420.8483  -4555176.1008    340665.6079         0.0000         0.0000         0.0000     2.3542     1.7188   6  10   0.1117   0.0683   0.0726  -0.0368  -0.0352   0.0684   0.00    0.0
2016/06/27 00:16:00.000  -4387891.0228    733420.8440  -4555176.1023    335751.9167         0.0000         0.0000         0.0000     2.3531     1.7180   6  10   0.1070   0.0657   0.0695  -0.0354  -0.0337   0.0655   0.00    0.0
2016/06/27 00:16:30.000  -4387891.0177    733420.8421  -4555176.0984    330834.3097         0.0000         0.0000         0.0000     2.3530     1.7171   6  10   0.1026   0.0632   0.0665  -0.0341  -0.0323   0.0628   0.00    0.0
2016/06/27 00:17:00.000  -4387891.0219    733420.8393  -4555176.0961    325916.2893         0.0000         0.0000         0.0000     2.3541     1.7161   6  10   0.0985   0.0609   0.0638  -0.0329  -0.0310   0.0602   0.00    0.0
2016/06/27 00:17:30.000  -4387891.0159    733420.8338  -4555176.0906    321000.6959         0.0000         0.0000         0.0000     2.3559     1.7151   6  10   0.0946   0.0587   0.0612  -0.0318  -0.0298   0.0579   0.00    0.0
2016/06/27 00:18:00.000  -4387891.0141    733420.8315  -4555176.0918    316086.6975         0.0000         0.0000         0.0000     2.3562     1.7139   6  10   0.0910   0.0567   0.0588  -0.0308  -0.0287   0.0556   0.00    0.0
2016/06/27 00:18:30.000  -4387891.0074    733420.8270  -4555176.0874    311171.2091         0.0000         0.0000         0.0000     2.3582     1.7127   6  10   0.0876   0.0548   0.0566  -0.0298  -0.0276   0.0535   0.00    0.0
2016/06/27 00:19:00.000  -4387891.0171    733420.8272  -4555176.0903    306257.5025         0.0000         0.0000         0.0000     2.3568     1.7113   6  10   0.0844   0.0530   0.0544  -0.0289  -0.0266   0.0516   0.00    0.0
2016/06/27 00:19:30.000  -4387891.0161    733420.8263  -4555176.0890    301342.0803         0.0000         0.0000         0.0000     2.3568     1.7099   6  10   0.0814   0.0513   0.0524  -0.0280  -0.0257   0.0497   0.00    0.0
2016/06/27 00:20:00.000  -4387891.0180    733420.8273  -4555176.0890    296428.2724         0.0000         0.0000         0.0000     2.3561     1.7084   6  10   0.0786   0.0497   0.0506  -0.0272  -0.0248   0.0480   0.00    0.0
2016/06/27 00:20:30.000  -4387891.0159    733420.8266  -4555176.0908    291512.6533         0.0000         0.0000         0.0000     2.3558     1.7068   6  10   0.0759   0.0482   0.0488  -0.0265  -0.0240   0.0463   0.00    0.0
2016/06/27 00:21:00.000  -4387891.0142    733420.8252  -4555176.0910    286600.5774         0.0000         0.0000         0.0000     2.3555     1.7051   6  10   0.0734   0.0468   0.0471  -0.0258  -0.0232   0.0447   0.00    0.0
2016/06/27 00:21:30.000  -4387891.0124    733420.8258  -4555176.0911    281687.6711         0.0000         0.0000         0.0000     2.3552     1.7033   6  10   0.0710   0.0454   0.0455  -0.0251  -0.0225   0.0433   0.00    0.0
2016/06/27 00:22:00.000  -4387891.0164    733420.8264  -4555176.0942    276776.6273         0.0000         0.0000         0.0000     2.3534     1.7014   6  10   0.0687   0.0442   0.0440  -0.0245  -0.0218   0.0419   0.00    0.0
2016/06/27 00:22:30.000  -4387891.0124    733420.8242  -4555176.0930    271864.7503         0.0000         0.0000         0.0000     2.3539     1.6995   6  10   0.0666   0.0429   0.0426  -0.0239  -0.0212   0.0405   0.00    0.0
2016/06/27 00:23:00.000  -4387891.0165    733420.8244  -4555176.0942    266951.6534         0.0000         0.0000         0.0000     2.3528     1.6974   6  10   0.0645   0.0418   0.0412  -0.0234  -0.0205   0.0393   0.00    0.0
2016/06/27 00:23:30.000  -4387891.0232    733420.8257  -4555176.0955    262039.4584         0.0000         0.0000         0.0000     2.3522     1.6953   6  10   0.0626   0.0407   0.0399  -0.0228  -0.0200   0.0380   0.00    0.0
2016/06/27 00:24:00.000  -4387891.0275    733420.8290  -4555176.0966    257124.8693         0.0000         0.0000         0.0000     2.3518     1.6931   6  10   0.0607   0.0397   0.0387  -0.0223  -0.0194   0.0369   0.00    0.0
2016/06/27 00:24:30.000  -4387891.0268    733420.8290  -4555176.0952    252210.1354         0.0000         0.0000         0.0000     2.3521     1.6909   6  10   0.0589   0.0387   0.0375  -0.0219  -0.0189   0.0358   0.00    0.0
2016/06/27 00:25:00.000  -4387891.0229    733420.8252  -4555176.0959    247297.2396         0.0000         0.0000         0.0000     2.3524     1.9772   6   9   0.0575   0.0377   0.0367  -0.0216  -0.0185   0.0351   0.00    0.0
2016/06/27 00:25:30.000  -4387891.0231    733420.8218  -4555176.0972    242386.0094         0.0000         0.0000         0.0000     2.3524     1.9748   6   9   0.0562   0.0369   0.0359  -0.0213  -0.0182   0.0344   0.00    0.0
2016/06/27 00:26:00.000  -4387891.0251    733420.8237  -4555176.0985    237473.5428         0.0000         0.0000         0.0000     2.3522     1.9722   6   9   0.0549   0.0360   0.0351  -0.0210  -0.0179   0.0338   0.00    0.0
2016/06/27 00:26:30.000  -4387891.0226    733420.8226  -4555176.0984    232561.6409         0.0000         0.0000         0.0000     2.3522     1.9695   6   9   0.0537   0.0352   0.0344  -0.0207  -0.0175   0.0332   0.00    0.0
2016/06/27 00:27:00.000  -4387891.0210    733420.8220  -4555176.0966    227651.2542         0.0000         0.0000         0.0000     2.3526     1.9666   6   9   0.0526   0.0344   0.0337  -0.0205  -0.0172   0.0326   0.00    0.0
2016/06/27 00:27:30.000  -4387891.0251    733420.8202  -4555176.0976    222745.4726         0.0000         0.0000         0.0000     2.3527     1.9636   6   9   0.0515   0.0337   0.0330  -0.0202  -0.0169   0.0321   0.00    0.0
2016/06/27 00:28:00.000  -4387891.0258    733420.8194  -4555176.0967    217835.9986         0.0000         0.0000         0.0000     2.3526     1.9604   6   9   0.0504   0.0330   0.0323  -0.0199  -0.0166   0.0316   0.00    0.0
2016/06/27 00:28:30.000  -4387891.0255    733420.8195  -4555176.0959    212925.0524         0.0000         0.0000         0.0000     2.3530     1.9571   6   9   0.0494   0.0323   0.0317  -0.0197  -0.0163   0.0310   0.00    0.0
2016/06/27 00:29:00.000  -4387891.0235    733420.8183  -4555176.0947    208016.0490         0.0000         0.0000         0.0000     2.3534     1.9536   6   9   0.0484   0.0316   0.0311  -0.0194  -0.0160   0.0305   0.00    0.0
2016/06/27 00:29:30.000  -4387891.0209    733420.8181  -4555176.0956    203109.8507         0.0000         0.0000         0.0000     2.3535     1.9501   6   9   0.0474   0.0310   0.0306  -0.0192  -0.0157   0.0301   0.00    0.0
2016/06/27 00:30:00.000  -4387891.0215    733420.8182  -4555176.0964    198199.5361         0.0000         0.0000         0.0000     2.3534     1.9463   6   9   0.0465   0.0304   0.0300  -0.0189  -0.0155   0.0296   0.00    0.0
2016/06/27 00:30:30.000  -4387891.0194    733420.8184  -4555176.0953    193287.3885         0.0000         0.0000         0.0000     2.3534     1.9425   6   9   0.0457   0.0298   0.0295  -0.0187  -0.0152   0.0292   0.00    0.0
2016/06/27 00:31:00.000  -4387891.0214    733420.8186  -4555176.0959    188379.5441         0.0000         0.0000         0.0000     2.3534     1.9385   6   9   0.0448   0.0292   0.0290  -0.0184  -0.0149   0.0287   0.00    0.0
2016/06/27 00:31:30.000  -4387891.0241    733420.8193  -4555176.0975    183472.3115         0.0000         0.0000         0.0000     2.3531     1.9344   6   9   0.0440   0.0287   0.0285  -0.0182  -0.0147   0.0283   0.00    0.0
2016/06/27 00:32:00.000  -4387891.0258    733420.8174  -4555176.0980    178565.2305         0.0000         0.0000         0.0000     2.3530     1.9302   6   9   0.0432   0.0282   0.0280  -0.0180  -0.0145   0.0279   0.00    0.0
2016/06/27 00:32:30.000  -4387891.0264    733420.8167  -4555176.0981    173657.6399         0.0000         0.0000         0.0000     2.3531     1.9258   6   9   0.0425   0.0277   0.0275  -0.0178  -0.0142   0.0275   0.00    0.0
2016/06/27 00:33:00.000  -4387891.0294    733420.8173  -4555176.0987    168748.8775         0.0000         0.0000         0.0000     2.3528     1.9214   6   9   0.0417   0.0272   0.0271  -0.0175  -0.0140   0.0271   0.00    0.0
2016/06/27 00:33:30.000  -4387891.0319    733420.8181  -4555176.0986    163838.2208         0.0000         0.0000         0.0000     2.3529     1.9168   6   9   0.0410   0.0267   0.0266  -0.0173  -0.0138   0.0267   0.00    0.0
2016/06/27 00:34:00.000  -4387891.0337    733420.8192  -4555176.0990    158928.4539         0.0000         0.0000         0.0000     2.3529     1.9122   6   9   0.0403   0.0263   0.0262  -0.0171  -0.0135   0.0264   0.00    0.0
2016/06/27 00:34:30.000  -4387891.0335    733420.8185  -4555176.0976    154021.7331         0.0000         0.0000         0.0000     2.3534     1.9074   6   9   0.0397   0.0258   0.0258  -0.0169  -0.0133   0.0260   0.00    0.0
2016/06/27 00:35:00.000  -4387891.0341    733420.8189  -4555176.0971    149119.0983         0.0000         0.0000         0.0000     2.3537     1.9026   6   9   0.0390   0.0254   0.0254  -0.0167  -0.0131   0.0256   0.00    0.0
2016/06/27 00:35:30.000  -4387891.0337    733420.8190  -4555176.0969    144211.7570         0.0000         0.0000         0.0000     2.3534     1.8976   6   9   0.0384   0.0250   0.0250  -0.0165  -0.0129   0.0253   0.00    0.0
2016/06/27 00:36:00.000  -4387891.0336    733420.8190  -4555176.0961    139302.7030         0.0000         0.0000         0.0000     2.3537     1.8926   6   9   0.0377   0.0246   0.0246  -0.0163  -0.0127   0.0250   0.00    0.0
2016/06/27 00:36:30.000  -4387891.0344    733420.8201  -4555176.0965    134393.5286         0.0000         0.0000         0.0000     2.3532     1.8875   6   9   0.0371   0.0242   0.0243  -0.0162  -0.0125   0.0246   0.00    0.0
2016/06/27 00:37:00.000  -4387891.0354    733420.8208  -4555176.0964    129482.8214         0.0000         0.0000         0.0000     2.3529     1.8823   6   9   0.0366   0.0239   0.0239  -0.0160  -0.0123   0.0243   0.00    0.0
2016/06/27 00:37:30.000  -4387891.0370    733420.8216  -4555176.0959    124570.3288         0.0000         0.0000         0.0000     2.3526     1.8771   6   9   0.0360   0.0235   0.0235  -0.0158  -0.0122   0.0240   0.00    0.0
2016/06/27 00:38:00.000  -4387891.0371    733420.8221  -4555176.0962    119660.0649         0.0000         0.0000         0.0000     2.3522     1.8717   6   9   0.0354   0.0232   0.0232  -0.0156  -0.0120   0.0236   0.00    0.0
2016/06/27 00:38:30.000  -4387891.0350    733420.8225  -4555176.0955    114746.9670         0.0000         0.0000         0.0000     2.3529     1.8664   6   9   0.0349   0.0228   0.0228  -0.0155  -0.0118   0.0233   0.00    0.0
2016/06/27 00:39:00.000  -4387891.0372    733420.8244  -4555176.0955    109833.9069         0.0000         0.0000         0.0000     2.3526     1.8609   6   9   0.0344   0.0225   0.0225  -0.0153  -0.0117   0.0230   0.00    0.0
2016/06/27 00:39:30.000  -4387891.0379    733420.8253  -4555176.0960    104921.9957         0.0000         0.0000         0.0000     2.3519     1.8554   6   9   0.0338   0.0222   0.0222  -0.0152  -0.0115   0.0227   0.00    0.0
2016/06/27 00:40:00.000  -4387891.0378    733420.8253  -4555176.0965    100010.7917         0.0000         0.0000         0.0000     2.3514     1.8498   6   9   0.0333   0.0219   0.0219  -0.0150  -0.0113   0.0224   0.00    0.0
2016/06/27 00:40:30.000  -4387891.0367    733420.8247  -4555176.0964     95099.6529         0.0000         0.0000         0.0000     2.3512     1.8442   6   9   0.0328   0.0216   0.0215  -0.0149  -0.0112   0.0221   0.00    0.0
2016/06/27 00:41:00.000  -4387891.0387    733420.8251  -4555176.0969     90189.9133         0.0000         0.0000         0.0000     2.3508     1.8386   6   9   0.0324   0.0213   0.0212  -0.0147  -0.0110   0.0218   0.00    0.0
2016/06/27 00:41:30.000  -4387891.0395    733420.8258  -4555176.0981     85287.2384         0.0000         0.0000         0.0000     2.3502     1.8329   6   9   0.0319   0.0210   0.0209  -0.0146  -0.0109   0.0215   0.00    0.0
2016/06/27 00:42:00.000  -4387891.0384    733420.8261  -4555176.0975     80382.1978         0.0000         0.0000         0.0000     2.3502     1.8271   6   9   0.0314   0.0208   0.0206  -0.0145  -0.0108   0.0212   0.00    0.0
2016/06/27 00:42:30.000  -4387891.0377    733420.8266  -4555176.0973     75479.0393         0.0000         0.0000         0.0000     2.3502     1.8214   6   9   0.0310   0.0205   0.0203  -0.0143  -0.0106   0.0210   0.00    0.0
2016/06/27 00:43:00.000  -4387891.0368    733420.8269  -4555176.0966     70576.3328         0.0000         0.0000         0.0000     2.3503     1.8156   6   9   0.0305   0.0202   0.0200  -0.0142  -0.0105   0.0207   0.00    0.0
2016/06/27 00:43:30.000  -4387891.0373    733420.8281  -4555176.0972     65672.8139         0.0000         0.0000         0.0000     2.3498     1.8098   6   9   0.0301   0.0200   0.0198  -0.0141  -0.0104   0.0204   0.00    0.0
2016/06/27 00:44:00.000  -4387891.0355    733420.8286  -4555176.0966     60770.9367         0.0000         0.0000         0.0000     2.3503     1.8039   6   9   0.0297   0.0198   0.0195  -0.0139  -0.0103   0.0201   0.00    0.0
2016/06/27 00:44:30.000  -4387891.0347    733420.8283  -4555176.0967     55869.5231         0.0000         0.0000         0.0000     2.3501     1.7981   6   9   0.0292   0.0195   0.0192  -0.0138  -0.0101   0.0199   0.00    0.0
2016/06/27 00:45:00.000  -4387891.0333    733420.8285  -4555176.0966     50969.3964         0.0000         0.0000         0.0000     2.3500     1.7922   6   9   0.0288   0.0193   0.0189  -0.0137  -0.0100   0.0196   0.00    0.0
2016/06/27 00:45:30.000  -4387891.0338    733420.8290  -4555176.0971     46064.9651         0.0000         0.0000         0.0000     2.3494     1.7863   6   9   0.0284   0.0191   0.0187  -0.0136  -0.0099   0.0193   0.00    0.0
2016/06/27 00:46:00.000  -4387891.0336    733420.8294  -4555176.0977     41163.5401         0.0000         0.0000         0.0000     2.3493     1.7804   6   9   0.0280   0.0189   0.0184  -0.0135  -0.0098   0.0191   0.00    0.0
2016/06/27 00:46:30.000  -4387891.0335    733420.8296  -4555176.0988     36259.9807         0.0000         0.0000         0.0000     2.3492     1.7745   6   9   0.0276   0.0187   0.0182  -0.0134  -0.0097   0.0188   0.00    0.0
2016/06/27 00:47:00.000  -4387891.0347    733420.8296  -4555176.0993     31362.2936         0.0000         0.0000         0.0000     2.3488     1.7686   6   9   0.0273   0.0184   0.0179  -0.0133  -0.0096   0.0186   0.00    0.0
2016/06/27 00:47:30.000  -4387891.0342    733420.8288  -4555176.0997     26461.3214         0.0000         0.0000         0.0000     2.3487     1.7627   6   9   0.0269   0.0183   0.0176  -0.0132  -0.0095   0.0183   0.00    0.0
2016/06/27 00:48:00.000  -4387891.0339    733420.8295  -4555176.1003     21559.3671         0.0000         0.0000         0.0000     2.3487     1.7568   6   9   0.0265   0.0181   0.0174  -0.0131  -0.0094   0.0181   0.00    0.0
2016/06/27 00:48:30.000  -4387891.0332    733420.8294  -4555176.1004     16660.2018         0.0000         0.0000         0.0000     2.3485     1.7509   6   9   0.0262   0.0179   0.0172  -0.0130  -0.0093   0.0178   0.00    0.0
2016/06/27 00:49:00.000  -4387891.0325    733420.8303  -4555176.1003     11760.5630         0.0000         0.0000         0.0000     2.3486     1.7450   6   9   0.0258   0.0177   0.0169  -0.0129  -0.0092   0.0176   0.00    0.0
2016/06/27 00:49:30.000  -4387891.0309    733420.8303  -4555176.1001      6860.5142         0.0000         0.0000         0.0000     2.3488     1.7391   6   9   0.0255   0.0175   0.0167  -0.0128  -0.0091   0.0174   0.00    0.0
2016/06/27 00:50:00.000  -4387891.0306    733420.8309  -4555176.1001      1960.3749         0.0000         0.0000         0.0000     2.3488     1.7333   6   9   0.0251   0.0173   0.0165  -0.0127  -0.0090   0.0171   0.00    0.0
2016/06/27 00:50:30.000  -4387891.0301    733420.8316  -4555176.1001     -2938.7021         0.0000         0.0000         0.0000     2.3488     1.7274   6   9   0.0248   0.0172   0.0162  -0.0126  -0.0089   0.0169   0.00    0.0
2016/06/27 00:51:00.000  -4387891.0288    733420.8320  -4555176.0997     -7837.0845         0.0000         0.0000         0.0000     2.3490     1.7216   6   9   0.0245   0.0170   0.0160  -0.0125  -0.0088   0.0167   0.00    0.0
2016/06/27 00:51:30.000  -4387891.0278    733420.8322  -4555176.0995    -12737.4008         0.0000         0.0000         0.0000     2.3492     1.7157   6   9   0.0241   0.0168   0.0158  -0.0124  -0.0088   0.0165   0.00    0.0
2016/06/27 00:52:00.000  -4387891.0270    733420.8321  -4555176.0992    -17639.5885         0.0000         0.0000         0.0000     2.3496     1.7100   6   9   0.0238   0.0167   0.0156  -0.0124  -0.0087   0.0162   0.00    0.0
2016/06/27 00:52:30.000  -4387891.0267    733420.8322  -4555176.0997    -22543.8246         0.0000         0.0000         0.0000     2.3496     1.7042   6   9   0.0235   0.0165   0.0153  -0.0123  -0.0086   0.0160   0.00    0.0
2016/06/27 00:53:00.000  -4387891.0255    733420.8322  -4555176.0996    -27444.2560         0.0000         0.0000         0.0000     2.3496     2.1174   6   8   0.0232   0.0164   0.0152  -0.0122  -0.0085   0.0158   0.00    0.0
2016/06/27 00:53:30.000  -4387891.0244    733420.8322  -4555176.0998    -32343.5939         0.0000         0.0000         0.0000     2.3496     2.1092   6   8   0.0229   0.0163   0.0150  -0.0121  -0.0084   0.0157   0.00    0.0
2016/06/27 00:54:00.000  -4387891.0240    733420.8321  -4555176.1001    -37247.2991         0.0000         0.0000         0.0000     2.3496     2.1011   6   8   0.0227   0.0161   0.0149  -0.0120  -0.0082   0.0155   0.00    0.0
2016/06/27 00:54:30.000  -4387891.0235    733420.8329  -4555176.1002    -42151.0141         0.0000         0.0000         0.0000     2.3495     2.0929   6   8   0.0224   0.0160   0.0147  -0.0119  -0.0081   0.0153   0.00    0.0
2016/06/27 00:55:00.000  -4387891.0221    733420.8330  -4555176.1001    -47051.8964         0.0000         0.0000         0.0000     2.3495     2.0849   6   8   0.0221   0.0159   0.0146  -0.0118  -0.0080   0.0152   0.00    0.0
2016/06/27 00:55:30.000  -4387891.0215    733420.8331  -4555176.1001    -51952.0575         0.0000         0.0000         0.0000     2.3495     2.0768   6   8   0.0219   0.0158   0.0145  -0.0117  -0.0079   0.0150   0.00    0.0
2016/06/27 00:56:00.000  -4387891.0206    733420.8323  -4555176.1002    -56851.1534         0.0000         0.0000         0.0000     2.3498     2.0688   6   8   0.0216   0.0157   0.0143  -0.0116  -0.0077   0.0149   0.00    0.0
2016/06/27 00:56:30.000  -4387891.0193    733420.8324  -4555176.1000    -61755.8198         0.0000         0.0000         0.0000     2.3498     2.0609   6   8   0.0214   0.0155   0.0142  -0.0115  -0.0076   0.0147   0.00    0.0
2016/06/27 00:57:00.000  -4387891.0200    733420.8331  -4555176.1005    -66658.8846         0.0000         0.0000         0.0000     2.3496     2.0529   6   8   0.0211   0.0154   0.0141  -0.0114  -0.0075   0.0146   0.00    0.0
2016/06/27 00:57:30.000  -4387891.0197    733420.8332  -4555176.1003    -71561.5066         0.0000         0.0000         0.0000     2.3496     2.0451   6   8   0.0209   0.0153   0.0139  -0.0113  -0.0074   0.0144   0.00    0.0
2016/06/27 00:58:00.000  -4387891.0189    733420.8330  -4555176.1004    -76465.3389         0.0000         0.0000         0.0000     2.3495     2.0373   6   8   0.0207   0.0152   0.0138  -0.0112  -0.0073   0.0143   0.00    0.0
2016/06/27 00:58:30.000  -4387891.0195    733420.8334  -4555176.1009    -81368.8964         0.0000         0.0000         0.0000     2.3493     2.0295   6   8   0.0204   0.0151   0.0137  -0.0111  -0.0071   0.0141   0.00    0.0
2016/06/27 00:59:00.000  -4387891.0195    733420.8334  -4555176.1011    -86269.5532         0.0000         0.0000         0.0000     2.3493     2.0218   6   8   0.0202   0.0150   0.0136  -0.0110  -0.0070   0.0140   0.00    0.0
2016/06/27 00:59:30.000  -4387891.0197    733420.8337  -4555176.1014    -91170.2396         0.0000         0.0000         0.0000     2.3492     2.0142   6   8   0.0200   0.0149   0.0134  -0.0110  -0.0069   0.0138   0.00    0.0
2016/06/27 01:00:00.000  -4387891.0199    733420.8341  -4555176.1015    -96077.3712         0.0000         0.0000         0.0000     2.3490     2.0066   6   8   0.0198   0.0149   0.0133  -0.0109  -0.0068   0.0137   0.00    0.0
2016/06/27 01:00:30.000  -4387891.0208    733420.8345  -4555176.1018   -100981.6897         0.0000         0.0000         0.0000     2.3488     1.9991   6   8   0.0195   0.0148   0.0132  -0.0108  -0.0067   0.0135   0.00    0.0
2016/06/27 01:01:00.000  -4387891.0208    733420.8344  -4555176.1018   -105884.8354         0.0000         0.0000         0.0000     2.3489     1.9916   6   8   0.0193   0.0147   0.0131  -0.0107  -0.0065   0.0134   0.00    0.0
2016/06/27 01:01:30.000  -4387891.0215    733420.8344  -4555176.1022   -110784.2076         0.0000         0.0000         0.0000     2.3488     1.9842   6   8   0.0191   0.0146   0.0130  -0.0106  -0.0064   0.0133   0.00    0.0
2016/06/27 01:02:00.000  -4387891.0217    733420.8342  -4555176.1025   -115684.2836         0.0000         0.0000         0.0000     2.3486     1.9769   6   8   0.0189   0.0145   0.0129  -0.0105  -0.0063   0.0131   0.00    0.0
2016/06/27 01:02:30.000  -4387891.0216    733420.8340  -4555176.1026   -120584.3261         0.0000         0.0000         0.0000     2.3489     1.9697   6   8   0.0187   0.0144   0.0128  -0.0105  -0.0062   0.0130   0.00    0.0
2016/06/27 01:03:00.000  -4387891.0226    733420.8341  -4555176.1029   -125484.7274         0.0000         0.0000         0.0000     2.3488     1.9625   6   8   0.0185   0.0144   0.0127  -0.0104  -0.0061   0.0129   0.00    0.0
2016/06/27 01:03:30.000  -4387891.0233    733420.8342  -4555176.1035   -130384.3921         0.0000         0.0000         0.0000     2.3486     1.9553   6   8   0.0183   0.0143   0.0126  -0.0103  -0.0060   0.0128   0.00    0.0
2016/06/27 01:04:00.000  -4387891.0245    733420.8347  -4555176.1040   -135284.0198         0.0000         0.0000         0.0000     2.3485     1.9483   6   8   0.0181   0.0142   0.0125  -0.0102  -0.0059   0.0126   0.00    0.0
2016/06/27 01:04:30.000  -4387891.0248    733420.8347  -4555176.1042   -140183.6217         0.0000         0.0000         0.0000     2.3485     1.9413   6   8   0.0180   0.0142   0.0123  -0.0102  -0.0058   0.0125   0.00    0.0
2016/06/27 01:05:00.000  -4387891.0255    733420.8346  -4555176.1048   -145085.4934         0.0000         0.0000         0.0000     2.3486     1.9343   6   8   0.0178   0.0141   0.0122  -0.0101  -0.0056   0.0124   0.00    0.0
2016/06/27 01:05:30.000  -4387891.0256    733420.8346  -4555176.1050   -149990.5713         0.0000         0.0000         0.0000     2.3488     1.9275   6   8   0.0176   0.0140   0.0121  -0.0100  -0.0055   0.0123   0.00    0.0
2016/06/27 01:06:00.000  -4387891.0259    733420.8344  -4555176.1053   -154893.4448         0.0000         0.0000         0.0000     2.3486     1.6537   6   9   0.0174   0.0140   0.0120  -0.0100  -0.0054   0.0121   0.00    0.0
2016/06/27 01:06:30.000  -4387891.0264    733420.8339  -4555176.1056   -159796.5765         0.0000         0.0000         0.0000     2.3485     1.6494   6   9   0.0172   0.0139   0.0119  -0.0099  -0.0053   0.0120   0.00    0.0
2016/06/27 01:07:00.000  -4387891.0274    733420.8339  -4555176.1061   -164698.7139         0.0000         0.0000         0.0000     2.3482     1.6450   6   9   0.0171   0.0138   0.0118  -0.0098  -0.0052   0.0119   0.00    0.0
2016/06/27 01:07:30.000  -4387891.0280    733420.8337  -4555176.1066   -169600.8888         0.0000         0.0000         0.0000     2.3480     1.6407   6   9   0.0169   0.0138   0.0117  -0.0098  -0.0051   0.0118   0.00    0.0
2016/06/27 01:08:00.000  -4387891.0283    733420.8336  -4555176.1066   -174503.2250         0.0000         0.0000         0.0000     2.3481     1.6364   6   9   0.0167   0.0137   0.0116  -0.0097  -0.0050   0.0117   0.00    0.0
2016/06/27 01:08:30.000  -4387891.0284    733420.8336  -4555176.1069   -179403.3426         0.0000         0.0000         0.0000     2.3480     1.6321   6   9   0.0166   0.0136   0.0115  -0.0097  -0.0049   0.0116   0.00    0.0
2016/06/27 01:09:00.000  -4387891.0287    733420.8332  -4555176.1072   -184306.0632         0.0000         0.0000         0.0000     2.3481     1.6279   6   9   0.0164   0.0136   0.0114  -0.0096  -0.0049   0.0114   0.00    0.0
2016/06/27 01:09:30.000  -4387891.0290    733420.8331  -4555176.1072   -189207.7386         0.0000         0.0000         0.0000     2.3479     1.6236   6   9   0.0162   0.0135   0.0113  -0.0095  -0.0048   0.0113   0.00    0.0
2016/06/27 01:10:00.000  -4387891.0293    733420.8331  -4555176.1074   -194110.4334         0.0000         0.0000         0.0000     2.3479     1.6194   6   9   0.0161   0.0135   0.0112  -0.0095  -0.0047   0.0112   0.00    0.0
2016/06/27 01:10:30.000  -4387891.0286    733420.8330  -4555176.1072   -199015.6159         0.0000         0.0000         0.0000     2.3482     1.6152   6   9   0.0159   0.0134   0.0111  -0.0094  -0.0046   0.0111   0.00    0.0
2016/06/27 01:11:00.000  -4387891.0282    733420.8331  -4555176.1070   -203919.1443         0.0000         0.0000         0.0000     2.3485     1.6111   6   9   0.0158   0.0134   0.0110  -0.0094  -0.0045   0.0110   0.00    0.0
2016/06/27 01:11:30.000  -4387891.0272    733420.8325  -4555176.1070   -208823.0248         0.0000         0.0000         0.0000     2.3486     1.6069   6   9   0.0156   0.0133   0.0110  -0.0093  -0.0044   0.0109   0.00    0.0
2016/06/27 01:12:00.000  -4387891.0259    733420.8320  -4555176.1065   -213726.1900         0.0000         0.0000         0.0000     2.3490     1.6028   6   9   0.0155   0.0132   0.0109  -0.0093  -0.0044   0.0108   0.00    0.0
2016/06/27 01:12:30.000  -4387891.0251    733420.8319  -4555176.1064   -218627.9732         0.0000         0.0000         0.0000     2.3489     1.5988   6   9   0.0153   0.0132   0.0108  -0.0092  -0.0043   0.0107   0.00    0.0
2016/06/27 01:13:00.000  -4387891.0249    733420.8317  -4555176.1066   -223530.8565         0.0000         0.0000         0.0000     2.3487     1.5947   6   9   0.0152   0.0131   0.0107  -0.0092  -0.0042   0.0106   0.00    0.0
2016/06/27 01:13:30.000  -4387891.0244    733420.8315  -4555176.1063   -228433.7917         0.0000         0.0000         0.0000     2.3488     1.5907   6   9   0.0150   0.0131   0.0106  -0.0092  -0.0042   0.0105   0.00    0.0
2016/06/27 01:14:00.000  -4387891.0232    733420.8312  -4555176.1056   -233337.9398         0.0000         0.0000         0.0000     2.3491     1.5867   6   9   0.0149   0.0130   0.0105  -0.0091  -0.0041   0.0104   0.00    0.0
2016/06/27 01:14:30.000  -4387891.0215    733420.8309  -4555176.1046   -238241.6115         0.0000         0.0000         0.0000     2.3493     1.5828   6   9   0.0148   0.0130   0.0104  -0.0091  -0.0040   0.0103   0.00    0.0
2016/06/27 01:15:00.000  -4387891.0205    733420.8305  -4555176.1042   -243144.8142         0.0000         0.0000         0.0000     2.3494     1.5789   6   9   0.0146   0.0129   0.0103  -0.0090  -0.0040   0.0101   0.00    0.0
2016/06/27 01:15:30.000  -4387891.0194    733420.8305  -4555176.1039   -248046.3859         0.0000         0.0000         0.0000     2.3496     1.5750   6   9   0.0145   0.0129   0.0102  -0.0090  -0.0039   0.0100   0.00    0.0
2016/06/27 01:16:00.000  -4387891.0181    733420.8302  -4555176.1035   -252950.3421         0.0000         0.0000         0.0000     2.3497     1.5712   6   9   0.0144   0.0128   0.0101  -0.0090  -0.0039   0.0099   0.00    0.0
2016/06/27 01:16:30.000  -4387891.0180    733420.8299  -4555176.1036   -257851.2029         0.0000         0.0000         0.0000     2.3495     1.5674   6   9   0.0142   0.0128   0.0100  -0.0089  -0.0038   0.0098   0.00    0.0
2016/06/27 01:17:00.000  -4387891.0177    733420.8301  -4555176.1037   -262753.3582         0.0000         0.0000         0.0000     2.3495     1.5636   6   9   0.0141   0.0127   0.0099  -0.0089  -0.0038   0.0098   0.00    0.0
2016/06/27 01:17:30.000  -4387891.0170    733420.8299  -4555176.1034   -267656.2961         0.0000         0.0000         0.0000     2.3496     1.5599   6   9   0.0140   0.0127   0.0098  -0.0088  -0.0038   0.0097   0.00    0.0
2016/06/27 01:18:00.000  -4387891.0172    733420.8300  -4555176.1036   -272556.5263         0.0000         0.0000         0.0000     2.3496     1.5562   6   9   0.0139   0.0126   0.0097  -0.0088  -0.0037   0.0096   0.00    0.0
2016/06/27 01:18:30.000  -4387891.0168    733420.8300  -4555176.1034   -277455.8450         0.0000         0.0000         0.0000     2.3496     1.5525   6   9   0.0137   0.0126   0.0096  -0.0088  -0.0037   0.0095   0.00    0.0
2016/06/27 01:19:00.000  -4387891.0165    733420.8299  -4555176.1033   -282352.2774         0.0000         0.0000         0.0000     2.3497     1.5489   6   9   0.0136   0.0125   0.0095  -0.0087  -0.0037   0.0094   0.00    0.0
2016/06/27 01:19:30.000  -4387891.0159    733420.8297  -4555176.1035   -287249.1776         0.0000         0.0000         0.0000     2.3496     1.5453   6   9   0.0135   0.0125   0.0094  -0.0087  -0.0037   0.0093   0.00    0.0
2016/06/27 01:20:00.000  -4387891.0150    733420.8292  -4555176.1036   -292144.9378         0.0000         0.0000         0.0000     2.3496     1.5418   6   9   0.0134   0.0124   0.0093  -0.0087  -0.0036   0.0092   0.00    0.0
2016/06/27 01:20:30.000  -4387891.0147    733420.8285  -4555176.1038   -297040.5643         0.0000         0.0000         0.0000     2.3497     1.5383   6   9   0.0133   0.0124   0.0092  -0.0087  -0.0036   0.0091   0.00    0.0
2016/06/27 01:21:00.000  -4387891.0144    733420.8284  -4555176.1039   -301936.0345         0.0000         0.0000         0.0000     2.3496     1.5348   6   9   0.0132   0.0123   0.0092  -0.0086  -0.0036   0.0090   0.00    0.0
2016/06/27 01:21:30.000  -4387891.0149    733420.8285  -4555176.1042   -306830.2729         0.0000         0.0000         0.0000     2.3496     2.0273   6   8   0.0131   0.0123   0.0091  -0.0086  -0.0036   0.0089   0.00    0.0
2016/06/27 01:22:00.000  -4387891.0146    733420.8290  -4555176.1041   -311723.8481         0.0000         0.0000         0.0000     2.3497     2.0168   6   8   0.0130   0.0122   0.0090  -0.0086  -0.0035   0.0088   0.00    0.0
2016/06/27 01:22:30.000  -4387891.0149    733420.8295  -4555176.1040   -316615.8633         0.0000         0.0000         0.0000     2.3501     2.0063   6   8   0.0128   0.0122   0.0089  -0.0085  -0.0035   0.0088   0.00    0.0
2016/06/27 01:23:00.000  -4387891.0148    733420.8296  -4555176.1040   -321505.9353         0.0000         0.0000         0.0000     2.3502     1.9960   6   8   0.0127   0.0122   0.0088  -0.0085  -0.0034   0.0087   0.00    0.0
2016/06/27 01:23:30.000  -4387891.0143    733420.8293  -4555176.1039   -326394.8124         0.0000         0.0000         0.0000     2.3504     1.9858   6   8   0.0126   0.0121   0.0088  -0.0085  -0.0034   0.0086   0.00    0.0
2016/06/27 01:24:00.000  -4387891.0134    733420.8292  -4555176.1035   -331283.7865         0.0000         0.0000         0.0000     2.3508     1.9757   6   8   0.0125   0.0121   0.0087  -0.0085  -0.0034   0.0085   0.00    0.0
2016/06/27 01:24:30.000  -4387891.0131    733420.8295  -4555176.1034   -336173.6895         0.0000         0.0000         0.0000     2.3507     2.6201   6   7   0.0125   0.0120   0.0086  -0.0084  -0.0033   0.0084   0.00    0.0
2016/06/27 01:25:00.000  -4387891.0127    733420.8294  -4555176.1034   -341064.8064         0.0000         0.0000         0.0000     2.3507     2.6058   6   7   0.0124   0.0120   0.0086  -0.0084  -0.0033   0.0084   0.00    0.0
2016/06/27 01:25:30.000  -4387891.0121    733420.8294  -4555176.1034   -345956.8093         0.0000         0.0000         0.0000     2.3506     2.5914   6   7   0.0123   0.0120   0.0085  -0.0084  -0.0032   0.0083   0.00    0.0
2016/06/27 01:26:00.000  -4387891.0120    733420.8297  -4555176.1032   -350849.8808         0.0000         0.0000         0.0000     2.3506     2.5768   6   7   0.0122   0.0119   0.0084  -0.0083  -0.0032   0.0083   0.00    0.0
2016/06/27 01:26:30.000  -4387891.0119    733420.8298  -4555176.1032   -355740.9900         0.0000         0.0000         0.0000     2.3505     2.5623   6   7   0.0121   0.0119   0.0084  -0.0083  -0.0031   0.0082   0.00    0.0
2016/06/27 01:27:00.000  -4387891.0118    733420.8297  -4555176.1032   -360631.3210         0.0000         0.0000         0.0000     2.3506     2.5477   6   7   0.0120   0.0119   0.0083  -0.0083  -0.0031   0.0081   0.00    0.0
2016/06/27 01:27:30.000  -4387891.0122    733420.8300  -4555176.1034   -365525.4202         0.0000         0.0000         0.0000     2.3505     2.5330   6   7   0.0119   0.0118   0.0083  -0.0082  -0.0030   0.0081   0.00    0.0
2016/06/27 01:28:00.000  -4387891.0122    733420.8301  -4555176.1034   -370416.2958         0.0000         0.0000         0.0000     2.3504     2.5184   6   7   0.0119   0.0118   0.0082  -0.0082  -0.0030   0.0080   0.00    0.0
2016/06/27 01:28:30.000  -4387891.0122    733420.8302  -4555176.1033   -375306.8518         0.0000         0.0000         0.0000     2.3504     2.5037   6   7   0.0118   0.0118   0.0082  -0.0082  -0.0029   0.0080   0.00    0.0
2016/06/27 01:29:00.000  -4387891.0120    733420.8302  -4555176.1030   -380197.9009         0.0000         0.0000         0.0000     2.3503     2.4891   6   7   0.0117   0.0118   0.0081  -0.0081  -0.0029   0.0079   0.00    0.0
2016/06/27 01:29:30.000  -4387891.0119    733420.8302  -4555176.1029   -385091.7319         0.0000         0.0000         0.0000     2.3504     2.4745   6   7   0.0116   0.0117   0.0081  -0.0081  -0.0028   0.0079   0.00    0.0
2016/06/27 01:30:00.000  -4387891.0120    733420.8303  -4555176.1032   -389986.1091         0.0000         0.0000         0.0000     2.3503     2.4599   6   7   0.0116   0.0117   0.0080  -0.0081  -0.0028   0.0078   0.00    0.0
2016/06/27 01:30:30.000  -4387891.0121    733420.8304  -4555176.1034   -394882.8147         0.0000         0.0000         0.0000     2.3503     2.4454   6   7   0.0115   0.0117   0.0080  -0.0080  -0.0027   0.0078   0.00    0.0
2016/06/27 01:31:00.000  -4387891.0124    733420.8306  -4555176.1036   -399782.5013         0.0000         0.0000         0.0000     2.3502     2.4309   6   7   0.0114   0.0116   0.0079  -0.0080  -0.0027   0.0077   0.00    0.0
2016/06/27 01:31:30.000  -4387891.0122    733420.8309  -4555176.1035   -404684.7371         0.0000         0.0000         0.0000     2.3502     2.4165   6   7   0.0113   0.0116   0.0079  -0.0080  -0.0026   0.0076   0.00    0.0
2016/06/27 01:32:00.000  -4387891.0122    733420.8309  -4555176.1037   -409585.8376         0.0000         0.0000         0.0000     2.3501     2.4021   6   7   0.0113   0.0116   0.0078  -0.0079  -0.0026   0.0076   0.00    0.0
2016/06/27 01:32:30.000  -4387891.0119    733420.8308  -4555176.1037   -414487.7405         0.0000         0.0000         0.0000     2.3502     2.3878   6   7   0.0112   0.0115   0.0078  -0.0079  -0.0025   0.0076   0.00    0.0
2016/06/27 01:33:00.000  -4387891.0120    733420.8305  -4555176.1039   -419390.5184         0.0000         0.0000         0.0000     2.3504     2.3737   6   7   0.0111   0.0115   0.0077  -0.0079  -0.0025   0.0075   0.00    0.0
2016/06/27 01:33:30.000  -4387891.0117    733420.8303  -4555176.1037   -424294.2840         0.0000         0.0000         0.0000     2.3505     2.3596   6   7   0.0111   0.0115   0.0077  -0.0078  -0.0024   0.0075   0.00    0.0
2016/06/27 01:34:00.000  -4387891.0116    733420.8301  -4555176.1038   -429197.9651         0.0000         0.0000         0.0000     2.3505     2.3456   6   7   0.0110   0.0115   0.0076  -0.0078  -0.0024   0.0074   0.00    0.0
2016/06/27 01:34:30.000  -4387891.0120    733420.8303  -4555176.1038   -434103.3111         0.0000         0.0000         0.0000     2.3504     2.3317   6   7   0.0109   0.0114   0.0076  -0.0078  -0.0023   0.0074   0.00    0.0
2016/06/27 01:35:00.000  -4387891.0121    733420.8304  -4555176.1039   -439008.2532         0.0000         0.0000         0.0000     2.3502     2.3180   6   7   0.0109   0.0114   0.0075  -0.0077  -0.0023   0.0073   0.00    0.0
2016/06/27 01:35:30.000  -4387891.0124    733420.8305  -4555176.1040   -443921.1053         0.0000         0.0000         0.0000     2.3501     2.3044   6   7   0.0108   0.0114   0.0075  -0.0077  -0.0022   0.0073   0.00    0.0
2016/06/27 01:36:00.000  -4387891.0119    733420.8300  -4555176.1039   -448835.2899         0.0000         0.0000         0.0000     2.3503     2.2908   6   7   0.0107   0.0114   0.0075  -0.0077  -0.0022   0.0072   0.00    0.0
2016/06/27 01:36:30.000  -4387891.0119    733420.8305  -4555176.1036   -453747.4742         0.0000         0.0000         0.0000     2.3502     2.2775   6   7   0.0107   0.0113   0.0074  -0.0076  -0.0022   0.0072   0.00    0.0
2016/06/27 01:37:00.000  -4387891.0118    733420.8307  -4555176.1035   -458657.6756         0.0000         0.0000         0.0000     2.3504     2.2642   6   7   0.0106   0.0113   0.0074  -0.0076  -0.0021   0.0071   0.00    0.0
2016/06/27 01:37:30.000  -4387891.0120    733420.8306  -4555176.1035   -463567.7058         0.0000         0.0000         0.0000     2.3505     2.2511   6   7   0.0105   0.0113   0.0073  -0.0076  -0.0021   0.0071   0.00    0.0
2016/06/27 01:38:00.000  -4387891.0116    733420.8311  -4555176.1029   -468477.4446         0.0000         0.0000         0.0000     2.3509     2.2381   6   7   0.0105   0.0112   0.0073  -0.0075  -0.0020   0.0071   0.00    0.0
2016/06/27 01:38:30.000  -4387891.0114    733420.8310  -4555176.1028   -473388.0403         0.0000         0.0000         0.0000     2.3511     2.2252   6   7   0.0104   0.0112   0.0072  -0.0075  -0.0020   0.0070   0.00    0.0
2016/06/27 01:39:00.000  -4387891.0115    733420.8315  -4555176.1026   -478296.6802         0.0000         0.0000         0.0000     2.3512     2.2125   6   7   0.0104   0.0112   0.0072  -0.0075  -0.0020   0.0070   0.00    0.0
2016/06/27 01:39:30.000  -4387891.0117    733420.8319  -4555176.1025   -483205.6583         0.0000         0.0000         0.0000     2.3512     2.2000   6   7   0.0103   0.0112   0.0072  -0.0074  -0.0019   0.0069   0.00    0.0
2016/06/27 01:40:00.000  -4387891.0114    733420.8324  -4555176.1021   -488115.1037         0.0000         0.0000         0.0000     2.3514     2.1876   6   7   0.0102   0.0111   0.0071  -0.0074  -0.0019   0.0069   0.00    0.0
2016/06/27 01:40:30.000  -4387891.0114    733420.8323  -4555176.1020   -493026.1124         0.0000         0.0000         0.0000     2.3514     2.1753   6   7   0.0102   0.0111   0.0071  -0.0074  -0.0019   0.0069   0.00    0.0
2016/06/27 01:41:00.000  -4387891.0112    733420.8321  -4555176.1021   -497934.7929         0.0000         0.0000         0.0000     2.3514     2.1632   6   7   0.0101   0.0111   0.0070  -0.0074  -0.0019   0.0068   0.00    0.0
2016/06/27 01:41:30.000  -4387891.0115    733420.8323  -4555176.1021    497157.1676         0.0000         0.0000         0.0000     2.3515     2.0653   6   8   0.0101   0.0110   0.0070  -0.0073  -0.0018   0.0068   0.00    0.0
2016/06/27 01:42:00.000  -4387891.0117    733420.8330  -4555176.1020    492248.2435         0.0000         0.0000         0.0000     2.3517     2.0529   6   8   0.0100   0.0110   0.0070  -0.0073  -0.0018   0.0068   0.00    0.0
2016/06/27 01:42:30.000  -4387891.0117    733420.8332  -4555176.1019    487338.5705         0.0000         0.0000         0.0000     2.3517     2.0407   6   8   0.0100   0.0110   0.0069  -0.0073  -0.0018   0.0067   0.00    0.0
2016/06/27 01:43:00.000  -4387891.0113    733420.8335  -4555176.1016    482426.2327         0.0000         0.0000         0.0000     2.3517     2.0286   6   8   0.0099   0.0109   0.0069  -0.0072  -0.0018   0.0067   0.00    0.0
2016/06/27 01:43:30.000  -4387891.0113    733420.8334  -4555176.1017    477513.8564         0.0000         0.0000         0.0000     2.3517     2.0168   6   8   0.0098   0.0109   0.0068  -0.0072  -0.0018   0.0066   0.00    0.0
2016/06/27 01:44:00.000  -4387891.0112    733420.8335  -4555176.1015    472600.4807         0.0000         0.0000         0.0000     2.3519     2.0051   6   8   0.0098   0.0109   0.0068  -0.0072  -0.0018   0.0066   0.00    0.0
2016/06/27 01:44:30.000  -4387891.0112    733420.8339  -4555176.1013    467693.3636         0.0000         0.0000         0.0000     2.3519     1.9935   6   8   0.0097   0.0108   0.0068  -0.0072  -0.0018   0.0066   0.00    0.0
2016/06/27 01:45:00.000  -4387891.0107    733420.8344  -4555176.1008    462785.6453         0.0000         0.0000         0.0000     2.3521     1.9822   6   8   0.0097   0.0108   0.0067  -0.0071  -0.0018   0.0065   0.00    0.0
2016/06/27 01:45:30.000  -4387891.0110    733420.8348  -4555176.1007    457874.1361         0.0000         0.0000         0.0000     2.3522     2.8113   6   7   0.0097   0.0108   0.0067  -0.0071  -0.0018   0.0065   0.00    0.0
2016/06/27 01:46:00.000  -4387891.0111    733420.8350  -4555176.1006    452963.9897         0.0000         0.0000         0.0000     2.3522     2.8029   6   7   0.0096   0.0107   0.0067  -0.0071  -0.0018   0.0065   0.00    0.0
2016/06/27 01:46:30.000  -4387891.0111    733420.8350  -4555176.1005    448054.3648         0.0000         0.0000         0.0000     2.3523     1.5576   6   8   0.0096   0.0107   0.0066  -0.0070  -0.0018   0.0065   0.00    0.0
2016/06/27 01:47:00.000  -4387891.0114    733420.8353  -4555176.1006    443145.5241         0.0000         0.0000         0.0000     2.3524     1.5597   6   8   0.0096   0.0107   0.0066  -0.0070  -0.0018   0.0065   0.00    0.0
2016/06/27 01:47:30.000  -4387891.0118    733420.8360  -4555176.1005    438238.8748         0.0000         0.0000         0.0000     2.3524     1.5617   6   8   0.0095   0.0106   0.0066  -0.0070  -0.0018   0.0065   0.00    0.0
2016/06/27 01:48:00.000  -4387891.0118    733420.8361  -4555176.1005    433335.6646         0.0000         0.0000         0.0000     2.3525     1.5638   6   8   0.0095   0.0106   0.0066  -0.0069  -0.0018   0.0065   0.00    0.0
2016/06/27 01:48:30.000  -4387891.0119    733420.8361  -4555176.1006    428434.4681         0.0000         0.0000         0.0000     2.3525     1.5659   6   8   0.0095   0.0106   0.0065  -0.0069  -0.0018   0.0064   0.00    0.0
2016/06/27 01:49:00.000  -4387891.0117    733420.8360  -4555176.1006    423536.3144         0.0000         0.0000         0.0000     2.3524     1.5679   6   8   0.0094   0.0105   0.0065  -0.0069  -0.0018   0.0064   0.00    0.0
2016/06/27 01:49:30.000  -4387891.0115    733420.8359  -4555176.1006    418643.3614         0.0000         0.0000         0.0000     2.3523     1.5700   6   8   0.0094   0.0105   0.0065  -0.0069  -0.0018   0.0064   0.00    0.0
2016/06/27 01:50:00.000  -4387891.0115    733420.8360  -4555176.1006    413744.3595         0.0000         0.0000         0.0000     2.3523     1.5720   6   8   0.0094   0.0104   0.0065  -0.0068  -0.0018   0.0064   0.00    0.0
2016/06/27 01:50:30.000  -4387891.0115    733420.8361  -4555176.1005    408849.7549         0.0000         0.0000         0.0000     2.3522     1.5740   6   8   0.0094   0.0104   0.0065  -0.0068  -0.0018   0.0064   0.00    0.0
2016/06/27 01:51:00.000  -4387891.0115    733420.8362  -4555176.1005    403956.6901         0.0000         0.0000         0.0000     2.3521     1.5760   6   8   0.0093   0.0104   0.0064  -0.0068  -0.0018   0.0064   0.00    0.0
2016/06/27 01:51:30.000  -4387891.0117    733420.8366  -4555176.1004    399063.8740         0.0000         0.0000         0.0000     2.3522     1.5780   6   8   0.0093   0.0103   0.0064  -0.0067  -0.0019   0.0064   0.00    0.0
2016/06/27 01:52:00.000  -4387891.0120    733420.8370  -4555176.1004    394169.8685         0.0000         0.0000         0.0000     2.3523     1.5800   6   8   0.0093   0.0103   0.0064  -0.0067  -0.0019   0.0064   0.00    0.0
2016/06/27 01:52:30.000  -4387891.0122    733420.8372  -4555176.1004    389277.4895         0.0000         0.0000         0.0000     2.3524     1.5819   6   8   0.0093   0.0102   0.0064  -0.0067  -0.0019   0.0064   0.00    0.0
2016/06/27 01:53:00.000  -4387891.0126    733420.8379  -4555176.1004    384392.0237         0.0000         0.0000         0.0000     2.3525     1.5839   6   8   0.0092   0.0102   0.0064  -0.0066  -0.0019   0.0064   0.00    0.0
2016/06/27 01:53:30.000  -4387891.0128    733420.8383  -4555176.1005    379510.9685         0.0000         0.0000         0.0000     2.3527     1.5858   6   8   0.0092   0.0101   0.0063  -0.0066  -0.0019   0.0064   0.00    0.0
2016/06/27 01:54:00.000  -4387891.0128    733420.8384  -4555176.1005    374629.4842         0.0000         0.0000         0.0000     2.3526     1.5877   6   8   0.0092   0.0101   0.0063  -0.0066  -0.0019   0.0064   0.00    0.0
2016/06/27 01:54:30.000  -4387891.0128    733420.8386  -4555176.1005    369749.2862         0.0000         0.0000         0.0000     2.3527     1.5896   6   8   0.0092   0.0100   0.0063  -0.0065  -0.0020   0.0064   0.00    0.0
2016/06/27 01:55:00.000  -4387891.0131    733420.8392  -4555176.1005    364868.5879         0.0000         0.0000         0.0000     2.3527     1.5915   6   8   0.0092   0.0100   0.0063  -0.0065  -0.0020   0.0064   0.00    0.0
2016/06/27 01:55:30.000  -4387891.0129    733420.8389  -4555176.1005    359987.9181         0.0000         0.0000         0.0000     2.3527     1.5933   6   8   0.0091   0.0100   0.0063  -0.0065  -0.0020   0.0064   0.00    0.0
2016/06/27 01:56:00.000  -4387891.0129    733420.8388  -4555176.1004    355106.9722         0.0000         0.0000         0.0000     2.3529     1.5952   6   8   0.0091   0.0099   0.0063  -0.0064  -0.0020   0.0064   0.00    0.0
2016/06/27 01:56:30.000  -4387891.0130    733420.8391  -4555176.1004    350232.5841         0.0000         0.0000         0.0000     2.3530     1.5970   6   8   0.0091   0.0099   0.0062  -0.0064  -0.0021   0.0064   0.00    0.0
2016/06/27 01:57:00.000  -4387891.0134    733420.8397  -4555176.1004    345360.1254         0.0000         0.0000         0.0000     2.3533     1.5988   6   8   0.0091   0.0098   0.0062  -0.0064  -0.0021   0.0064   0.00    0.0
2016/06/27 01:57:30.000  -4387891.0134    733420.8395  -4555176.1005    340492.6307         0.0000         0.0000         0.0000     2.3532     1.6006   6   8   0.0091   0.0098   0.0062  -0.0063  -0.0021   0.0064   0.00    0.0
2016/06/27 01:58:00.000  -4387891.0135    733420.8395  -4555176.1006    335625.2245         0.0000         0.0000         0.0000     2.3534     1.6023   6   8   0.0091   0.0097   0.0062  -0.0063  -0.0021   0.0064   0.00    0.0
2016/06/27 01:58:30.000  -4387891.0139    733420.8401  -4555176.1005    330763.9015         0.0000         0.0000         0.0000     2.3536     1.6040   6   8   0.0091   0.0097   0.0062  -0.0063  -0.0022   0.0064   0.00    0.0
2016/06/27 01:59:00.000  -4387891.0139    733420.8397  -4555176.1006    325906.4448         0.0000         0.0000         0.0000     2.3538     1.6057   6   8   0.0090   0.0096   0.0062  -0.0063  -0.0022   0.0064   0.00    0.0
2016/06/27 01:59:30.000  -4387891.0141    733420.8402  -4555176.1005    321049.0512         0.0000         0.0000         0.0000     2.3543     1.6074   6   8   0.0090   0.0096   0.0061  -0.0062  -0.0022   0.0064   0.00    0.0
2016/06/27 02:00:00.000  -4387891.0145    733420.8410  -4555176.1005    316195.4362         0.0000         0.0000         0.0000     2.3545     1.6091   6   8   0.0090   0.0095   0.0061  -0.0062  -0.0022   0.0064   0.00    0.0
2016/06/27 02:00:30.000  -4387891.0144    733420.8408  -4555176.1005    311341.1706         0.0000         0.0000         0.0000     2.3547     1.6107   6   8   0.0090   0.0095   0.0061  -0.0062  -0.0023   0.0064   0.00    0.0
2016/06/27 02:01:00.000  -4387891.0145    733420.8411  -4555176.1005    306492.8010         0.0000         0.0000         0.0000     2.3548     1.6123   6   8   0.0090   0.0094   0.0061  -0.0061  -0.0023   0.0064   0.00    0.0
2016/06/27 02:01:30.000  -4387891.0145    733420.8410  -4555176.1006    301640.0876         0.0000         0.0000         0.0000     2.3549     1.6138   6   8   0.0090   0.0094   0.0061  -0.0061  -0.0023   0.0064   0.00    0.0
2016/06/27 02:02:00.000  -4387891.0147    733420.8415  -4555176.1006    296789.5082         0.0000         0.0000         0.0000     2.3550     1.6154   6   8   0.0090   0.0093   0.0061  -0.0061  -0.0024   0.0064   0.00    0.0
2016/06/27 02:02:30.000  -4387891.0147    733420.8413  -4555176.1007    291940.9486         0.0000         0.0000         0.0000     2.3548     1.6169   6   8   0.0090   0.0093   0.0061  -0.0061  -0.0024   0.0064   0.00    0.0
2016/06/27 02:03:00.000  -4387891.0149    733420.8418  -4555176.1007    287093.8231         0.0000         0.0000         0.0000     2.3547     1.6184   6   8   0.0089   0.0092   0.0060  -0.0060  -0.0024   0.0064   0.00    0.0
2016/06/27 02:03:30.000  -4387891.0152    733420.8421  -4555176.1008    282244.2879         0.0000         0.0000         0.0000     2.3546     1.6198   6   8   0.0089   0.0092   0.0060  -0.0060  -0.0025   0.0064   0.00    0.0
2016/06/27 02:04:00.000  -4387891.0152    733420.8422  -4555176.1007    277398.7543         0.0000         0.0000         0.0000     2.3546     1.6212   6   8   0.0089   0.0091   0.0060  -0.0060  -0.0025   0.0064   0.00    0.0
2016/06/27 02:04:30.000  -4387891.0153    733420.8424  -4555176.1007    272551.9593         0.0000         0.0000         0.0000     2.3546     1.5318   6   9   0.0089   0.0091   0.0060  -0.0060  -0.0025   0.0064   0.00    0.0
2016/06/27 02:05:00.000  -4387891.0156    733420.8426  -4555176.1009    267704.9272         0.0000         0.0000         0.0000     2.3544     1.5344   6   9   0.0089   0.0090   0.0060  -0.0059  -0.0025   0.0064   0.00    0.0
2016/06/27 02:05:30.000  -4387891.0161    733420.8436  -4555176.1008    262859.9471         0.0000         0.0000         0.0000     2.3545     1.5369   6   9   0.0089   0.0090   0.0060  -0.0059  -0.0026   0.0064   0.00    0.0
2016/06/27 02:06:00.000  -4387891.0160    733420.8437  -4555176.1008    258017.1215         0.0000         0.0000         0.0000     2.3545     1.5395   6   9   0.0089   0.0089   0.0059  -0.0059  -0.0026   0.0064   0.00    0.0
2016/06/27 02:06:30.000  -4387891.0165    733420.8451  -4555176.1006    253172.0406         0.0000         0.0000         0.0000     2.3549     1.5419   6   9   0.0089   0.0089   0.0059  -0.0059  -0.0026   0.0064   0.00    0.0
2016/06/27 02:07:00.000  -4387891.0170    733420.8466  -4555176.1004    248328.3757         0.0000         0.0000         0.0000     2.3550     1.5443   6   9   0.0089   0.0088   0.0059  -0.0058  -0.0027   0.0064   0.00    0.0
2016/06/27 02:07:30.000  -4387891.0173    733420.8473  -4555176.1002    243487.4595         0.0000         0.0000         0.0000     2.3552     1.5467   6   9   0.0088   0.0088   0.0059  -0.0058  -0.0027   0.0064   0.00    0.0
2016/06/27 02:08:00.000  -4387891.0173    733420.8476  -4555176.1002    238645.9438         0.0000         0.0000         0.0000     2.3552     1.5490   6   9   0.0088   0.0087   0.0059  -0.0058  -0.0027   0.0064   0.00    0.0
2016/06/27 02:08:30.000  -4387891.0175    733420.8478  -4555176.1001    233805.2788         0.0000         0.0000         0.0000     2.3550     1.5513   6   9   0.0088   0.0087   0.0059  -0.0058  -0.0027   0.0064   0.00    0.0
2016/06/27 02:09:00.000  -4387891.0177    733420.8481  -4555176.1000    228965.4875         0.0000         0.0000         0.0000     2.3554     1.5535   6   9   0.0088   0.0086   0.0059  -0.0058  -0.0028   0.0064   0.00    0.0
2016/06/27 02:09:30.000  -4387891.0176    733420.8480  -4555176.0999    224127.0525         0.0000         0.0000         0.0000     2.3557     1.5556   6   9   0.0088   0.0086   0.0058  -0.0057  -0.0028   0.0064   0.00    0.0
2016/06/27 02:10:00.000  -4387891.0174    733420.8477  -4555176.0999    219291.6315         0.0000         0.0000         0.0000     2.3557     1.5577   6   9   0.0088   0.0085   0.0058  -0.0057  -0.0028   0.0064   0.00    0.0
2016/06/27 02:10:30.000  -4387891.0176    733420.8481  -4555176.0998    214454.8292         0.0000         0.0000         0.0000     2.3556     1.5597   6   9   0.0088   0.0085   0.0058  -0.0057  -0.0029   0.0064   0.00    0.0
2016/06/27 02:11:00.000  -4387891.0176    733420.8483  -4555176.0998    209618.5040         0.0000         0.0000         0.0000     2.3557     1.5617   6   9   0.0088   0.0084   0.0058  -0.0057  -0.0029   0.0064   0.00    0.0
