%  GPST                      x-ecef(m)      y-ecef(m)      z-ecef(m)   Q  ns   sdx(m)   sdy(m)   sdz(m)  sdxy(m)  sdyz(m)  sdzx(m) age(s)  ratio
2016/06/27 00:00:00.000   5633710.4048   1732019.1701  -2433986.4196   -402637.3952         0.0000         0.0000         0.0000     1.9826     1.5487   6   9   2.3532   1.3999   2.0021   0.9825  -0.7184  -1.3127   0.00    0.0
2016/06/27 00:00:30.000   5633708.8820   1732018.5635  -2433986.1518   -401599.7043         0.0000         0.0000         0.0000     1.9857     1.5507   6   9   1.6253   0.9824   1.3122   0.6724  -0.4974  -0.9254   0.00    0.0
2016/06/27 00:01:00.000   5633708.6365   1732017.8732  -2433985.7127   -400568.6301         0.0000         0.0000         0.0000     1.9841     1.5529   6   9   1.2768   0.7923   0.9695   0.5192  -0.3920  -0.7426   0.00    0.0
2016/06/27 00:01:30.000   5633708.7202   1732018.0975  -2433985.7210   -399541.9883         0.0000         0.0000         0.0000     1.9682     1.5551   6   9   1.0557   0.6758   0.7573   0.4198  -0.3260  -0.6270   0.00    0.0
2016/06/27 00:02:00.000   5633708.6486   1732017.9578  -2433985.7546   -398523.6959         0.0000         0.0000         0.0000     1.9555     1.5573   6   9   0.8992   0.5945   0.6153   0.3487  -0.2801  -0.5447   0.00    0.0
2016/06/27 00:02:30.000   5633708.2933   1732017.7965  -2433985.6742   -397508.8294         0.0000         0.0000         0.0000     1.9552     1.5597   6   9   0.7818   0.5332   0.5153   0.2957  -0.2463  -0.4821   0.00    0.0
2016/06/27 00:03:00.000   5633708.4495   1732017.8897  -2433985.6711   -396490.3499         0.0000         0.0000         0.0000     1.9514     1.5621   6   9   0.6900   0.4846   0.4419   0.2547  -0.2202  -0.4321   0.00    0.0
2016/06/27 00:03:30.000   5633708.5839   1732017.8817  -2433985.6759   -395481.3119         0.0000         0.0000         0.0000     1.9377     1.5646   6   9   0.6156   0.4447   0.3856   0.2219  -0.1990  -0.3905   0.00    0.0
2016/06/27 00:04:00.000   5633708.7279   1732017.9810  -2433985.7009   -394478.5524         0.0000         0.0000         0.0000     1.9266     1.5671   6   9   0.5537   0.4109   0.3409   0.1947  -0.1811  -0.3549   0.00    0.0
2016/06/27 00:04:30.000   5633708.7222   1732017.9087  -2433985.6611   -393474.5623         0.0000         0.0000         0.0000     1.9391     1.5698   6   9   0.5011   0.3817   0.3044   0.1716  -0.1656  -0.3237   0.00    0.0
2016/06/27 00:05:00.000   5633708.7225   1732018.0304  -2433985.6660   -392467.7325         0.0000         0.0000         0.0000     1.9392     1.5725   6   9   0.4558   0.3561   0.2738   0.1515  -0.1518  -0.2961   0.00    0.0
2016/06/27 00:05:30.000   5633708.7544   1732018.0554  -2433985.6743   -391457.7685         0.0000         0.0000         0.0000     1.9242     1.5753   6   9   0.4163   0.3333   0.2479   0.1336  -0.1394  -0.2716   0.00    0.0
2016/06/27 00:06:00.000   5633708.7644   1732018.0858  -2433985.6648   -390442.5764         0.0000         0.0000         0.0000     1.9239     1.5781   6   9   0.3817   0.3128   0.2256   0.1177  -0.1283  -0.2498   0.00    0.0
2016/06/27 00:06:30.000   5633708.7707   1732018.1659  -2433985.6649   -389427.4916         0.0000         0.0000         0.0000     1.9219     1.5811   6   9   0.3512   0.2942   0.2062   0.1033  -0.1182  -0.2303   0.00    0.0
2016/06/27 00:07:00.000   5633708.8472   1732018.1916  -2433985.6765   -388406.3396         0.0000         0.0000         0.0000     1.9121     1.5841   6   9   0.3242   0.2774   0.1893   0.0901  -0.1090  -0.2129   0.00    0.0
2016/06/27 00:07:30.000   5633708.8493   1732018.1358  -2433985.6639   -387385.4206         0.0000         0.0000         0.0000     1.9143     1.5872   6   9   0.3003   0.2620   0.1744   0.0781  -0.1007  -0.1974   0.00    0.0
2016/06/27 00:08:00.000   5633708.8399   1732018.1367  -2433985.6544   -386360.9035         0.0000         0.0000         0.0000     1.9240     1.5904   6   9   0.2790   0.2479   0.1612   0.0669  -0.0931  -0.1834   0.00    0.0
2016/06/27 00:08:30.000   5633708.8390   1732018.1195  -2433985.6491   -385328.7422         0.0000         0.0000         0.0000     1.9323     1.5936   6   9   0.2600   0.2349   0.1496   0.0564  -0.0862  -0.1709   0.00    0.0
2016/06/27 00:09:00.000   5633708.8279   1732018.1319  -2433985.6387   -384293.9145         0.0000         0.0000         0.0000     1.9360     1.5970   6   9   0.2430   0.2229   0.1392   0.0463  -0.0800  -0.1596   0.00    0.0
2016/06/27 00:09:30.000   5633708.8235   1732018.1334  -2433985.6299   -383255.5825         0.0000         0.0000         0.0000     1.9385     1.6004   6   9   0.2277   0.2119   0.1299   0.0362  -0.0742  -0.1495   0.00    0.0
2016/06/27 00:10:00.000   5633708.8083   1732018.1329  -2433985.6171   -382211.0523         0.0000         0.0000         0.0000     1.9462     1.6039   6   9   0.2139   0.2016   0.1215   0.0255  -0.0690  -0.1403   0.00    0.0
2016/06/27 00:10:30.000   5633708.7775   1732018.1160  -2433985.6027   -381159.0956         0.0000         0.0000         0.0000     1.9487     1.6075   6   9   0.2014   0.1922   0.1140   0.0112  -0.0642  -0.1320   0.00    0.0
2016/06/27 00:11:00.000   5633708.7535   1732018.1299  -2433985.5891   -380100.3285         0.0000         0.0000         0.0000     1.9500     1.6112   6   9   0.1901   0.1833   0.1072  -0.0172  -0.0597  -0.1244   0.00    0.0
2016/06/27 00:11:30.000   5633708.7473   1732018.1250  -2433985.5883   -379035.0298         0.0000         0.0000         0.0000     1.9514     1.6150   6   9   0.1798   0.1751   0.1010  -0.0250  -0.0557  -0.1175   0.00    0.0
2016/06/27 00:12:00.000   5633708.7493   1732018.1097  -2433985.5837   -377964.4091         0.0000         0.0000         0.0000     1.9516     1.6188   6   9   0.1704   0.1675   0.0954  -0.0298  -0.0519  -0.1112   0.00    0.0
2016/06/27 00:12:30.000   5633708.7429   1732018.0926  -2433985.5738   -376887.0850         0.0000         0.0000         0.0000     1.9530     1.6227   6   9   0.1618   0.1604   0.0903  -0.0330  -0.0484  -0.1055   0.00    0.0
2016/06/27 00:13:00.000   5633708.7443   1732018.0477  -2433985.5679   -375802.9734         0.0000         0.0000         0.0000     1.9586     1.6268   6   9   0.1539   0.1537   0.0856  -0.0354  -0.0452  -0.1002   0.00    0.0
2016/06/27 00:13:30.000   5633708.7498   1732018.0177  -2433985.5641   -374724.3686         0.0000         0.0000         0.0000     1.9613     1.6309   6   9   0.1467   0.1475   0.0813  -0.0370  -0.0423  -0.0953   0.00    0.0
2016/06/27 00:14:00.000   5633708.7529   1732017.9975  -2433985.5612   -373651.5323         0.0000         0.0000         0.0000     1.9641     1.6351   6   9   0.1400   0.1417   0.0773  -0.0382  -0.0395  -0.0909   0.00    0.0
2016/06/27 00:14:30.000   5633708.7583   1732017.9831  -2433985.5618   -372578.2143         0.0000         0.0000         0.0000     1.9647     1.6393   6   9   0.1338   0.1362   0.0737  -0.0391  -0.0369  -0.0867   0.00    0.0
2016/06/27 00:15:00.000   5633708.7664   1732017.9748  -2433985.5660   -371511.6305         0.0000         0.0000         0.0000     1.9612     1.6437   6   9   0.1281   0.1310   0.0703  -0.0397  -0.0345  -0.0829   0.00    0.0
2016/06/27 00:15:30.000   5633708.7736   1732017.9688  -2433985.5663   -370446.8323         0.0000         0.0000         0.0000     1.9575     1.6482   6   9   0.1228   0.1262   0.0672  -0.0400  -0.0323  -0.0793   0.00    0.0
2016/06/27 00:16:00.000   5633708.7821   1732017.9789  -2433985.5713   -369385.6874         0.0000         0.0000         0.0000     1.9533     1.6527   6   9   0.1178   0.1216   0.0643  -0.0402  -0.0302  -0.0760   0.00    0.0
2016/06/27 00:16:30.000   5633708.7918   1732017.9737  -2433985.5736   -368330.7034         0.0000         0.0000         0.0000     1.9504     1.6574   6   9   0.1132   0.1173   0.0616  -0.0403  -0.0282  -0.0730   0.00    0.0
2016/06/27 00:17:00.000   5633708.7958   1732017.9724  -2433985.5757   -367275.2312         0.0000         0.0000         0.0000     1.9468     1.6621   6   9   0.1089   0.1133   0.0590  -0.0402  -0.0263  -0.0701   0.00    0.0
2016/06/27 00:17:30.000   5633708.7973   1732017.9789  -2433985.5769   -366226.3536         0.0000         0.0000         0.0000     1.9430     1.6670   6   9   0.1049   0.1095   0.0567  -0.0401  -0.0246  -0.0674   0.00    0.0
2016/06/27 00:18:00.000   5633708.8013   1732017.9824  -2433985.5770   -365186.3282         0.0000         0.0000         0.0000     1.9400     1.6719   6   9   0.1011   0.1059   0.0545  -0.0399  -0.0229  -0.0649   0.00    0.0
2016/06/27 00:18:30.000   5633708.7962   1732017.9945  -2433985.5762   -364154.3029         0.0000         0.0000         0.0000     1.9379     1.6769   6   9   0.0975   0.1024   0.0524  -0.0397  -0.0213  -0.0625   0.00    0.0
2016/06/27 00:19:00.000   5633708.7862   1732017.9952  -2433985.5737   -363134.1416         0.0000         0.0000         0.0000     1.9371     1.6820   6   9   0.0942   0.0992   0.0505  -0.0394  -0.0198  -0.0603   0.00    0.0
2016/06/27 00:19:30.000   5633708.7801   1732017.9991  -2433985.5715   -362123.6458         0.0000         0.0000         0.0000     1.9368     1.6873   6   9   0.0911   0.0961   0.0487  -0.0390  -0.0184  -0.0582   0.00    0.0
2016/06/27 00:20:00.000   5633708.7788   1732017.9953  -2433985.5700   -361112.4000         0.0000         0.0000         0.0000     1.9352     1.6926   6   9   0.0881   0.0932   0.0470  -0.0387  -0.0171  -0.0563   0.00    0.0
2016/06/27 00:20:30.000   5633708.7724   1732017.9955  -2433985.5677   -360116.2802         0.0000         0.0000         0.0000     1.9355     1.6980   6   9   0.0853   0.0904   0.0454  -0.0383  -0.0158  -0.0544   0.00    0.0
2016/06/27 00:21:00.000   5633708.7659   1732017.9957  -2433985.5646   -359116.4533         0.0000         0.0000         0.0000     1.9366     1.7035   6   9   0.0827   0.0878   0.0438  -0.0379  -0.0145  -0.0527   0.00    0.0
2016/06/27 00:21:30.000   5633708.7595   1732017.9970  -2433985.5631   -358126.7348         0.0000         0.0000         0.0000     1.9387     1.7091   6   9   0.0802   0.0852   0.0424  -0.0375  -0.0133  -0.0510   0.00    0.0
2016/06/27 00:22:00.000   5633708.7610   1732017.9956  -2433985.5635   -357137.2046         0.0000         0.0000         0.0000     1.9394     1.7148   6   9   0.0778   0.0828   0.0411  -0.0371  -0.0121  -0.0494   0.00    0.0
2016/06/27 00:22:30.000   5633708.7594   1732017.9861  -2433985.5617   -356144.1711         0.0000         0.0000         0.0000     1.9414     1.7206   6   9   0.0756   0.0805   0.0398  -0.0366  -0.0109  -0.0480   0.00    0.0
2016/06/27 00:23:00.000   5633708.7590   1732017.9887  -2433985.5605   -355155.1290         0.0000         0.0000         0.0000     1.9419     1.7265   6   9   0.0734   0.0784   0.0385  -0.0362  -0.0098  -0.0465   0.00    0.0
2016/06/27 00:23:30.000   5633708.7577   1732017.9926  -2433985.5607   -354158.5490         0.0000         0.0000         0.0000     1.9425     1.7324   6   9   0.0714   0.0763   0.0374  -0.0357  -0.0086  -0.0452   0.00    0.0
2016/06/27 00:24:00.000   5633708.7545   1732017.9897  -2433985.5580   -353162.9692         0.0000         0.0000         0.0000     1.9437     1.7385   6   9   0.0695   0.0743   0.0363  -0.0353  -0.0074  -0.0439   0.00    0.0
2016/06/27 00:24:30.000   5633708.7568   1732017.9872  -2433985.5584   -352163.4128         0.0000         0.0000         0.0000     1.9445     1.7447   6   9   0.0676   0.0724   0.0353  -0.0348  -0.0062  -0.0427   0.00    0.0
2016/06/27 00:25:00.000   5633708.7611   1732017.9903  -2433985.5604   -351163.9982         0.0000         0.0000         0.0000     1.9440     1.4860   6  10   0.0659   0.0705   0.0343  -0.0344  -0.0049  -0.0416   0.00    0.0
2016/06/27 00:25:30.000   5633708.7620   1732017.9914  -2433985.5609   -350156.8485         0.0000         0.0000         0.0000     1.9438     1.4887   6  10   0.0642   0.0688   0.0333  -0.0339  -0.0032  -0.0405   0.00    0.0
2016/06/27 00:26:00.000   5633708.7641   1732017.9915  -2433985.5617   -349138.8757         0.0000         0.0000         0.0000     1.9438     1.4915   6  10   0.0626   0.0671   0.0324  -0.0335   0.0013  -0.0394   0.00    0.0
2016/06/27 00:26:30.000   5633708.7644   1732017.9924  -2433985.5608   -348118.1372         0.0000         0.0000         0.0000     1.9437     1.4943   6  10   0.0610   0.0654   0.0315  -0.0330   0.0035  -0.0384   0.00    0.0
2016/06/27 00:27:00.000   5633708.7710   1732017.9809  -2433985.5620   -347096.4685         0.0000         0.0000         0.0000     1.9435     1.4972   6  10   0.0596   0.0639   0.0307  -0.0326   0.0047  -0.0374   0.00    0.0
2016/06/27 00:27:30.000   5633708.7697   1732017.9758  -2433985.5598   -346067.6311         0.0000         0.0000         0.0000     1.9443     1.5002   6  10   0.0582   0.0624   0.0299  -0.0322   0.0055  -0.0365   0.00    0.0
2016/06/27 00:28:00.000   5633708.7715   1732017.9752  -2433985.5589   -345032.5226         0.0000         0.0000         0.0000     1.9434     1.5032   6  10   0.0568   0.0609   0.0292  -0.0318   0.0062  -0.0356   0.00    0.0
2016/06/27 00:28:30.000   5633708.7746   1732017.9752  -2433985.5593   -343991.4710         0.0000         0.0000         0.0000     1.9432     1.5062   6  10   0.0555   0.0595   0.0285  -0.0313   0.0067  -0.0348   0.00    0.0
2016/06/27 00:29:00.000   5633708.7822   1732017.9733  -2433985.5621   -342937.3527         0.0000         0.0000         0.0000     1.9420     1.5093   6  10   0.0543   0.0582   0.0278  -0.0309   0.0071  -0.0340   0.00    0.0
2016/06/27 00:29:30.000   5633708.7875   1732017.9734  -2433985.5632   -341879.4558         0.0000         0.0000         0.0000     1.9406     1.5124   6  10   0.0531   0.0569   0.0271  -0.0305   0.0075  -0.0332   0.00    0.0
2016/06/27 00:30:00.000   5633708.7904   1732017.9778  -2433985.5638   -340820.1776         0.0000         0.0000         0.0000     1.9396     1.5156   6  10   0.0519   0.0557   0.0265  -0.0301   0.0078  -0.0325   0.00    0.0
2016/06/27 00:30:30.000   5633708.7920   1732017.9814  -2433985.5639   -339747.0515         0.0000         0.0000         0.0000     1.9395     1.5189   6  10   0.0508   0.0545   0.0259  -0.0297   0.0081  -0.0317   0.00    0.0
2016/06/27 00:31:00.000   5633708.7947   1732017.9833  -2433985.5641   -338665.8027         0.0000         0.0000         0.0000     1.9392     1.5221   6  10   0.0497   0.0533   0.0253  -0.0294   0.0083  -0.0311   0.00    0.0
2016/06/27 00:31:30.000   5633708.7989   1732017.9831  -2433985.5648   -337583.6131         0.0000         0.0000         0.0000     1.9386     1.5255   6  10   0.0487   0.0522   0.0247  -0.0290   0.0085  -0.0304   0.00    0.0
2016/06/27 00:32:00.000   5633708.8003   1732017.9856  -2433985.5650   -336508.3127         0.0000         0.0000         0.0000     1.9383     1.5289   6  10   0.0477   0.0511   0.0242  -0.0286   0.0087  -0.0297   0.00    0.0
2016/06/27 00:32:30.000   5633708.7995   1732017.9883  -2433985.5644   -335428.0528         0.0000         0.0000         0.0000     1.9384     1.5323   6  10   0.0468   0.0501   0.0236  -0.0283   0.0088  -0.0291   0.00    0.0
2016/06/27 00:33:00.000   5633708.8000   1732017.9905  -2433985.5646   -334353.7083         0.0000         0.0000         0.0000     1.9382     1.5358   6  10   0.0458   0.0491   0.0231  -0.0279   0.0089  -0.0285   0.00    0.0
2016/06/27 00:33:30.000   5633708.8017   1732017.9899  -2433985.5652   -333280.3797         0.0000         0.0000         0.0000     1.9384     1.5393   6  10   0.0450   0.0481   0.0227  -0.0275   0.0090  -0.0280   0.00    0.0
2016/06/27 00:34:00.000   5633708.8013   1732017.9905  -2433985.5644   -332208.6016         0.0000         0.0000         0.0000     1.9387     1.5429   6  10   0.0441   0.0471   0.0222  -0.0272   0.0091  -0.0274   0.00    0.0
2016/06/27 00:34:30.000   5633708.8021   1732017.9881  -2433985.5646   -331147.5565         0.0000         0.0000         0.0000     1.9390     1.5465   6  10   0.0433   0.0462   0.0217  -0.0269   0.0092  -0.0269   0.00    0.0
2016/06/27 00:35:00.000   5633708.8012   1732017.9854  -2433985.5640   -330092.7716         0.0000         0.0000         0.0000     1.9395     1.5502   6  10   0.0425   0.0453   0.0213  -0.0265   0.0093  -0.0264   0.00    0.0
2016/06/27 00:35:30.000   5633708.8006   1732017.9842  -2433985.5636   -329035.8726         0.0000         0.0000         0.0000     1.9398     1.5539   6  10   0.0417   0.0445   0.0209  -0.0262   0.0093  -0.0259   0.00    0.0
2016/06/27 00:36:00.000   5633708.7991   1732017.9845  -2433985.5627   -327984.8721         0.0000         0.0000         0.0000     1.9398     1.5577   6  10   0.0409   0.0436   0.0205  -0.0259   0.0094  -0.0254   0.00    0.0
2016/06/27 00:36:30.000   5633708.7995   1732017.9833  -2433985.5623   -326934.7863         0.0000         0.0000         0.0000     1.9396     1.5615   6  10   0.0402   0.0428   0.0201  -0.0256   0.0094  -0.0249   0.00    0.0
2016/06/27 00:37:00.000   5633708.8015   1732017.9830  -2433985.5633   -325895.8372         0.0000         0.0000         0.0000     1.9389     1.5653   6  10   0.0395   0.0420   0.0197  -0.0253   0.0094  -0.0245   0.00    0.0
2016/06/27 00:37:30.000   5633708.8000   1732017.9820  -2433985.5626   -324862.9699         0.0000         0.0000         0.0000     1.9393     1.5692   6  10   0.0388   0.0413   0.0193  -0.0250   0.0094  -0.0240   0.00    0.0
2016/06/27 00:38:00.000   5633708.7978   1732017.9827  -2433985.5620   -323841.0588         0.0000         0.0000         0.0000     1.9393     1.5731   6  10   0.0382   0.0405   0.0190  -0.0247   0.0094  -0.0236   0.00    0.0
2016/06/27 00:38:30.000   5633708.7960   1732017.9827  -2433985.5613   -322824.0719         0.0000         0.0000         0.0000     1.9392     1.5771   6  10   0.0375   0.0398   0.0186  -0.0244   0.0095  -0.0232   0.00    0.0
2016/06/27 00:39:00.000   5633708.7961   1732017.9804  -2433985.5611   -321805.7681         0.0000         0.0000         0.0000     1.9392     1.5811   6  10   0.0369   0.0391   0.0183  -0.0241   0.0095  -0.0228   0.00    0.0
2016/06/27 00:39:30.000   5633708.7955   1732017.9785  -2433985.5602   -320794.4585         0.0000         0.0000         0.0000     1.9390     1.5852   6  10   0.0363   0.0384   0.0180  -0.0238   0.0095  -0.0224   0.00    0.0
2016/06/27 00:40:00.000   5633708.7950   1732017.9765  -2433985.5600   -319782.9604         0.0000         0.0000         0.0000     1.9392     1.5893   6  10   0.0357   0.0378   0.0177  -0.0235   0.0094  -0.0220   0.00    0.0
2016/06/27 00:40:30.000   5633708.7932   1732017.9758  -2433985.5594   -318765.9321         0.0000         0.0000         0.0000     1.9393     1.5934   6  10   0.0351   0.0371   0.0174  -0.0233   0.0094  -0.0217   0.00    0.0
2016/06/27 00:41:00.000   5633708.7927   1732017.9778  -2433985.5593   -317743.1809         0.0000         0.0000         0.0000     1.9392     1.5975   6  10   0.0346   0.0365   0.0171  -0.0230   0.0094  -0.0213   0.00    0.0
2016/06/27 00:41:30.000   5633708.7938   1732017.9783  -2433985.5599   -316718.6797         0.0000         0.0000         0.0000     1.9391     1.6017   6  10   0.0341   0.0359   0.0168  -0.0227   0.0094  -0.0210   0.00    0.0
2016/06/27 00:42:00.000   5633708.7937   1732017.9818  -2433985.5601   -315695.9355         0.0000         0.0000         0.0000     1.9391     1.8521   6   9   0.0336   0.0353   0.0165  -0.0225   0.0094  -0.0207   0.00    0.0
2016/06/27 00:42:30.000   5633708.7927   1732017.9828  -2433985.5606   -314669.9646         0.0000         0.0000         0.0000     1.9391     1.8578   6   9   0.0331   0.0347   0.0163  -0.0222   0.0093  -0.0204   0.00    0.0
2016/06/27 00:43:00.000   5633708.7911   1732017.9841  -2433985.5606   -313643.6462         0.0000         0.0000         0.0000     1.9391     1.8636   6   9   0.0326   0.0342   0.0160  -0.0219   0.0093  -0.0201   0.00    0.0
2016/06/27 00:43:30.000   5633708.7913   1732017.9830  -2433985.5608   -312609.9590         0.0000         0.0000         0.0000     1.9391     1.8696   6   9   0.0322   0.0336   0.0158  -0.0217   0.0093  -0.0198   0.00    0.0
2016/06/27 00:44:00.000   5633708.7916   1732017.9829  -2433985.5611   -311572.0149         0.0000         0.0000         0.0000     1.9390     1.8757   6   9   0.0318   0.0331   0.0156  -0.0214   0.0092  -0.0196   0.00    0.0
2016/06/27 00:44:30.000   5633708.7914   1732017.9820  -2433985.5615   -310532.8180         0.0000         0.0000         0.0000     1.9389     1.8819   6   9   0.0313   0.0326   0.0153  -0.0212   0.0092  -0.0193   0.00    0.0
2016/06/27 00:45:00.000   5633708.7902   1732017.9819  -2433985.5617   -309482.6203         0.0000         0.0000         0.0000     1.9389     1.8883   6   9   0.0309   0.0321   0.0151  -0.0210   0.0091  -0.0190   0.00    0.0
2016/06/27 00:45:30.000   5633708.7886   1732017.9827  -2433985.5616   -308421.6277         0.0000         0.0000         0.0000     1.9390     1.8948   6   9   0.0305   0.0316   0.0149  -0.0207   0.0091  -0.0188   0.00    0.0
2016/06/27 00:46:00.000   5633708.7880   1732017.9827  -2433985.5618   -307353.4848         0.0000         0.0000         0.0000     1.9390     1.9014   6   9   0.0302   0.0311   0.0147  -0.0205   0.0091  -0.0185   0.00    0.0
2016/06/27 00:46:30.000   5633708.7872   1732017.9846  -2433985.5620   -306280.9248         0.0000         0.0000         0.0000     1.9390     1.9081   6   9   0.0298   0.0306   0.0145  -0.0203   0.0090  -0.0183   0.00    0.0
2016/06/27 00:47:00.000   5633708.7856   1732017.9878  -2433985.5622   -305200.2613         0.0000         0.0000         0.0000     1.9391     1.9150   6   9   0.0294   0.0302   0.0143  -0.0201   0.0090  -0.0181   0.00    0.0
2016/06/27 00:47:30.000   5633708.7845   1732017.9880  -2433985.5620   -304118.9787         0.0000         0.0000         0.0000     1.9391     1.9220   6   9   0.0291   0.0297   0.0141  -0.0199   0.0089  -0.0178   0.00    0.0
2016/06/27 00:48:00.000   5633708.7832   1732017.9879  -2433985.5614   -303032.6746         0.0000         0.0000         0.0000     1.9392     1.9291   6   9   0.0287   0.0293   0.0139  -0.0197   0.0089  -0.0176   0.00    0.0
2016/06/27 00:48:30.000   5633708.7826   1732017.9879  -2433985.5614   -301936.4531         0.0000         0.0000         0.0000     1.9392     1.9363   6   9   0.0284   0.0288   0.0137  -0.0195   0.0088  -0.0174   0.00    0.0
2016/06/27 00:49:00.000   5633708.7826   1732017.9858  -2433985.5616   -300838.7889         0.0000         0.0000         0.0000     1.9390     1.7830   6  10   0.0281   0.0284   0.0135  -0.0193   0.0088  -0.0172   0.00    0.0
2016/06/27 00:49:30.000   5633708.7818   1732017.9847  -2433985.5614   -299742.6478         0.0000         0.0000         0.0000     1.9390     1.7887   6  10   0.0277   0.0280   0.0134  -0.0191   0.0088  -0.0170   0.00    0.0
2016/06/27 00:50:00.000   5633708.7814   1732017.9840  -2433985.5614   -298648.9724         0.0000         0.0000         0.0000     1.9390     1.7945   6  10   0.0274   0.0276   0.0132  -0.0189   0.0087  -0.0168   0.00    0.0
2016/06/27 00:50:30.000   5633708.7814   1732017.9850  -2433985.5617   -297556.1528         0.0000         0.0000         0.0000     1.9390     1.8004   6  10   0.0271   0.0272   0.0130  -0.0187   0.0087  -0.0166   0.00    0.0
2016/06/27 00:51:00.000   5633708.7807   1732017.9858  -2433985.5615   -296458.1107         0.0000         0.0000         0.0000     1.9390     1.8065   6  10   0.0268   0.0269   0.0129  -0.0185   0.0086  -0.0164   0.00    0.0
2016/06/27 00:51:30.000   5633708.7799   1732017.9880  -2433985.5616   -295372.4821         0.0000         0.0000         0.0000     1.9391     1.8127   6  10   0.0266   0.0265   0.0127  -0.0183   0.0086  -0.0163   0.00    0.0
2016/06/27 00:52:00.000   5633708.7799   1732017.9898  -2433985.5619   -294288.5027         0.0000         0.0000         0.0000     1.9391     1.8190   6  10   0.0263   0.0261   0.0126  -0.0181   0.0086  -0.0161   0.00    0.0
2016/06/27 00:52:30.000   5633708.7801   1732017.9894  -2433985.5619   -293209.4174         0.0000         0.0000         0.0000     1.9392     1.8254   6  10   0.0260   0.0258   0.0124  -0.0180   0.0085  -0.0159   0.00    0.0
2016/06/27 00:53:00.000   5633708.7807   1732017.9870  -2433985.5618   -292143.6633         0.0000         0.0000         0.0000     1.9393     1.8319   6  10   0.0257   0.0254   0.0123  -0.0178   0.0085  -0.0157   0.00    0.0
2016/06/27 00:53:30.000   5633708.7795   1732017.9864  -2433985.5617   -291078.6693         0.0000         0.0000         0.0000     1.9394     1.8385   6  10   0.0255   0.0251   0.0121  -0.0176   0.0084  -0.0156   0.00    0.0
2016/06/27 00:54:00.000   5633708.7788   1732017.9865  -2433985.5618   -290022.6923         0.0000         0.0000         0.0000     1.9393     1.8453   6  10   0.0252   0.0248   0.0120  -0.0175   0.0084  -0.0154   0.00    0.0
2016/06/27 00:54:30.000   5633708.7796   1732017.9873  -2433985.5624   -288967.9749         0.0000         0.0000         0.0000     1.9392     1.8522   6  10   0.0250   0.0245   0.0118  -0.0173   0.0083  -0.0153   0.00    0.0
2016/06/27 00:55:00.000   5633708.7795   1732017.9894  -2433985.5629   -287920.2946         0.0000         0.0000         0.0000     1.9393     1.8592   6  10   0.0248   0.0242   0.0117  -0.0172   0.0083  -0.0151   0.00    0.0
2016/06/27 00:55:30.000   5633708.7799   1732017.9911  -2433985.5634   -286875.0883         0.0000         0.0000         0.0000     1.9393     1.8662   6  10   0.0245   0.0238   0.0116  -0.0170   0.0083  -0.0150   0.00    0.0
2016/06/27 00:56:00.000   5633708.7799   1732017.9918  -2433985.5638   -285837.7297         0.0000         0.0000         0.0000     1.9393     1.8734   6  10   0.0243   0.0235   0.0114  -0.0169   0.0082  -0.0148   0.00    0.0
2016/06/27 00:56:30.000   5633708.7794   1732017.9920  -2433985.5642   -284805.6682         0.0000         0.0000         0.0000     1.9393     1.8808   6  10   0.0241   0.0233   0.0113  -0.0167   0.0082  -0.0147   0.00    0.0
2016/06/27 00:57:00.000   5633708.7784   1732017.9906  -2433985.5639   -283774.4719         0.0000         0.0000         0.0000     1.9393     1.8882   6  10   0.0239   0.0230   0.0112  -0.0166   0.0081  -0.0145   0.00    0.0
2016/06/27 00:57:30.000   5633708.7777   1732017.9896  -2433985.5636   -282744.1325         0.0000         0.0000         0.0000     1.9393     1.8957   6  10   0.0236   0.0227   0.0111  -0.0164   0.0081  -0.0144   0.00    0.0
2016/06/27 00:58:00.000   5633708.7772   1732017.9899  -2433985.5635   -281717.5393         0.0000         0.0000         0.0000     1.9392     1.9034   6  10   0.0234   0.0224   0.0110  -0.0163   0.0081  -0.0143   0.00    0.0
2016/06/27 00:58:30.000   5633708.7772   1732017.9900  -2433985.5637   -280687.0262         0.0000         0.0000         0.0000     1.9391     1.9111   6  10   0.0232   0.0221   0.0109  -0.0162   0.0080  -0.0141   0.00    0.0
2016/06/27 00:59:00.000   5633708.7772   1732017.9896  -2433985.5637   -279654.6436         0.0000         0.0000         0.0000     1.9390     1.9189   6  10   0.0230   0.0219   0.0107  -0.0160   0.0080  -0.0140   0.00    0.0
2016/06/27 00:59:30.000   5633708.7776   1732017.9893  -2433985.5639   -278619.1630         0.0000         0.0000         0.0000     1.9387     1.9269   6  10   0.0228   0.0216   0.0106  -0.0159   0.0079  -0.0139   0.00    0.0
2016/06/27 01:00:00.000   5633708.7780   1732017.9878  -2433985.5639   -277572.5787         0.0000         0.0000         0.0000     1.9387     1.9349   6  10   0.0227   0.0214   0.0105  -0.0158   0.0079  -0.0138   0.00    0.0
2016/06/27 01:00:30.000   5633708.7788   1732017.9862  -2433985.5641   -276515.0452         0.0000         0.0000         0.0000     1.9386     1.9430   6  10   0.0225   0.0211   0.0104  -0.0156   0.0079  -0.0137   0.00    0.0
2016/06/27 01:01:00.000   5633708.7790   1732017.9862  -2433985.5642   -275459.6204         0.0000         0.0000         0.0000     1.9383     1.9513   6  10   0.0223   0.0209   0.0103  -0.0155   0.0078  -0.0135   0.00    0.0
2016/06/27 01:01:30.000   5633708.7790   1732017.9861  -2433985.5641   -274402.4053         0.0000         0.0000         0.0000     1.9382     1.9596   6  10   0.0221   0.0206   0.0102  -0.0154   0.0078  -0.0134   0.00    0.0
2016/06/27 01:02:00.000   5633708.7791   1732017.9858  -2433985.5641   -273334.2082         0.0000         0.0000         0.0000     1.9381     1.9680   6  10   0.0219   0.0204   0.0101  -0.0153   0.0077  -0.0133   0.00    0.0
2016/06/27 01:02:30.000   5633708.7790   1732017.9856  -2433985.5638   -272266.2696         0.0000         0.0000         0.0000     1.9381     1.9765   6  10   0.0218   0.0202   0.0100  -0.0152   0.0077  -0.0132   0.00    0.0
2016/06/27 01:03:00.000   5633708.7788   1732017.9843  -2433985.5636   -271189.9514         0.0000         0.0000         0.0000     1.9382     1.9850   6  10   0.0216   0.0200   0.0099  -0.0150   0.0077  -0.0131   0.00    0.0
2016/06/27 01:03:30.000   5633708.7791   1732017.9837  -2433985.5636   -270113.1208         0.0000         0.0000         0.0000     1.9383     1.9937   6  10   0.0215   0.0197   0.0098  -0.0149   0.0076  -0.0130   0.00    0.0
2016/06/27 01:04:00.000   5633708.7792   1732017.9844  -2433985.5636   -269035.4729         0.0000         0.0000         0.0000     1.9384     2.0024   6  10   0.0213   0.0195   0.0098  -0.0148   0.0076  -0.0129   0.00    0.0
2016/06/27 01:04:30.000   5633708.7796   1732017.9853  -2433985.5637   -267947.5387         0.0000         0.0000         0.0000     1.9385     2.0111   6  10   0.0212   0.0193   0.0097  -0.0147   0.0076  -0.0128   0.00    0.0
2016/06/27 01:05:00.000   5633708.7797   1732017.9858  -2433985.5639   -266854.1415         0.0000         0.0000         0.0000     1.9386     2.0200   6  10   0.0210   0.0191   0.0096  -0.0146   0.0075  -0.0127   0.00    0.0
2016/06/27 01:05:30.000   5633708.7793   1732017.9848  -2433985.5637   -265745.3703         0.0000         0.0000         0.0000     1.9388     2.0289   6  10   0.0209   0.0189   0.0095  -0.0145   0.0075  -0.0126   0.00    0.0
2016/06/27 01:06:00.000   5633708.7792   1732017.9842  -2433985.5634   -264630.7487         0.0000         0.0000         0.0000     1.9388     2.0378   6  10   0.0207   0.0187   0.0094  -0.0144   0.0075  -0.0125   0.00    0.0
2016/06/27 01:06:30.000   5633708.7791   1732017.9849  -2433985.5635   -263511.4752         0.0000         0.0000         0.0000     1.9387     2.0468   6  10   0.0206   0.0185   0.0093  -0.0143   0.0074  -0.0124   0.00    0.0
2016/06/27 01:07:00.000   5633708.7790   1732017.9861  -2433985.5636   -262391.5419         0.0000         0.0000         0.0000     1.9386     2.0558   6  10   0.0204   0.0183   0.0093  -0.0142   0.0074  -0.0123   0.00    0.0
2016/06/27 01:07:30.000   5633708.7789   1732017.9876  -2433985.5636   -261274.2903         0.0000         0.0000         0.0000     1.9386     2.0649   6  10   0.0203   0.0181   0.0092  -0.0141   0.0074  -0.0123   0.00    0.0
2016/06/27 01:08:00.000   5633708.7782   1732017.9881  -2433985.5634   -260158.1066         0.0000         0.0000         0.0000     1.9386     2.0740   6  10   0.0202   0.0180   0.0091  -0.0140   0.0073  -0.0122   0.00    0.0
2016/06/27 01:08:30.000   5633708.7780   1732017.9875  -2433985.5634   -259037.5536         0.0000         0.0000         0.0000     1.9385     2.0831   6  10   0.0201   0.0178   0.0090  -0.0139   0.0073  -0.0121   0.00    0.0
2016/06/27 01:09:00.000   5633708.7780   1732017.9862  -2433985.5634   -257920.7701         0.0000         0.0000         0.0000     1.9384     2.0923   6  10   0.0199   0.0176   0.0090  -0.0138   0.0073  -0.0120   0.00    0.0
2016/06/27 01:09:30.000   5633708.7779   1732017.9857  -2433985.5633   -256816.5870         0.0000         0.0000         0.0000     1.9385     2.1014   6  10   0.0198   0.0174   0.0089  -0.0137   0.0072  -0.0119   0.00    0.0
2016/06/27 01:10:00.000   5633708.7772   1732017.9863  -2433985.5629   -255715.4550         0.0000         0.0000         0.0000     1.9386     2.1106   6  10   0.0197   0.0173   0.0088  -0.0136   0.0072  -0.0119   0.00    0.0
2016/06/27 01:10:30.000   5633708.7774   1732017.9871  -2433985.5631   -254617.6644         0.0000         0.0000         0.0000     1.9386     2.1197   6  10   0.0196   0.0171   0.0088  -0.0136   0.0072  -0.0118   0.00    0.0
2016/06/27 01:11:00.000   5633708.7775   1732017.9875  -2433985.5631   -253527.5858         0.0000         0.0000         0.0000     1.9387     2.1288   6  10   0.0195   0.0169   0.0087  -0.0135   0.0071  -0.0117   0.00    0.0
2016/06/27 01:11:30.000   5633708.7773   1732017.9875  -2433985.5628   -252441.4337         0.0000         0.0000         0.0000     1.9388     2.1379   6  10   0.0194   0.0168   0.0086  -0.0134   0.0071  -0.0116   0.00    0.0
2016/06/27 01:12:00.000   5633708.7772   1732017.9879  -2433985.5627   -251357.1867         0.0000         0.0000         0.0000     1.9387     2.1470   6  10   0.0193   0.0166   0.0086  -0.0133   0.0071  -0.0116   0.00    0.0
2016/06/27 01:12:30.000   5633708.7770   1732017.9880  -2433985.5626   -250276.6463         0.0000         0.0000         0.0000     1.9387     2.1560   6  10   0.0192   0.0164   0.0085  -0.0132   0.0070  -0.0115   0.00    0.0
2016/06/27 01:13:00.000   5633708.7769   1732017.9879  -2433985.5625   -249203.1435         0.0000         0.0000         0.0000     1.9387     2.1650   6  10   0.0191   0.0163   0.0084  -0.0131   0.0070  -0.0114   0.00    0.0
2016/06/27 01:13:30.000   5633708.7765   1732017.9886  -2433985.5622   -248140.2248         0.0000         0.0000         0.0000     1.9388     2.1739   6  10   0.0190   0.0161   0.0084  -0.0131   0.0070  -0.0114   0.00    0.0
2016/06/27 01:14:00.000   5633708.7764   1732017.9890  -2433985.5620   -247077.7578         0.0000         0.0000         0.0000     1.9390     2.1828   6  10   0.0189   0.0160   0.0083  -0.0130   0.0069  -0.0113   0.00    0.0
2016/06/27 01:14:30.000   5633708.7763   1732017.9893  -2433985.5620   -246017.1505         0.0000         0.0000         0.0000     1.9391     2.1916   6  10   0.0188   0.0158   0.0083  -0.0129   0.0069  -0.0112   0.00    0.0
2016/06/27 01:15:00.000   5633708.7769   1732017.9887  -2433985.5622   -244954.3955         0.0000         0.0000         0.0000     1.9392     2.2002   6  10   0.0187   0.0157   0.0082  -0.0128   0.0069  -0.0112   0.00    0.0
2016/06/27 01:15:30.000   5633708.7770   1732017.9886  -2433985.5624   -243886.5990         0.0000         0.0000         0.0000     1.9394     2.2088   6  10   0.0186   0.0156   0.0082  -0.0128   0.0068  -0.0111   0.00    0.0
2016/06/27 01:16:00.000   5633708.7774   1732017.9885  -2433985.5625   -242820.9952         0.0000         0.0000         0.0000     1.9393     2.2173   6  10   0.0185   0.0154   0.0081  -0.0127   0.0068  -0.0111   0.00    0.0
2016/06/27 01:16:30.000   5633708.7781   1732017.9882  -2433985.5626   -241762.0813         0.0000         0.0000         0.0000     1.9393     2.2257   6  10   0.0184   0.0153   0.0080  -0.0126   0.0068  -0.0110   0.00    0.0
2016/06/27 01:17:00.000   5633708.7782   1732017.9885  -2433985.5628   -240696.4781         0.0000         0.0000         0.0000     1.9394     2.2339   6  10   0.0183   0.0152   0.0080  -0.0126   0.0068  -0.0110   0.00    0.0
2016/06/27 01:17:30.000   5633708.7782   1732017.9888  -2433985.5629   -239634.7041         0.0000         0.0000         0.0000     1.9394     2.2420   6  10   0.0182   0.0150   0.0079  -0.0125   0.0067  -0.0109   0.00    0.0
2016/06/27 01:18:00.000   5633708.7788   1732017.9886  -2433985.5630   -238564.3786         0.0000         0.0000         0.0000     1.9392     2.2499   6  10   0.0182   0.0149   0.0079  -0.0124   0.0067  -0.0108   0.00    0.0
2016/06/27 01:18:30.000   5633708.7791   1732017.9883  -2433985.5631   -237491.5599         0.0000         0.0000         0.0000     1.9391     2.2577   6  10   0.0181   0.0148   0.0078  -0.0123   0.0067  -0.0108   0.00    0.0
2016/06/27 01:19:00.000   5633708.7789   1732017.9888  -2433985.5630   -236410.9354         0.0000         0.0000         0.0000     1.9390     2.2653   6  10   0.0180   0.0146   0.0078  -0.0123   0.0066  -0.0107   0.00    0.0
2016/06/27 01:19:30.000   5633708.7780   1732017.9898  -2433985.5627   -235327.4742         0.0000         0.0000         0.0000     1.9390     2.2727   6  10   0.0179   0.0145   0.0078  -0.0122   0.0066  -0.0107   0.00    0.0
2016/06/27 01:20:00.000   5633708.7774   1732017.9903  -2433985.5625   -234242.2370         0.0000         0.0000         0.0000     1.9393     2.2799   6  10   0.0179   0.0144   0.0077  -0.0122   0.0066  -0.0106   0.00    0.0
2016/06/27 01:20:30.000   5633708.7774   1732017.9904  -2433985.5624   -233151.1735         0.0000         0.0000         0.0000     1.9394     2.2869   6  10   0.0178   0.0143   0.0077  -0.0121   0.0066  -0.0106   0.00    0.0
2016/06/27 01:21:00.000   5633708.7777   1732017.9904  -2433985.5624   -232056.9988         0.0000         0.0000         0.0000     1.9392     2.2937   6  10   0.0177   0.0142   0.0076  -0.0120   0.0065  -0.0106   0.00    0.0
2016/06/27 01:21:30.000   5633708.7785   1732017.9900  -2433985.5628   -230959.1565         0.0000         0.0000         0.0000     1.9393     2.3002   6  10   0.0176   0.0140   0.0076  -0.0120   0.0065  -0.0105   0.00    0.0
2016/06/27 01:22:00.000   5633708.7787   1732017.9902  -2433985.5630   -229852.1407         0.0000         0.0000         0.0000     1.9392     2.3065   6  10   0.0176   0.0139   0.0075  -0.0119   0.0065  -0.0105   0.00    0.0
2016/06/27 01:22:30.000   5633708.7786   1732017.9905  -2433985.5630   -228735.3291         0.0000         0.0000         0.0000     1.9394     2.3126   6  10   0.0175   0.0138   0.0075  -0.0118   0.0064  -0.0104   0.00    0.0
2016/06/27 01:23:00.000   5633708.7786   1732017.9908  -2433985.5629   -227615.6419         0.0000         0.0000         0.0000     1.9392     2.3184   6  10   0.0174   0.0137   0.0074  -0.0118   0.0064  -0.0104   0.00    0.0
2016/06/27 01:23:30.000   5633708.7783   1732017.9909  -2433985.5628   -226494.0023         0.0000         0.0000         0.0000     1.9392     2.3239   6  10   0.0174   0.0136   0.0074  -0.0117   0.0064  -0.0103   0.00    0.0
2016/06/27 01:24:00.000   5633708.7786   1732017.9907  -2433985.5629   -225377.9530         0.0000         0.0000         0.0000     1.9394     2.3292   6  10   0.0173   0.0135   0.0074  -0.0117   0.0064  -0.0103   0.00    0.0
2016/06/27 01:24:30.000   5633708.7789   1732017.9909  -2433985.5632   -224252.4099         0.0000         0.0000         0.0000     1.9393     2.3341   6  10   0.0172   0.0134   0.0073  -0.0116   0.0063  -0.0102   0.00    0.0
2016/06/27 01:25:00.000   5633708.7791   1732017.9912  -2433985.5634   -223130.7735         0.0000         0.0000         0.0000     1.9389     2.3388   6  10   0.0172   0.0133   0.0073  -0.0116   0.0063  -0.0102   0.00    0.0
2016/06/27 01:25:30.000   5633708.7795   1732017.9909  -2433985.5636   -222016.1595         0.0000         0.0000         0.0000     1.9389     2.3431   6  10   0.0171   0.0132   0.0072  -0.0115   0.0063  -0.0102   0.00    0.0
2016/06/27 01:26:00.000   5633708.7795   1732017.9911  -2433985.5638   -220907.1049         0.0000         0.0000         0.0000     1.9387     2.3471   6  10   0.0170   0.0131   0.0072  -0.0114   0.0063  -0.0101   0.00    0.0
2016/06/27 01:26:30.000   5633708.7790   1732017.9914  -2433985.5637   -219803.5346         0.0000         0.0000         0.0000     1.9384     2.3508   6  10   0.0170   0.0130   0.0072  -0.0114   0.0062  -0.0101   0.00    0.0
2016/06/27 01:27:00.000   5633708.7781   1732017.9920  -2433985.5633   -218699.3169         0.0000         0.0000         0.0000     1.9380     2.3542   6  10   0.0169   0.0129   0.0071  -0.0113   0.0062  -0.0100   0.00    0.0
2016/06/27 01:27:30.000   5633708.7777   1732017.9921  -2433985.5632   -217595.5972         0.0000         0.0000         0.0000     1.9378     2.3572   6  10   0.0169   0.0128   0.0071  -0.0113   0.0062  -0.0100   0.00    0.0
2016/06/27 01:28:00.000   5633708.7774   1732017.9927  -2433985.5634   -216513.8256         0.0000         0.0000         0.0000     1.9376     2.3599   6  10   0.0168   0.0127   0.0071  -0.0112   0.0062  -0.0100   0.00    0.0
2016/06/27 01:28:30.000   5633708.7769   1732017.9929  -2433985.5635   -215438.4756         0.0000         0.0000         0.0000     1.9378     2.3622   6  10   0.0168   0.0126   0.0070  -0.0112   0.0061  -0.0099   0.00    0.0
2016/06/27 01:29:00.000   5633708.7773   1732017.9923  -2433985.5636   -214374.0751         0.0000         0.0000         0.0000     1.9379     2.3642   6  10   0.0167   0.0125   0.0070  -0.0111   0.0061  -0.0099   0.00    0.0
2016/06/27 01:29:30.000   5633708.7777   1732017.9919  -2433985.5637   -213309.0051         0.0000         0.0000         0.0000     1.9379     2.3659   6  10   0.0166   0.0124   0.0070  -0.0111   0.0061  -0.0099   0.00    0.0
2016/06/27 01:30:00.000   5633708.7776   1732017.9919  -2433985.5638   -212245.2368         0.0000         0.0000         0.0000     1.9381     2.3671   6  10   0.0166   0.0123   0.0069  -0.0110   0.0061  -0.0098   0.00    0.0
2016/06/27 01:30:30.000   5633708.7774   1732017.9921  -2433985.5638   -211189.3408         0.0000         0.0000         0.0000     1.9383     2.3680   6  10   0.0165   0.0122   0.0069  -0.0110   0.0060  -0.0098   0.00    0.0
2016/06/27 01:31:00.000   5633708.7773   1732017.9916  -2433985.5636   -210137.0545         0.0000         0.0000         0.0000     1.9386     2.3686   6  10   0.0165   0.0121   0.0069  -0.0109   0.0060  -0.0098   0.00    0.0
2016/06/27 01:31:30.000   5633708.7777   1732017.9911  -2433985.5637   -209083.9654         0.0000         0.0000         0.0000     1.9385     2.3688   6  10   0.0164   0.0120   0.0068  -0.0109   0.0060  -0.0097   0.00    0.0
2016/06/27 01:32:00.000   5633708.7782   1732017.9905  -2433985.5639   -208023.7457         0.0000         0.0000         0.0000     1.9384     2.3686   6  10   0.0164   0.0119   0.0068  -0.0108   0.0060  -0.0097   0.00    0.0
2016/06/27 01:32:30.000   5633708.7786   1732017.9904  -2433985.5640   -206968.2649         0.0000         0.0000         0.0000     1.9380     2.3680   6  10   0.0163   0.0118   0.0068  -0.0108   0.0059  -0.0097   0.00    0.0
2016/06/27 01:33:00.000   5633708.7792   1732017.9900  -2433985.5642   -205912.5676         0.0000         0.0000         0.0000     1.9375     2.3671   6  10   0.0163   0.0118   0.0067  -0.0107   0.0059  -0.0096   0.00    0.0
2016/06/27 01:33:30.000   5633708.7790   1732017.9901  -2433985.5641   -204847.2612         0.0000         0.0000         0.0000     1.9373     2.3659   6  10   0.0162   0.0117   0.0067  -0.0107   0.0059  -0.0096   0.00    0.0
2016/06/27 01:34:00.000   5633708.7790   1732017.9898  -2433985.5641   -203781.0915         0.0000         0.0000         0.0000     1.9374     2.3643   6  10   0.0161   0.0116   0.0067  -0.0106   0.0059  -0.0096   0.00    0.0
2016/06/27 01:34:30.000   5633708.7787   1732017.9895  -2433985.5640   -202719.0021         0.0000         0.0000         0.0000     1.9377     2.3623   6  10   0.0161   0.0115   0.0067  -0.0106   0.0058  -0.0095   0.00    0.0
2016/06/27 01:35:00.000   5633708.7785   1732017.9896  -2433985.5639   -201652.0164         0.0000         0.0000         0.0000     1.9377     2.3600   6  10   0.0160   0.0114   0.0066  -0.0105   0.0058  -0.0095   0.00    0.0
2016/06/27 01:35:30.000   5633708.7786   1732017.9895  -2433985.5640   -200576.3432         0.0000         0.0000         0.0000     1.9375     2.3573   6  10   0.0160   0.0113   0.0066  -0.0105   0.0058  -0.0095   0.00    0.0
2016/06/27 01:36:00.000   5633708.7785   1732017.9895  -2433985.5641   -199501.0940         0.0000         0.0000         0.0000     1.9374     2.3543   6  10   0.0159   0.0113   0.0066  -0.0104   0.0058  -0.0094   0.00    0.0
2016/06/27 01:36:30.000   5633708.7787   1732017.9891  -2433985.5642   -198418.6494         0.0000         0.0000         0.0000     1.9373     2.3510   6  10   0.0159   0.0112   0.0065  -0.0104   0.0057  -0.0094   0.00    0.0
2016/06/27 01:37:00.000   5633708.7788   1732017.9886  -2433985.5641   -197329.1605         0.0000         0.0000         0.0000     1.9377     2.3474   6  10   0.0158   0.0111   0.0065  -0.0103   0.0057  -0.0094   0.00    0.0
2016/06/27 01:37:30.000   5633708.7785   1732017.9886  -2433985.5640   -196238.1980         0.0000         0.0000         0.0000     1.9376     2.3434   6  10   0.0158   0.0110   0.0065  -0.0103   0.0057  -0.0093   0.00    0.0
2016/06/27 01:38:00.000   5633708.7786   1732017.9886  -2433985.5640   -195143.0601         0.0000         0.0000         0.0000     1.9374     2.3391   6  10   0.0157   0.0109   0.0065  -0.0102   0.0057  -0.0093   0.00    0.0
2016/06/27 01:38:30.000   5633708.7789   1732017.9882  -2433985.5640   -194038.4350         0.0000         0.0000         0.0000     1.9372     2.3345   6  10   0.0157   0.0109   0.0064  -0.0102   0.0056  -0.0093   0.00    0.0
2016/06/27 01:39:00.000   5633708.7788   1732017.9880  -2433985.5638   -192931.8886         0.0000         0.0000         0.0000     1.9371     2.3297   6  10   0.0156   0.0108   0.0064  -0.0101   0.0056  -0.0092   0.00    0.0
2016/06/27 01:39:30.000   5633708.7790   1732017.9874  -2433985.5638   -191815.6970         0.0000         0.0000         0.0000     1.9372     2.3245   6  10   0.0156   0.0107   0.0064  -0.0101   0.0056  -0.0092   0.00    0.0
2016/06/27 01:40:00.000   5633708.7793   1732017.9871  -2433985.5639   -190703.9334         0.0000         0.0000         0.0000     1.9369     2.3191   6  10   0.0155   0.0106   0.0063  -0.0100   0.0056  -0.0092   0.00    0.0
2016/06/27 01:40:30.000   5633708.7797   1732017.9868  -2433985.5640   -189592.0792         0.0000         0.0000         0.0000     1.9365     2.3134   6  10   0.0154   0.0106   0.0063  -0.0100   0.0055  -0.0091   0.00    0.0
2016/06/27 01:41:00.000   5633708.7799   1732017.9865  -2433985.5640   -188477.8885         0.0000         0.0000         0.0000     1.9364     2.3075   6  10   0.0154   0.0105   0.0063  -0.0099   0.0055  -0.0091   0.00    0.0
2016/06/27 01:41:30.000   5633708.7806   1732017.9860  -2433985.5642   -187367.6018         0.0000         0.0000         0.0000     1.9360     2.3013   6  10   0.0153   0.0104   0.0063  -0.0099   0.0055  -0.0091   0.00    0.0
2016/06/27 01:42:00.000   5633708.7810   1732017.9856  -2433985.5644   -186255.6105         0.0000         0.0000         0.0000     1.9359     2.2949   6  10   0.0153   0.0103   0.0062  -0.0098   0.0055  -0.0090   0.00    0.0
2016/06/27 01:42:30.000   5633708.7816   1732017.9856  -2433985.5646   -185153.2429         0.0000         0.0000         0.0000     1.9352     2.2882   6  10   0.0152   0.0103   0.0062  -0.0098   0.0054  -0.0090   0.00    0.0
2016/06/27 01:43:00.000   5633708.7823   1732017.9853  -2433985.5648   -184047.7053         0.0000         0.0000         0.0000     1.9348     2.2814   6  10   0.0152   0.0102   0.0062  -0.0097   0.0054  -0.0090   0.00    0.0
2016/06/27 01:43:30.000   5633708.7821   1732017.9855  -2433985.5647   -182955.4304         0.0000         0.0000         0.0000     1.9347     2.2743   6  10   0.0151   0.0101   0.0062  -0.0097   0.0054  -0.0089   0.00    0.0
2016/06/27 01:44:00.000   5633708.7825   1732017.9852  -2433985.5648   -181864.8813         0.0000         0.0000         0.0000     1.9346     2.2671   6  10   0.0150   0.0101   0.0061  -0.0096   0.0053  -0.0089   0.00    0.0
2016/06/27 01:44:30.000   5633708.7834   1732017.9845  -2433985.5650   -180780.5290         0.0000         0.0000         0.0000     1.9344     2.2597   6  10   0.0150   0.0100   0.0061  -0.0096   0.0053  -0.0089   0.00    0.0
2016/06/27 01:45:00.000   5633708.7838   1732017.9842  -2433985.5652   -179700.3166         0.0000         0.0000         0.0000     1.9343     2.2521   6  10   0.0149   0.0099   0.0061  -0.0095   0.0053  -0.0088   0.00    0.0
2016/06/27 01:45:30.000   5633708.7841   1732017.9837  -2433985.5654   -178633.8154         0.0000         0.0000         0.0000     1.9344     2.2444   6  10   0.0149   0.0098   0.0060  -0.0095   0.0053  -0.0088   0.00    0.0
2016/06/27 01:46:00.000   5633708.7847   1732017.9834  -2433985.5658   -177574.9370         0.0000         0.0000         0.0000     1.9342     2.2365   6  10   0.0148   0.0098   0.0060  -0.0094   0.0052  -0.0087   0.00    0.0
2016/06/27 01:46:30.000   5633708.7852   1732017.9831  -2433985.5660   -176519.5761         0.0000         0.0000         0.0000     1.9339     2.2285   6  10   0.0147   0.0097   0.0060  -0.0094   0.0052  -0.0087   0.00    0.0
2016/06/27 01:47:00.000   5633708.7854   1732017.9828  -2433985.5661   -175468.4023         0.0000         0.0000         0.0000     1.9338     2.2204   6  10   0.0147   0.0096   0.0060  -0.0093   0.0052  -0.0087   0.00    0.0
2016/06/27 01:47:30.000   5633708.7862   1732017.9825  -2433985.5664   -174430.1071         0.0000         0.0000         0.0000     1.9331     2.2121   6  10   0.0146   0.0096   0.0059  -0.0093   0.0052  -0.0086   0.00    0.0
2016/06/27 01:48:00.000   5633708.7873   1732017.9819  -2433985.5668   -173394.6220         0.0000         0.0000         0.0000     1.9328     2.2038   6  10   0.0146   0.0095   0.0059  -0.0092   0.0051  -0.0086   0.00    0.0
2016/06/27 01:48:30.000   5633708.7882   1732017.9814  -2433985.5671   -172362.2117         0.0000         0.0000         0.0000     1.9325     2.1953   6  10   0.0145   0.0094   0.0059  -0.0092   0.0051  -0.0086   0.00    0.0
2016/06/27 01:49:00.000   5633708.7888   1732017.9813  -2433985.5674   -171319.9598         0.0000         0.0000         0.0000     1.9321     2.1868   6  10   0.0144   0.0094   0.0059  -0.0091   0.0051  -0.0085   0.00    0.0
2016/06/27 01:49:30.000   5633708.7891   1732017.9812  -2433985.5675   -170284.8282         0.0000         0.0000         0.0000     1.9319     2.1782   6  10   0.0144   0.0093   0.0058  -0.0091   0.0050  -0.0085   0.00    0.0
2016/06/27 01:50:00.000   5633708.7895   1732017.9808  -2433985.5677   -169247.7189         0.0000         0.0000         0.0000     1.9318     2.1695   6  10   0.0143   0.0092   0.0058  -0.0090   0.0050  -0.0085   0.00    0.0
2016/06/27 01:50:30.000   5633708.7894   1732017.9807  -2433985.5677   -168214.9845         0.0000         0.0000         0.0000     1.9319     2.1608   6  10   0.0142   0.0092   0.0058  -0.0090   0.0050  -0.0084   0.00    0.0
2016/06/27 01:51:00.000   5633708.7895   1732017.9804  -2433985.5677   -167166.1921         0.0000         0.0000         0.0000     1.9319     2.1520   6  10   0.0142   0.0091   0.0058  -0.0089   0.0049  -0.0084   0.00    0.0
2016/06/27 01:51:30.000   5633708.7901   1732017.9797  -2433985.5679   -166116.5900         0.0000         0.0000         0.0000     1.9317     2.1432   6  10   0.0141   0.0091   0.0057  -0.0089   0.0049  -0.0083   0.00    0.0
2016/06/27 01:52:00.000   5633708.7907   1732017.9789  -2433985.5680   -165066.2867         0.0000         0.0000         0.0000     1.9314     2.1344   6  10   0.0140   0.0090   0.0057  -0.0088   0.0049  -0.0083   0.00    0.0
2016/06/27 01:52:30.000   5633708.7912   1732017.9784  -2433985.5682   -164004.5533         0.0000         0.0000         0.0000     1.9312     2.1256   6  10   0.0140   0.0089   0.0057  -0.0088   0.0049  -0.0083   0.00    0.0
2016/06/27 01:53:00.000   5633708.7909   1732017.9782  -2433985.5681   -162948.8439         0.0000         0.0000         0.0000     1.9314     2.1167   6  10   0.0139   0.0089   0.0056  -0.0087   0.0048  -0.0082   0.00    0.0
2016/06/27 01:53:30.000   5633708.7905   1732017.9781  -2433985.5680   -161890.1980         0.0000         0.0000         0.0000     1.9315     2.1078   6  10   0.0138   0.0088   0.0056  -0.0087   0.0048  -0.0082   0.00    0.0
2016/06/27 01:54:00.000   5633708.7905   1732017.9778  -2433985.5680   -160822.9288         0.0000         0.0000         0.0000     1.9315     2.0990   6  10   0.0138   0.0087   0.0056  -0.0086   0.0048  -0.0081   0.00    0.0
2016/06/27 01:54:30.000   5633708.7900   1732017.9777  -2433985.5678   -159753.3076         0.0000         0.0000         0.0000     1.9316     2.0901   6  10   0.0137   0.0087   0.0056  -0.0086   0.0047  -0.0081   0.00    0.0
2016/06/27 01:55:00.000   5633708.7893   1732017.9780  -2433985.5677   -158674.7924         0.0000         0.0000         0.0000     1.9316     2.0813   6  10   0.0136   0.0086   0.0055  -0.0085   0.0047  -0.0081   0.00    0.0
2016/06/27 01:55:30.000   5633708.7890   1732017.9783  -2433985.5677   -157596.3607         0.0000         0.0000         0.0000     1.9316     2.0725   6  10   0.0135   0.0086   0.0055  -0.0084   0.0047  -0.0080   0.00    0.0
2016/06/27 01:56:00.000   5633708.7891   1732017.9781  -2433985.5679   -156505.9530         0.0000         0.0000         0.0000     1.9316     2.0637   6  10   0.0135   0.0085   0.0055  -0.0084   0.0046  -0.0080   0.00    0.0
2016/06/27 01:56:30.000   5633708.7890   1732017.9781  -2433985.5679   -155406.7517         0.0000         0.0000         0.0000     1.9315     2.0549   6  10   0.0134   0.0084   0.0055  -0.0083   0.0046  -0.0079   0.00    0.0
2016/06/27 01:57:00.000   5633708.7892   1732017.9782  -2433985.5680   -154301.1380         0.0000         0.0000         0.0000     1.9313     2.0462   6  10   0.0133   0.0084   0.0054  -0.0083   0.0046  -0.0079   0.00    0.0
2016/06/27 01:57:30.000   5633708.7895   1732017.9781  -2433985.5681   -153192.7232         0.0000         0.0000         0.0000     1.9310     2.0375   6  10   0.0133   0.0083   0.0054  -0.0082   0.0045  -0.0078   0.00    0.0
2016/06/27 01:58:00.000   5633708.7898   1732017.9778  -2433985.5681   -152078.1826         0.0000         0.0000         0.0000     1.9309     2.0289   6  10   0.0132   0.0083   0.0054  -0.0082   0.0045  -0.0078   0.00    0.0
2016/06/27 01:58:30.000   5633708.7900   1732017.9779  -2433985.5681   -150960.6643         0.0000         0.0000         0.0000     1.9305     2.0203   6  10   0.0131   0.0082   0.0053  -0.0081   0.0045  -0.0078   0.00    0.0
2016/06/27 01:59:00.000   5633708.7902   1732017.9778  -2433985.5683   -149842.4644         0.0000         0.0000         0.0000     1.9301     2.0118   6  10   0.0130   0.0081   0.0053  -0.0081   0.0044  -0.0077   0.00    0.0
2016/06/27 01:59:30.000   5633708.7904   1732017.9776  -2433985.5684   -148726.4773         0.0000         0.0000         0.0000     1.9300     2.0034   6  10   0.0130   0.0081   0.0053  -0.0080   0.0044  -0.0077   0.00    0.0
2016/06/27 02:00:00.000   5633708.7899   1732017.9778  -2433985.5683   -147605.6826         0.0000         0.0000         0.0000     1.9299     1.9950   6  10   0.0129   0.0080   0.0053  -0.0079   0.0044  -0.0076   0.00    0.0
2016/06/27 02:00:30.000   5633708.7897   1732017.9779  -2433985.5682   -146491.8102         0.0000         0.0000         0.0000     1.9299     1.9867   6  10   0.0128   0.0080   0.0052  -0.0079   0.0043  -0.0076   0.00    0.0
2016/06/27 02:01:00.000   5633708.7896   1732017.9778  -2433985.5682   -145376.3489         0.0000         0.0000         0.0000     1.9297     1.9784   6  10   0.0127   0.0079   0.0052  -0.0078   0.0043  -0.0075   0.00    0.0
2016/06/27 02:01:30.000   5633708.7896   1732017.9778  -2433985.5682   -144267.6472         0.0000         0.0000         0.0000     1.9295     1.9703   6  10   0.0127   0.0078   0.0052  -0.0078   0.0043  -0.0075   0.00    0.0
2016/06/27 02:02:00.000   5633708.7893   1732017.9779  -2433985.5682   -143167.5097         0.0000         0.0000         0.0000     1.9295     1.9622   6  10   0.0126   0.0078   0.0051  -0.0077   0.0042  -0.0075   0.00    0.0
2016/06/27 02:02:30.000   5633708.7894   1732017.9777  -2433985.5683   -142069.5095         0.0000         0.0000         0.0000     1.9295     1.9542   6  10   0.0125   0.0077   0.0051  -0.0077   0.0042  -0.0074   0.00    0.0
2016/06/27 02:03:00.000   5633708.7895   1732017.9777  -2433985.5684   -140975.7126         0.0000         0.0000         0.0000     1.9293     1.9463   6  10   0.0124   0.0077   0.0051  -0.0076   0.0042  -0.0074   0.00    0.0
2016/06/27 02:03:30.000   5633708.7896   1732017.9775  -2433985.5685   -139892.8823         0.0000         0.0000         0.0000     1.9293     1.9384   6  10   0.0124   0.0076   0.0051  -0.0075   0.0041  -0.0073   0.00    0.0
2016/06/27 02:04:00.000   5633708.7900   1732017.9772  -2433985.5687   -138815.6954         0.0000         0.0000         0.0000     1.9290     1.9307   6  10   0.0123   0.0076   0.0050  -0.0075   0.0041  -0.0073   0.00    0.0
2016/06/27 02:04:30.000   5633708.7898   1732017.9770  -2433985.5686   -137750.8261         0.0000         0.0000         0.0000     1.9290     1.9230   6  10   0.0122   0.0075   0.0050  -0.0074   0.0041  -0.0072   0.00    0.0
2016/06/27 02:05:00.000   5633708.7898   1732017.9768  -2433985.5686   -136686.2813         0.0000         0.0000         0.0000     1.9289     1.9155   6  10   0.0121   0.0075   0.0050  -0.0074   0.0040  -0.0072   0.00    0.0
2016/06/27 02:05:30.000   5633708.7903   1732017.9764  -2433985.5686   -135631.6783         0.0000         0.0000         0.0000     1.9286     1.9080   6  10   0.0121   0.0074   0.0049  -0.0073   0.0040  -0.0071   0.00    0.0
2016/06/27 02:06:00.000   5633708.7905   1732017.9762  -2433985.5688   -134577.7823         0.0000         0.0000         0.0000     1.9283     1.9007   6  10   0.0120   0.0074   0.0049  -0.0073   0.0040  -0.0071   0.00    0.0
2016/06/27 02:06:30.000   5633708.7905   1732017.9761  -2433985.5688   -133529.7369         0.0000         0.0000         0.0000     1.9283     1.8934   6  10   0.0119   0.0073   0.0049  -0.0072   0.0039  -0.0070   0.00    0.0
2016/06/27 02:07:00.000   5633708.7906   1732017.9760  -2433985.5687   -132486.8504         0.0000         0.0000         0.0000     1.9284     1.8862   6  10   0.0118   0.0072   0.0049  -0.0072   0.0039  -0.0070   0.00    0.0
2016/06/27 02:07:30.000   5633708.7905   1732017.9757  -2433985.5686   -131449.4813         0.0000         0.0000         0.0000     1.9285     1.8791   6  10   0.0117   0.0072   0.0048  -0.0071   0.0039  -0.0070   0.00    0.0
2016/06/27 02:08:00.000   5633708.7907   1732017.9755  -2433985.5686   -130418.0949         0.0000         0.0000         0.0000     1.9284     1.8722   6  10   0.0117   0.0071   0.0048  -0.0070   0.0038  -0.0069   0.00    0.0
2016/06/27 02:08:30.000   5633708.7909   1732017.9751  -2433985.5686   -129386.2289         0.0000         0.0000         0.0000     1.9286     1.8653   6  10   0.0116   0.0071   0.0048  -0.0070   0.0038  -0.0069   0.00    0.0
2016/06/27 02:09:00.000   5633708.7910   1732017.9749  -2433985.5687   -128347.1232         0.0000         0.0000         0.0000     1.9286     1.8585   6  10   0.0115   0.0070   0.0048  -0.0069   0.0038  -0.0068   0.00    0.0
2016/06/27 02:09:30.000   5633708.7909   1732017.9751  -2433985.5687   -127307.7268         0.0000         0.0000         0.0000     1.9284     1.8519   6  10   0.0114   0.0070   0.0047  -0.0069   0.0037  -0.0068   0.00    0.0
2016/06/27 02:10:00.000   5633708.7908   1732017.9751  -2433985.5686   -126261.2637         0.0000         0.0000         0.0000     1.9283     2.0301   6   9   0.0114   0.0069   0.0047  -0.0068   0.0037  -0.0067   0.00    0.0
2016/06/27 02:10:30.000   5633708.7911   1732017.9750  -2433985.5687   -125212.8726         0.0000         0.0000         0.0000     1.9283     2.0213   6   9   0.0113   0.0069   0.0047  -0.0068   0.0036  -0.0067   0.00    0.0
2016/06/27 02:11:00.000   5633708.7913   1732017.9746  -2433985.5688   -124155.4145         0.0000         0.0000         0.0000     1.9282     2.0127   6   9   0.0112   0.0068   0.0047  -0.0067   0.0036  -0.0067   0.00    0.0
