%  GPST                      x-ecef(m)      y-ecef(m)      z-ecef(m)   Q  ns   sdx(m)   sdy(m)   sdz(m)  sdxy(m)  sdyz(m)  sdzx(m) age(s)  ratio
2016/06/27 00:00:00.000  -2200206.0169   5924895.4826   -855928.9426   -158563.3902         0.0000         0.0000         0.0000     2.5172     3.1370   6   8   1.7120   4.5882   1.4737  -2.2735  -2.0734   0.9826   0.00    0.0
2016/06/27 00:00:30.000  -2200206.7531   5924897.3090   -855929.1459   -158745.4243         0.0000         0.0000         0.0000     2.5174     3.1363   6   8   1.1191   2.6783   0.9256  -1.3206  -1.1346   0.5182   0.00    0.0
2016/06/27 00:01:00.000  -2200206.3795   5924896.2293   -855929.3091   -158934.7854         0.0000         0.0000         0.0000     2.5200     3.1346   6   8   0.8571   1.7959   0.6788  -0.8794  -0.6788   0.2884   0.00    0.0
2016/06/27 00:01:30.000  -2200206.6518   5924896.1424   -855929.1878   -159119.3561         0.0000         0.0000         0.0000     2.5232     3.1320   6   8   0.7106   1.3173   0.5413  -0.6397  -0.4169   0.1535   0.00    0.0
2016/06/27 00:02:00.000  -2200206.5793   5924895.9960   -855929.0795   -159303.6473         0.0000         0.0000         0.0000     2.5220     3.1286   6   8   0.6170   1.0340   0.4543  -0.4972  -0.2472   0.0591   0.00    0.0
2016/06/27 00:02:30.000  -2200206.5726   5924896.1463   -855929.0492   -159484.4818         0.0000         0.0000         0.0000     2.5173     3.1242   6   8   0.5513   0.8547   0.3935  -0.4065  -0.1166  -0.0505   0.00    0.0
2016/06/27 00:03:00.000  -2200206.5358   5924896.2156   -855929.0204   -159661.6524         0.0000         0.0000         0.0000     2.5158     3.1190   6   8   0.5018   0.7349   0.3480  -0.3452   0.0833  -0.0575   0.00    0.0
2016/06/27 00:03:30.000  -2200206.5426   5924896.2072   -855929.0133   -159840.7745         0.0000         0.0000         0.0000     2.5163     3.1129   6   8   0.4628   0.6511   0.3122  -0.3017   0.1241  -0.0457   0.00    0.0
2016/06/27 00:04:00.000  -2200206.6379   5924896.1770   -855928.9768   -160021.1859         0.0000         0.0000         0.0000     2.5125     3.1059   6   8   0.4310   0.5901   0.2829  -0.2696   0.1353  -0.0159   0.00    0.0
2016/06/27 00:04:30.000  -2200206.6655   5924896.1522   -855928.9550   -160199.0485         0.0000         0.0000         0.0000     2.5148     3.0982   6   8   0.4043   0.5440   0.2584  -0.2448   0.1362   0.0403   0.00    0.0
2016/06/27 00:05:00.000  -2200206.6914   5924896.0897   -855929.0065   -160373.3565         0.0000         0.0000         0.0000     2.5131     3.0897   6   8   0.3813   0.5081   0.2375  -0.2250   0.1327   0.0577   0.00    0.0
2016/06/27 00:05:30.000  -2200206.6531   5924896.1434   -855928.9716   -160549.7732         0.0000         0.0000         0.0000     2.5065     3.0804   6   8   0.3614   0.4791   0.2194  -0.2086   0.1272   0.0691   0.00    0.0
2016/06/27 00:06:00.000  -2200206.6764   5924896.2863   -855928.9226   -160724.4186         0.0000         0.0000         0.0000     2.5032     3.0704   6   8   0.3438   0.4550   0.2036  -0.1945   0.1209   0.0772   0.00    0.0
2016/06/27 00:06:30.000  -2200206.6932   5924896.3032   -855928.9257   -160901.7630         0.0000         0.0000         0.0000     2.5045     3.0597   6   8   0.3280   0.4343   0.1897  -0.1820   0.1146   0.0829   0.00    0.0
2016/06/27 00:07:00.000  -2200206.6945   5924896.3699   -855928.9215   -161077.1854         0.0000         0.0000         0.0000     2.5070     3.0484   6   8   0.3138   0.4162   0.1774  -0.1706   0.1084   0.0870   0.00    0.0
2016/06/27 00:07:30.000  -2200206.7672   5924896.3664   -855928.9451   -161253.8904         0.0000         0.0000         0.0000     2.5022     3.0364   6   8   0.3009   0.3999   0.1664  -0.1599   0.1025   0.0899   0.00    0.0
2016/06/27 00:08:00.000  -2200206.7540   5924896.3794   -855928.9417   -161431.4200         0.0000         0.0000         0.0000     2.4952     3.0238   6   8   0.2890   0.3850   0.1565  -0.1499   0.0972   0.0919   0.00    0.0
2016/06/27 00:08:30.000  -2200206.7338   5924896.3929   -855928.9274   -161608.6332         0.0000         0.0000         0.0000     2.4999     3.0107   6   8   0.2781   0.3712   0.1477  -0.1402   0.0923   0.0931   0.00    0.0
2016/06/27 00:09:00.000  -2200206.7520   5924896.3683   -855928.9227   -161787.3129         0.0000         0.0000         0.0000     2.5082     2.2980   6   9   0.2678   0.3580   0.1397  -0.1314   0.0877   0.0937   0.00    0.0
2016/06/27 00:09:30.000  -2200206.7781   5924896.3197   -855928.9133   -161964.5267         0.0000         0.0000         0.0000     2.5232     2.2975   6   9   0.2581   0.3445   0.1323  -0.1216   0.0845   0.0935   0.00    0.0
2016/06/27 00:10:00.000  -2200206.8630   5924896.3135   -855928.9050   -162143.1414         0.0000         0.0000         0.0000     2.5289     2.2968   6   9   0.2490   0.3316   0.1256  -0.1118   0.0816   0.0929   0.00    0.0
2016/06/27 00:10:30.000  -2200206.8742   5924896.3348   -855928.8858   -162319.3257         0.0000         0.0000         0.0000     2.5259     2.2957   6   9   0.2405   0.3191   0.1195  -0.1017   0.0791   0.0922   0.00    0.0
2016/06/27 00:11:00.000  -2200206.8862   5924896.3440   -855928.8994   -162495.5452         0.0000         0.0000         0.0000     2.5225     2.2943   6   9   0.2324   0.3068   0.1139  -0.0911   0.0772   0.0913   0.00    0.0
2016/06/27 00:11:30.000  -2200206.9415   5924896.3219   -855928.9017   -162667.1961         0.0000         0.0000         0.0000     2.5224     2.2926   6   9   0.2248   0.2949   0.1087  -0.0798   0.0756   0.0901   0.00    0.0
2016/06/27 00:12:00.000  -2200206.9661   5924896.3028   -855928.9121   -162838.5956         0.0000         0.0000         0.0000     2.5309     2.2906   6   9   0.2177   0.2833   0.1040  -0.0677   0.0743   0.0889   0.00    0.0
2016/06/27 00:12:30.000  -2200206.9405   5924896.3151   -855928.8899   -163009.8783         0.0000         0.0000         0.0000     2.5283     2.2884   6   9   0.2110   0.2721   0.0995  -0.0542   0.0733   0.0875   0.00    0.0
2016/06/27 00:13:00.000  -2200206.9241   5924896.3192   -855928.8883   -163177.6235         0.0000         0.0000         0.0000     2.5274     2.2858   6   9   0.2046   0.2613   0.0954  -0.0380   0.0723   0.0862   0.00    0.0
2016/06/27 00:13:30.000  -2200206.9250   5924896.2863   -855928.8755   -163343.8571         0.0000         0.0000         0.0000     2.5285     2.2829   6   9   0.1987   0.2511   0.0917  -0.0112   0.0715   0.0848   0.00    0.0
2016/06/27 00:14:00.000  -2200206.9177   5924896.3260   -855928.8579   -163510.2271         0.0000         0.0000         0.0000     2.5186     2.2798   6   9   0.1931   0.2413   0.0882   0.0323   0.0706   0.0835   0.00    0.0
2016/06/27 00:14:30.000  -2200206.9181   5924896.3507   -855928.8474   -163674.2571         0.0000         0.0000         0.0000     2.5141     2.2764   6   9   0.1879   0.2322   0.0849   0.0454   0.0698   0.0821   0.00    0.0
2016/06/27 00:15:00.000  -2200206.9038   5924896.3728   -855928.8433   -163837.4261         0.0000         0.0000         0.0000     2.5120     2.2728   6   9   0.1830   0.2235   0.0819   0.0542   0.0690   0.0808   0.00    0.0
2016/06/27 00:15:30.000  -2200206.9023   5924896.3332   -855928.8293   -164002.8934         0.0000         0.0000         0.0000     2.5177     2.2688   6   9   0.1784   0.2154   0.0791   0.0608   0.0681   0.0795   0.00    0.0
2016/06/27 00:16:00.000  -2200206.9386   5924896.3250   -855928.8294   -164168.6066         0.0000         0.0000         0.0000     2.5188     2.2647   6   9   0.1741   0.2078   0.0764   0.0659   0.0673   0.0783   0.00    0.0
2016/06/27 00:16:30.000  -2200206.9326   5924896.3285   -855928.8391   -164335.6988         0.0000         0.0000         0.0000     2.5242     2.2603   6   9   0.1700   0.2007   0.0739   0.0699   0.0663   0.0771   0.00    0.0
2016/06/27 00:17:00.000  -2200206.9236   5924896.3170   -855928.8392   -164499.4784         0.0000         0.0000         0.0000     2.5246     2.2556   6   9   0.1662   0.1941   0.0716   0.0730   0.0654   0.0760   0.00    0.0
2016/06/27 00:17:30.000  -2200206.9102   5924896.3252   -855928.8421   -164669.9990         0.0000         0.0000         0.0000     2.5217     2.2508   6   9   0.1626   0.1879   0.0694   0.0755   0.0645   0.0748   0.00    0.0
2016/06/27 00:18:00.000  -2200206.8918   5924896.3398   -855928.8346   -164839.1022         0.0000         0.0000         0.0000     2.5227     1.7577   6  10   0.1592   0.1821   0.0673   0.0776   0.0635   0.0736   0.00    0.0
2016/06/27 00:18:30.000  -2200206.8684   5924896.3449   -855928.8425   -165004.1457         0.0000         0.0000         0.0000     2.5245     1.7571   6  10   0.1560   0.1761   0.0652   0.0792   0.0631   0.0726   0.00    0.0
2016/06/27 00:19:00.000  -2200206.8470   5924896.3419   -855928.8413   -165166.5819         0.0000         0.0000         0.0000     2.5280     1.7565   6  10   0.1529   0.1709   0.0634   0.0804   0.0624   0.0714   0.00    0.0
2016/06/27 00:19:30.000  -2200206.8505   5924896.3264   -855928.8426   -165332.6442         0.0000         0.0000         0.0000     2.5317     1.7559   6  10   0.1501   0.1661   0.0616   0.0813   0.0614   0.0705   0.00    0.0
2016/06/27 00:20:00.000  -2200206.8496   5924896.3275   -855928.8408   -165503.3309         0.0000         0.0000         0.0000     2.5319     1.7552   6  10   0.1473   0.1616   0.0599   0.0819   0.0606   0.0696   0.00    0.0
2016/06/27 00:20:30.000  -2200206.8483   5924896.3310   -855928.8415   -165670.9743         0.0000         0.0000         0.0000     2.5305     1.7544   6  10   0.1447   0.1574   0.0583   0.0824   0.0597   0.0686   0.00    0.0
2016/06/27 00:21:00.000  -2200206.8414   5924896.3242   -855928.8467   -165840.1021         0.0000         0.0000         0.0000     2.5335     1.7536   6  10   0.1422   0.1534   0.0569   0.0828   0.0589   0.0676   0.00    0.0
2016/06/27 00:21:30.000  -2200206.8408   5924896.2918   -855928.8497   -166007.4504         0.0000         0.0000         0.0000     2.5368     1.7528   6  10   0.1397   0.1497   0.0554   0.0828   0.0579   0.0667   0.00    0.0
2016/06/27 00:22:00.000  -2200206.8542   5924896.2707   -855928.8573   -166175.2170         0.0000         0.0000         0.0000     2.5404     1.7519   6  10   0.1374   0.1461   0.0541   0.0829   0.0571   0.0658   0.00    0.0
2016/06/27 00:22:30.000  -2200206.8548   5924896.2780   -855928.8654   -166343.5491         0.0000         0.0000         0.0000     2.5411     1.7510   6  10   0.1352   0.1428   0.0528   0.0828   0.0562   0.0649   0.00    0.0
2016/06/27 00:23:00.000  -2200206.8524   5924896.2779   -855928.8708   -166510.2232         0.0000         0.0000         0.0000     2.5405     1.7500   6  10   0.1331   0.1397   0.0516   0.0826   0.0553   0.0642   0.00    0.0
2016/06/27 00:23:30.000  -2200206.8433   5924896.2644   -855928.8694   -166676.2790         0.0000         0.0000         0.0000     2.5394     1.7490   6  10   0.1310   0.1367   0.0505   0.0823   0.0544   0.0633   0.00    0.0
2016/06/27 00:24:00.000  -2200206.8413   5924896.2740   -855928.8787   -166841.0778         0.0000         0.0000         0.0000     2.5368     1.7480   6  10   0.1290   0.1339   0.0494   0.0821   0.0536   0.0624   0.00    0.0
2016/06/27 00:24:30.000  -2200206.8501   5924896.2816   -855928.8806   -167001.4856         0.0000         0.0000         0.0000     2.5347     1.7469   6  10   0.1271   0.1312   0.0483   0.0816   0.0527   0.0616   0.00    0.0
2016/06/27 00:25:00.000  -2200206.8689   5924896.2647   -855928.8806   -167159.2614         0.0000         0.0000         0.0000     2.5355     1.7457   6  10   0.1252   0.1287   0.0473   0.0812   0.0519   0.0608   0.00    0.0
2016/06/27 00:25:30.000  -2200206.8799   5924896.2399   -855928.8940   -167319.9318         0.0000         0.0000         0.0000     2.5377     1.7446   6  10   0.1234   0.1262   0.0464   0.0808   0.0511   0.0600   0.00    0.0
2016/06/27 00:26:00.000  -2200206.8912   5924896.2501   -855928.9007   -167485.9151         0.0000         0.0000         0.0000     2.5368     1.7434   6  10   0.1216   0.1238   0.0454   0.0803   0.0504   0.0592   0.00    0.0
2016/06/27 00:26:30.000  -2200206.8850   5924896.2319   -855928.9024   -167647.7361         0.0000         0.0000         0.0000     2.5362     1.7421   6  10   0.1200   0.1216   0.0446   0.0797   0.0496   0.0584   0.00    0.0
2016/06/27 00:27:00.000  -2200206.8724   5924896.2423   -855928.9000   -167805.4876         0.0000         0.0000         0.0000     2.5353     1.7408   6  10   0.1183   0.1195   0.0437   0.0791   0.0487   0.0578   0.00    0.0
2016/06/27 00:27:30.000  -2200206.8853   5924896.2339   -855928.8935   -167963.5712         0.0000         0.0000         0.0000     2.5344     1.7395   6  10   0.1166   0.1175   0.0428   0.0785   0.0481   0.0569   0.00    0.0
2016/06/27 00:28:00.000  -2200206.8879   5924896.2328   -855928.9034   -168120.3646         0.0000         0.0000         0.0000     2.5345     1.7382   6  10   0.1150   0.1154   0.0420   0.0779   0.0475   0.0560   0.00    0.0
2016/06/27 00:28:30.000  -2200206.8772   5924896.2356   -855928.9026   -168276.3386         0.0000         0.0000         0.0000     2.5327     1.7368   6  10   0.1135   0.1136   0.0413   0.0772   0.0467   0.0554   0.00    0.0
2016/06/27 00:29:00.000  -2200206.8928   5924896.2265   -855928.8975   -168433.2783         0.0000         0.0000         0.0000     2.5312     1.7353   6  10   0.1120   0.1118   0.0405   0.0765   0.0459   0.0547   0.00    0.0
2016/06/27 00:29:30.000  -2200206.8962   5924896.2182   -855928.8952   -168590.4028         0.0000         0.0000         0.0000     2.5310     1.7339   6  10   0.1105   0.1100   0.0399   0.0758   0.0452   0.0540   0.00    0.0
2016/06/27 00:30:00.000  -2200206.9105   5924896.2057   -855928.9067   -168749.1597         0.0000         0.0000         0.0000     2.5313     1.7324   6  10   0.1090   0.1083   0.0391   0.0751   0.0446   0.0533   0.00    0.0
2016/06/27 00:30:30.000  -2200206.9174   5924896.2005   -855928.9044   -168909.8842         0.0000         0.0000         0.0000     2.5314     1.7309   6  10   0.1076   0.1067   0.0385   0.0743   0.0439   0.0527   0.00    0.0
2016/06/27 00:31:00.000  -2200206.9348   5924896.1855   -855928.9151   -169072.1816         0.0000         0.0000         0.0000     2.5326     1.7293   6  10   0.1062   0.1051   0.0378   0.0736   0.0433   0.0519   0.00    0.0
2016/06/27 00:31:30.000  -2200206.9539   5924896.1953   -855928.9226   -169232.8940         0.0000         0.0000         0.0000     2.5338     1.7277   6  10   0.1048   0.1035   0.0373   0.0728   0.0425   0.0513   0.00    0.0
2016/06/27 00:32:00.000  -2200206.9664   5924896.1746   -855928.9177   -169396.9159         0.0000         0.0000         0.0000     2.5342     1.7261   6  10   0.1034   0.1020   0.0366   0.0721   0.0420   0.0504   0.00    0.0
2016/06/27 00:32:30.000  -2200206.9667   5924896.1789   -855928.9174   -169558.6593         0.0000         0.0000         0.0000     2.5324     1.7244   6  10   0.1021   0.1006   0.0362   0.0713   0.0412   0.0500   0.00    0.0
2016/06/27 00:33:00.000  -2200206.9656   5924896.1483   -855928.9206   -169718.1404         0.0000         0.0000         0.0000     2.5318     1.7228   6  10   0.1009   0.0992   0.0355   0.0705   0.0407   0.0492   0.00    0.0
2016/06/27 00:33:30.000  -2200206.9904   5924896.1725   -855928.9286   -169877.8704         0.0000         0.0000         0.0000     2.5325     1.7211   6  10   0.0995   0.0978   0.0349   0.0697   0.0402   0.0485   0.00    0.0
2016/06/27 00:34:00.000  -2200206.9980   5924896.1786   -855928.9302   -170040.8561         0.0000         0.0000         0.0000     2.5307     1.7193   6  10   0.0982   0.0965   0.0345   0.0688   0.0394   0.0480   0.00    0.0
2016/06/27 00:34:30.000  -2200206.9888   5924896.1801   -855928.9390   -170201.4046         0.0000         0.0000         0.0000     2.5299     1.7176   6  10   0.0970   0.0951   0.0339   0.0680   0.0388   0.0473   0.00    0.0
2016/06/27 00:35:00.000  -2200207.0024   5924896.1642   -855928.9391   -170361.2921         0.0000         0.0000         0.0000     2.5294     1.7158   6  10   0.0958   0.0939   0.0334   0.0672   0.0384   0.0466   0.00    0.0
2016/06/27 00:35:30.000  -2200207.0201   5924896.1649   -855928.9387   -170524.3296         0.0000         0.0000         0.0000     2.5293     1.7140   6  10   0.0945   0.0926   0.0329   0.0664   0.0377   0.0460   0.00    0.0
2016/06/27 00:36:00.000  -2200207.0454   5924896.1551   -855928.9411   -170683.0683         0.0000         0.0000         0.0000     2.5313     1.7121   6  10   0.0933   0.0915   0.0325   0.0656   0.0372   0.0452   0.00    0.0
2016/06/27 00:36:30.000  -2200207.0563   5924896.1695   -855928.9491   -170842.0644         0.0000         0.0000         0.0000     2.5332     1.7103   6  10   0.0921   0.0902   0.0321   0.0647   0.0366   0.0446   0.00    0.0
2016/06/27 00:37:00.000  -2200207.0608   5924896.1567   -855928.9496   -171000.7123         0.0000         0.0000         0.0000     2.5343     1.7084   6  10   0.0909   0.0891   0.0315   0.0638   0.0362   0.0440   0.00    0.0
2016/06/27 00:37:30.000  -2200207.0821   5924896.1359   -855928.9573   -171162.8923         0.0000         0.0000         0.0000     2.5360     1.7065   6  10   0.0898   0.0880   0.0311   0.0630   0.0356   0.0434   0.00    0.0
2016/06/27 00:38:00.000  -2200207.0882   5924896.1459   -855928.9576   -171325.0823         0.0000         0.0000         0.0000     2.5358     1.7046   6  10   0.0886   0.0868   0.0307   0.0621   0.0350   0.0429   0.00    0.0
2016/06/27 00:38:30.000  -2200207.1082   5924896.1431   -855928.9582   -171488.0763         0.0000         0.0000         0.0000     2.5365     1.4978   6  11   0.0875   0.0857   0.0303   0.0613   0.0346   0.0421   0.00    0.0
2016/06/27 00:39:00.000  -2200207.1119   5924896.1314   -855928.9604   -171651.4458         0.0000         0.0000         0.0000     2.5375     1.4965   6  11   0.0862   0.0840   0.0297   0.0606   0.0336   0.0417   0.00    0.0
2016/06/27 00:39:30.000  -2200207.1141   5924896.1172   -855928.9632   -171815.2623         0.0000         0.0000         0.0000     2.5378     1.4952   6  11   0.0855   0.0855   0.0296   0.0584   0.0341   0.0407   0.00    0.0
2016/06/27 00:40:00.000  -2200207.1183   5924896.1083   -855928.9651   -171975.3263         0.0000         0.0000         0.0000     2.5371     1.4939   6  11   0.0844   0.0823   0.0290   0.0582   0.0327   0.0404   0.00    0.0
2016/06/27 00:40:30.000  -2200207.1278   5924896.0999   -855928.9594   -172134.1683         0.0000         0.0000         0.0000     2.5366     1.4926   6  11   0.0834   0.0806   0.0286   0.0576   0.0319   0.0400   0.00    0.0
2016/06/27 00:41:00.000  -2200207.1334   5924896.0909   -855928.9701   -172289.5139         0.0000         0.0000         0.0000     2.5369     1.4913   6  11   0.0823   0.0792   0.0282   0.0571   0.0312   0.0393   0.00    0.0
2016/06/27 00:41:30.000  -2200207.1464   5924896.0868   -855928.9710   -172444.9861         0.0000         0.0000         0.0000     2.5380     1.4900   6  11   0.0814   0.0780   0.0279   0.0563   0.0305   0.0389   0.00    0.0
2016/06/27 00:42:00.000  -2200207.1665   5924896.0716   -855928.9762   -172599.1413         0.0000         0.0000         0.0000     2.5384     1.4887   6  10   0.0805   0.0794   0.0277   0.0547   0.0309   0.0381   0.00    0.0
2016/06/27 00:42:30.000  -2200207.1851   5924896.0384   -855928.9796   -172750.7704         0.0000         0.0000         0.0000     2.5397     1.4874   6  10   0.0796   0.0783   0.0273   0.0538   0.0305   0.0375   0.00    0.0
2016/06/27 00:43:00.000  -2200207.1962   5924896.0340   -855928.9873   -172903.4500         0.0000         0.0000         0.0000     2.5404     1.4862   6  10   0.0786   0.0773   0.0270   0.0531   0.0298   0.0371   0.00    0.0
2016/06/27 00:43:30.000  -2200207.2057   5924896.0137   -855928.9826   -173057.5162         0.0000         0.0000         0.0000     2.5414     1.4849   6  10   0.0776   0.0763   0.0267   0.0522   0.0292   0.0365   0.00    0.0
2016/06/27 00:44:00.000  -2200207.2214   5924896.0072   -855928.9903   -173214.9405         0.0000         0.0000         0.0000     2.5427     1.4836   6  10   0.0766   0.0752   0.0264   0.0515   0.0288   0.0360   0.00    0.0
2016/06/27 00:44:30.000  -2200207.2376   5924895.9973   -855928.9940   -173371.6484         0.0000         0.0000         0.0000     2.5444     1.4824   6  10   0.0757   0.0742   0.0260   0.0505   0.0282   0.0353   0.00    0.0
2016/06/27 00:45:00.000  -2200207.2444   5924895.9963   -855928.9917   -173525.3331         0.0000         0.0000         0.0000     2.5443     1.4811   6  10   0.0747   0.0733   0.0257   0.0497   0.0276   0.0348   0.00    0.0
2016/06/27 00:45:30.000  -2200207.2562   5924895.9811   -855928.9960   -173676.3272         0.0000         0.0000         0.0000     2.5449     1.4799   6  10   0.0738   0.0722   0.0254   0.0489   0.0271   0.0342   0.00    0.0
2016/06/27 00:46:00.000  -2200207.2611   5924895.9721   -855929.0065   -173817.9729         0.0000         0.0000         0.0000     2.5468     1.4786   6  10   0.0729   0.0713   0.0250   0.0480   0.0267   0.0337   0.00    0.0
2016/06/27 00:46:30.000  -2200207.2828   5924895.9730   -855929.0079   -173961.1220         0.0000         0.0000         0.0000     2.5475     1.4774   6  10   0.0719   0.0703   0.0249   0.0472   0.0261   0.0332   0.00    0.0
2016/06/27 00:47:00.000  -2200207.2865   5924895.9571   -855929.0108   -174105.7340         0.0000         0.0000         0.0000     2.5483     1.4761   6  10   0.0710   0.0693   0.0245   0.0463   0.0257   0.0327   0.00    0.0
2016/06/27 00:47:30.000  -2200207.3021   5924895.9299   -855929.0180   -174251.7287         0.0000         0.0000         0.0000     2.5499     1.4749   6  10   0.0701   0.0685   0.0242   0.0454   0.0251   0.0322   0.00    0.0
2016/06/27 00:48:00.000  -2200207.3063   5924895.9278   -855929.0198   -174400.0060         0.0000         0.0000         0.0000     2.5501     1.4737   6  10   0.0691   0.0676   0.0240   0.0445   0.0248   0.0316   0.00    0.0
2016/06/27 00:48:30.000  -2200207.3176   5924895.9171   -855929.0251   -174547.6799         0.0000         0.0000         0.0000     2.5520     1.4725   6  10   0.0683   0.0667   0.0238   0.0437   0.0241   0.0313   0.00    0.0
2016/06/27 00:49:00.000  -2200207.3311   5924895.9148   -855929.0246   -174690.5958         0.0000         0.0000         0.0000     2.5528     1.4713   6  10   0.0673   0.0658   0.0236   0.0428   0.0236   0.0306   0.00    0.0
2016/06/27 00:49:30.000  -2200207.3450   5924895.9034   -855929.0244   -174832.3477         0.0000         0.0000         0.0000     2.5538     1.4701   6  10   0.0665   0.0650   0.0233   0.0420   0.0233   0.0301   0.00    0.0
2016/06/27 00:50:00.000  -2200207.3601   5924895.8861   -855929.0299   -174974.0808         0.0000         0.0000         0.0000     2.5557     1.4689   6  10   0.0656   0.0641   0.0232   0.0411   0.0225   0.0299   0.00    0.0
2016/06/27 00:50:30.000  -2200207.3719   5924895.9181   -855929.0362   -175113.3323         0.0000         0.0000         0.0000     2.5563     1.4678   6  10   0.0649   0.0665   0.0232   0.0415   0.0202   0.0289   0.00    0.0
2016/06/27 00:51:00.000  -2200207.3709   5924895.9039   -855929.0404   -175253.1190         0.0000         0.0000         0.0000     2.5574     1.4666   6  10   0.0643   0.0657   0.0229   0.0407   0.0200   0.0284   0.00    0.0
2016/06/27 00:51:30.000  -2200207.3834   5924895.9024   -855929.0516   -175391.6754         0.0000         0.0000         0.0000     2.5589     1.4654   6  10   0.0636   0.0636   0.0225   0.0401   0.0204   0.0280   0.00    0.0
2016/06/27 00:52:00.000  -2200207.3976   5924895.8667   -855929.0539   -175527.0273         0.0000         0.0000         0.0000     2.5601     1.4643   6  10   0.0630   0.0624   0.0222   0.0394   0.0206   0.0274   0.00    0.0
2016/06/27 00:52:30.000  -2200207.4077   5924895.8628   -855929.0543   -175659.3461         0.0000         0.0000         0.0000     2.5614     1.4632   6  10   0.0624   0.0614   0.0220   0.0388   0.0202   0.0272   0.00    0.0
2016/06/27 00:53:00.000  -2200207.4194   5924895.8722   -855929.0565   -175788.2627         0.0000         0.0000         0.0000     2.5627     1.4620   6  10   0.0618   0.0606   0.0219   0.0381   0.0196   0.0271   0.00    0.0
2016/06/27 00:53:30.000  -2200207.4244   5924895.8506   -855929.0558   -175912.5173         0.0000         0.0000         0.0000     2.5635     1.4609   6  10   0.0612   0.0598   0.0215   0.0373   0.0196   0.0264   0.00    0.0
2016/06/27 00:54:00.000  -2200207.4276   5924895.8408   -855929.0644   -176037.8116         0.0000         0.0000         0.0000     2.5642     1.7453   6  10   0.0606   0.0590   0.0214   0.0366   0.0191   0.0261   0.00    0.0
2016/06/27 00:54:30.000  -2200207.4348   5924895.8478   -855929.0649   -176165.6439         0.0000         0.0000         0.0000     2.5646     1.7458   6  10   0.0599   0.0583   0.0213   0.0359   0.0188   0.0258   0.00    0.0
2016/06/27 00:55:00.000  -2200207.4410   5924895.8400   -855929.0705   -176295.9050         0.0000         0.0000         0.0000     2.5658     1.7463   6  10   0.0594   0.0575   0.0212   0.0352   0.0182   0.0255   0.00    0.0
2016/06/27 00:55:30.000  -2200207.4553   5924895.8289   -855929.0710   -176425.7119         0.0000         0.0000         0.0000     2.5669     1.7468   6  10   0.0587   0.0568   0.0208   0.0345   0.0182   0.0250   0.00    0.0
2016/06/27 00:56:00.000  -2200207.4552   5924895.8068   -855929.0765   -176557.3446         0.0000         0.0000         0.0000     2.5688     1.7473   6  10   0.0582   0.0561   0.0208   0.0340   0.0177   0.0249   0.00    0.0
2016/06/27 00:56:30.000  -2200207.4678   5924895.8079   -855929.0813   -176689.8713         0.0000         0.0000         0.0000     2.5703     1.7477   6  10   0.0576   0.0556   0.0207   0.0333   0.0174   0.0244   0.00    0.0
2016/06/27 00:57:00.000  -2200207.4828   5924895.8165   -855929.0774   -176819.9334         0.0000         0.0000         0.0000     2.5713     1.7481   6  10   0.0571   0.0549   0.0204   0.0326   0.0172   0.0239   0.00    0.0
2016/06/27 00:57:30.000  -2200207.4921   5924895.8143   -855929.0752   -176949.7423         0.0000         0.0000         0.0000     2.5722     1.7485   6  10   0.0565   0.0543   0.0203   0.0318   0.0168   0.0238   0.00    0.0
2016/06/27 00:58:00.000  -2200207.4949   5924895.7987   -855929.0796   -177081.5114         0.0000         0.0000         0.0000     2.5728     1.7488   6  10   0.0559   0.0536   0.0202   0.0313   0.0166   0.0233   0.00    0.0
2016/06/27 00:58:30.000  -2200207.5007   5924895.8028   -855929.0797   -177209.7033         0.0000         0.0000         0.0000     2.5735     1.7491   6  10   0.0553   0.0530   0.0199   0.0306   0.0163   0.0231   0.00    0.0
2016/06/27 00:59:00.000  -2200207.5056   5924895.7889   -855929.0776   -177339.0913         0.0000         0.0000         0.0000     2.5744     1.7494   6  10   0.0548   0.0525   0.0200   0.0299   0.0155   0.0229   0.00    0.0
2016/06/27 00:59:30.000  -2200207.5074   5924895.7788   -855929.0791   -177469.9024         0.0000         0.0000         0.0000     2.5752     1.7497   6  10   0.0542   0.0519   0.0199   0.0295   0.0155   0.0225   0.00    0.0
2016/06/27 01:00:00.000  -2200207.5168   5924895.7739   -855929.0849   -177601.8840         0.0000         0.0000         0.0000     2.5761     1.7499   6  10   0.0538   0.0514   0.0199   0.0286   0.0147   0.0225   0.00    0.0
2016/06/27 01:00:30.000  -2200207.5234   5924895.7696   -855929.0873   -177728.5548         0.0000         0.0000         0.0000     2.5764     1.7501   6  10   0.0532   0.0508   0.0197   0.0280   0.0145   0.0222   0.00    0.0
2016/06/27 01:01:00.000  -2200207.5272   5924895.7529   -855929.0958   -177855.4326         0.0000         0.0000         0.0000     2.5780     1.7502   6  10   0.0526   0.0503   0.0196   0.0275   0.0144   0.0217   0.00    0.0
2016/06/27 01:01:30.000  -2200207.5440   5924895.7595   -855929.0905   -177981.9186         0.0000         0.0000         0.0000     2.5787     1.7503   6  10   0.0521   0.0498   0.0197   0.0269   0.0139   0.0216   0.00    0.0
2016/06/27 01:02:00.000  -2200207.5507   5924895.7475   -855929.0974   -178108.8001         0.0000         0.0000         0.0000     2.5799     1.7504   6  10   0.0516   0.0492   0.0192   0.0262   0.0139   0.0208   0.00    0.0
2016/06/27 01:02:30.000  -2200207.5621   5924895.7499   -855929.0931   -178229.3124         0.0000         0.0000         0.0000     2.5807     1.7505   6  10   0.0512   0.0488   0.0191   0.0255   0.0138   0.0208   0.00    0.0
2016/06/27 01:03:00.000  -2200207.5684   5924895.7372   -855929.1030   -178349.0668         0.0000         0.0000         0.0000     2.5818     1.7505   6  10   0.0507   0.0481   0.0189   0.0251   0.0134   0.0205   0.00    0.0
2016/06/27 01:03:30.000  -2200207.5733   5924895.7167   -855929.1028   -178467.6558         0.0000         0.0000         0.0000     2.5832     1.7505   6  10   0.0502   0.0479   0.0190   0.0245   0.0130   0.0203   0.00    0.0
2016/06/27 01:04:00.000  -2200207.5929   5924895.7343   -855929.1015   -178586.6589         0.0000         0.0000         0.0000     2.5843     1.7504   6  10   0.0496   0.0473   0.0187   0.0239   0.0127   0.0199   0.00    0.0
2016/06/27 01:04:30.000  -2200207.5941   5924895.7222   -855929.1033   -178710.1870         0.0000         0.0000         0.0000     2.5847     1.7503   6  10   0.0491   0.0470   0.0187   0.0233   0.0126   0.0196   0.00    0.0
2016/06/27 01:05:00.000  -2200207.5969   5924895.7076   -855929.1058   -178831.9604         0.0000         0.0000         0.0000     2.5850     1.7502   6  10   0.0487   0.0464   0.0185   0.0227   0.0122   0.0197   0.00    0.0
2016/06/27 01:05:30.000  -2200207.6091   5924895.7076   -855929.1184   -178951.8216         0.0000         0.0000         0.0000     2.5861     1.7500   6  10   0.0482   0.0459   0.0186   0.0223   0.0120   0.0194   0.00    0.0
2016/06/27 01:06:00.000  -2200207.6142   5924895.6942   -855929.1192   -179072.6267         0.0000         0.0000         0.0000     2.5872     1.7499   6  10   0.0477   0.0456   0.0187   0.0217   0.0113   0.0193   0.00    0.0
2016/06/27 01:06:30.000  -2200207.6264   5924895.6992   -855929.1222   -179192.4506         0.0000         0.0000         0.0000     2.5887     1.7496   6  10   0.0472   0.0453   0.0184   0.0210   0.0116   0.0190   0.00    0.0
2016/06/27 01:07:00.000  -2200207.6334   5924895.6863   -855929.1145   -179308.1070         0.0000         0.0000         0.0000     2.5899     1.7494   6  10   0.0467   0.0448   0.0182   0.0207   0.0111   0.0188   0.00    0.0
2016/06/27 01:07:30.000  -2200207.6408   5924895.6817   -855929.1125   -179414.4518         0.0000         0.0000         0.0000     2.5904     1.7491   6  10   0.0464   0.0446   0.0183   0.0197   0.0106   0.0185   0.00    0.0
2016/06/27 01:08:00.000  -2200207.6449   5924895.6778   -855929.1274   -179523.0319         0.0000         0.0000         0.0000     2.5914     1.7487   6  10   0.0459   0.0441   0.0182   0.0195   0.0103   0.0184   0.00    0.0
2016/06/27 01:08:30.000  -2200207.6456   5924895.6679   -855929.1272   -179631.7970         0.0000         0.0000         0.0000     2.5934     1.7483   6  10   0.0454   0.0436   0.0181   0.0189   0.0105   0.0181   0.00    0.0
2016/06/27 01:09:00.000  -2200207.6541   5924895.6436   -855929.1298   -179734.3102         0.0000         0.0000         0.0000     2.5953     1.7479   6  10   0.0451   0.0432   0.0179   0.0182   0.0100   0.0177   0.00    0.0
2016/06/27 01:09:30.000  -2200207.6714   5924895.6465   -855929.1295   -179834.7442         0.0000         0.0000         0.0000     2.5966     1.7475   6  10   0.0446   0.0430   0.0178   0.0179   0.0098   0.0177   0.00    0.0
2016/06/27 01:10:00.000  -2200207.6739   5924895.6483   -855929.1311   -179936.0726         0.0000         0.0000         0.0000     2.5972     1.7470   6  10   0.0443   0.0427   0.0179   0.0172   0.0095   0.0176   0.00    0.0
2016/06/27 01:10:30.000  -2200207.6770   5924895.6326   -855929.1302   -180038.1882         0.0000         0.0000         0.0000     2.5981     1.7465   6  10   0.0439   0.0422   0.0179   0.0167   0.0088   0.0175   0.00    0.0
2016/06/27 01:11:00.000  -2200207.6843   5924895.6362   -855929.1333   -180133.6190         0.0000         0.0000         0.0000     2.5989     1.7459   6  10   0.0435   0.0420   0.0177   0.0162   0.0087   0.0172   0.00    0.0
2016/06/27 01:11:30.000  -2200207.6891   5924895.6366   -855929.1252   -180225.2708         0.0000         0.0000         0.0000     2.6001     1.7453   6  10   0.0430   0.0417   0.0178   0.0156   0.0080   0.0172   0.00    0.0
2016/06/27 01:12:00.000  -2200207.6940   5924895.6371   -855929.1274   -180316.6061         0.0000         0.0000         0.0000     2.6011     1.7447   6  10   0.0426   0.0412   0.0177   0.0153   0.0083   0.0168   0.00    0.0
2016/06/27 01:12:30.000  -2200207.7003   5924895.6357   -855929.1254   -180406.7138         0.0000         0.0000         0.0000     2.6023     1.7441   6  10   0.0423   0.0408   0.0177   0.0145   0.0079   0.0167   0.00    0.0
2016/06/27 01:13:00.000  -2200207.7050   5924895.6130   -855929.1323   -180497.3528         0.0000         0.0000         0.0000     2.6037     1.7434   6  10   0.0419   0.0406   0.0177   0.0142   0.0072   0.0165   0.00    0.0
2016/06/27 01:13:30.000  -2200207.7219   5924895.6268   -855929.1277   -180587.1965         0.0000         0.0000         0.0000     2.6047     1.7426   6  10   0.0415   0.0403   0.0175   0.0134   0.0071   0.0163   0.00    0.0
2016/06/27 01:14:00.000  -2200207.7334   5924895.6226   -855929.1208   -180677.1837         0.0000         0.0000         0.0000     2.6056     1.7419   6  10   0.0412   0.0400   0.0176   0.0130   0.0066   0.0166   0.00    0.0
2016/06/27 01:14:30.000  -2200207.7427   5924895.6283   -855929.1268   -180762.5330         0.0000         0.0000         0.0000     2.6060     1.7411   6  10   0.0408   0.0397   0.0175   0.0124   0.0062   0.0164   0.00    0.0
2016/06/27 01:15:00.000  -2200207.7470   5924895.6309   -855929.1254   -180851.7619         0.0000         0.0000         0.0000     2.6063     1.7402   6  10   0.0404   0.0395   0.0173   0.0117   0.0063   0.0159   0.00    0.0
2016/06/27 01:15:30.000  -2200207.7349   5924895.5889   -855929.1461   -180937.3903         0.0000         0.0000         0.0000     2.6068     1.7394   6  10   0.0402   0.0393   0.0174   0.0114   0.0062   0.0160   0.00    0.0
2016/06/27 01:16:00.000  -2200207.7432   5924895.5808   -855929.1481   -181020.9937         0.0000         0.0000         0.0000     2.6074     1.7385   6  10   0.0398   0.0390   0.0173   0.0106   0.0053   0.0158   0.00    0.0
2016/06/27 01:16:30.000  -2200207.7580   5924895.6082   -855929.1311   -181103.3542         0.0000         0.0000         0.0000     2.6075     1.7375   6  10   0.0395   0.0387   0.0172   0.0101   0.0047   0.0159   0.00    0.0
2016/06/27 01:17:00.000  -2200207.7650   5924895.6233   -855929.1216   -181181.5608         0.0000         0.0000         0.0000     2.6071     1.7366   6  10   0.0391   0.0385   0.0170   0.0095   0.0054   0.0153   0.00    0.0
2016/06/27 01:17:30.000  -2200207.7610   5924895.6132   -855929.1297   -181256.1827         0.0000         0.0000         0.0000     2.6071     1.7356   6  10   0.0388   0.0382   0.0172   0.0088   0.0041   0.0154   0.00    0.0
2016/06/27 01:18:00.000  -2200207.7553   5924895.5886   -855929.1350   -181330.9009         0.0000         0.0000         0.0000     2.6074     1.7345   6  10   0.0383   0.0378   0.0171   0.0084   0.0042   0.0152   0.00    0.0
2016/06/27 01:18:30.000  -2200207.7637   5924895.5956   -855929.1410   -181403.5024         0.0000         0.0000         0.0000     2.6078     1.7335   6  10   0.0381   0.0377   0.0171   0.0079   0.0034   0.0151   0.00    0.0
2016/06/27 01:19:00.000  -2200207.7686   5924895.5962   -855929.1373   -181471.3707         0.0000         0.0000         0.0000     2.6083     1.5064   6  11   0.0378   0.0375   0.0172   0.0068   0.0018   0.0150   0.00    0.0
2016/06/27 01:19:30.000  -2200207.7748   5924895.5959   -855929.1294   -181538.5833         0.0000         0.0000         0.0000     2.6087     1.5061   6  11   0.0374   0.0366   0.0169   0.0078  -0.0021   0.0150   0.00    0.0
2016/06/27 01:20:00.000  -2200207.7865   5924895.6005   -855929.1308   -181599.4217         0.0000         0.0000         0.0000     2.6092     1.5057   6  11   0.0370   0.0363   0.0168   0.0078  -0.0034   0.0152   0.00    0.0
2016/06/27 01:20:30.000  -2200207.7809   5924895.5920   -855929.1348   -181660.8361         0.0000         0.0000         0.0000     2.6100     1.5054   6  11   0.0368   0.0359   0.0170   0.0072  -0.0040   0.0150   0.00    0.0
2016/06/27 01:21:00.000  -2200207.7835   5924895.5993   -855929.1470   -181722.8591         0.0000         0.0000         0.0000     2.6106     1.5050   6  11   0.0363   0.0358   0.0168   0.0069  -0.0043   0.0151   0.00    0.0
2016/06/27 01:21:30.000  -2200207.7902   5924895.5815   -855929.1431   -181780.3476         0.0000         0.0000         0.0000     2.6113     1.5047   6  11   0.0360   0.0354   0.0165   0.0067  -0.0057   0.0146   0.00    0.0
2016/06/27 01:22:00.000  -2200207.7922   5924895.5699   -855929.1456   -181838.5011         0.0000         0.0000         0.0000     2.6125     1.5043   6  11   0.0358   0.0352   0.0168   0.0057  -0.0059   0.0150   0.00    0.0
2016/06/27 01:22:30.000  -2200207.8001   5924895.5698   -855929.1514   -181891.3467         0.0000         0.0000         0.0000     2.6127     1.5040   6  11   0.0356   0.0350   0.0168   0.0062  -0.0062   0.0149   0.00    0.0
2016/06/27 01:23:00.000  -2200207.8043   5924895.5657   -855929.1602   -181945.6437         0.0000         0.0000         0.0000     2.6133     1.5037   6  11   0.0352   0.0349   0.0167   0.0042  -0.0064   0.0145   0.00    0.0
2016/06/27 01:23:30.000  -2200207.8051   5924895.5686   -855929.1609   -181996.8993         0.0000         0.0000         0.0000     2.6134     1.5034   6  11   0.0352   0.0346   0.0166   0.0027  -0.0064   0.0148   0.00    0.0
2016/06/27 01:24:00.000  -2200207.8137   5924895.5673   -855929.1574   -182046.8484         0.0000         0.0000         0.0000     2.6136     1.5031   6  11   0.0349   0.0345   0.0166   0.0014  -0.0069   0.0146   0.00    0.0
2016/06/27 01:24:30.000  -2200207.8255   5924895.5726   -855929.1516   -182095.6800         0.0000         0.0000         0.0000     2.6141     1.5028   6  11   0.0345   0.0343   0.0167  -0.0025  -0.0074   0.0146   0.00    0.0
2016/06/27 01:25:00.000  -2200207.8294   5924895.5675   -855929.1606   -182144.6283         0.0000         0.0000         0.0000     2.6143     1.5025   6  11   0.0343   0.0340   0.0165  -0.0035  -0.0073   0.0145   0.00    0.0
2016/06/27 01:25:30.000  -2200207.8293   5924895.5530   -855929.1599   -182193.3707         0.0000         0.0000         0.0000     2.6149     1.4539   6  12   0.0340   0.0340   0.0165  -0.0041  -0.0071   0.0142   0.00    0.0
2016/06/27 01:26:00.000  -2200207.8265   5924895.5516   -855929.1582   -182241.6126         0.0000         0.0000         0.0000     2.6155     1.4540   6  12   0.0337   0.0336   0.0160  -0.0036  -0.0062   0.0138   0.00    0.0
2016/06/27 01:26:30.000  -2200207.8263   5924895.5551   -855929.1521   -182284.2711         0.0000         0.0000         0.0000     2.6155     1.5138   6  11   0.0335   0.0339   0.0168  -0.0052  -0.0082   0.0142   0.00    0.0
2016/06/27 01:27:00.000  -2200207.8192   5924895.5539   -855929.1513   -182330.6350         0.0000         0.0000         0.0000     2.6155     1.5151   6  11   0.0333   0.0337   0.0167  -0.0058  -0.0083   0.0139   0.00    0.0
2016/06/27 01:27:30.000  -2200207.8178   5924895.5479   -855929.1558   -182378.1829         0.0000         0.0000         0.0000     2.6158     1.5163   6  11   0.0329   0.0336   0.0165  -0.0059  -0.0085   0.0139   0.00    0.0
2016/06/27 01:28:00.000  -2200207.8150   5924895.5449   -855929.1630   -182423.7706         0.0000         0.0000         0.0000     2.6158     1.5175   6  11   0.0329   0.0334   0.0165  -0.0062  -0.0085   0.0137   0.00    0.0
2016/06/27 01:28:30.000  -2200207.8146   5924895.5433   -855929.1471   -182465.4651         0.0000         0.0000         0.0000     2.6158     1.5188   6  11   0.0326   0.0332   0.0163  -0.0064  -0.0086   0.0137   0.00    0.0
2016/06/27 01:29:00.000  -2200207.8224   5924895.5552   -855929.1507   -182507.2903         0.0000         0.0000         0.0000     2.6160     1.5201   6  11   0.0324   0.0332   0.0164  -0.0066  -0.0090   0.0137   0.00    0.0
2016/06/27 01:29:30.000  -2200207.8322   5924895.5547   -855929.1548   -182547.1852         0.0000         0.0000         0.0000     2.6161     1.5214   6  11   0.0320   0.0330   0.0162  -0.0072  -0.0082   0.0136   0.00    0.0
2016/06/27 01:30:00.000  -2200207.8417   5924895.5422   -855929.1531   -182585.4598         0.0000         0.0000         0.0000     2.6161     1.5227   6  11   0.0319   0.0328   0.0161  -0.0074  -0.0090   0.0135   0.00    0.0
2016/06/27 01:30:30.000  -2200207.8512   5924895.5475   -855929.1639   -182628.6630         0.0000         0.0000         0.0000     2.6163     1.5240   6  11   0.0317   0.0328   0.0161  -0.0079  -0.0088   0.0132   0.00    0.0
2016/06/27 01:31:00.000  -2200207.8543   5924895.5422   -855929.1660   -182681.0857         0.0000         0.0000         0.0000     2.6167     1.5253   6  11   0.0316   0.0327   0.0160  -0.0081  -0.0089   0.0133   0.00    0.0
2016/06/27 01:31:30.000  -2200207.8642   5924895.5356   -855929.1632   -182723.8410         0.0000         0.0000         0.0000     2.6169     1.5267   6  11   0.0313   0.0326   0.0161  -0.0083  -0.0092   0.0131   0.00    0.0
2016/06/27 01:32:00.000  -2200207.8638   5924895.5338   -855929.1648   -182759.4509         0.0000         0.0000         0.0000     2.6170     1.5280   6  11   0.0311   0.0326   0.0160  -0.0086  -0.0093   0.0132   0.00    0.0
2016/06/27 01:32:30.000  -2200207.8665   5924895.5328   -855929.1669   -182795.2571         0.0000         0.0000         0.0000     2.6171     1.5294   6  11   0.0309   0.0325   0.0160  -0.0089  -0.0095   0.0129   0.00    0.0
2016/06/27 01:33:00.000  -2200207.8636   5924895.5227   -855929.1629   -182833.2201         0.0000         0.0000         0.0000     2.6173     1.5308   6  11   0.0308   0.0325   0.0160  -0.0094  -0.0094   0.0130   0.00    0.0
2016/06/27 01:33:30.000  -2200207.8692   5924895.5256   -855929.1641   -182868.0047         0.0000         0.0000         0.0000     2.6175     1.5322   6  11   0.0306   0.0323   0.0158  -0.0096  -0.0094   0.0131   0.00    0.0
2016/06/27 01:34:00.000  -2200207.8595   5924895.5353   -855929.1634   -182902.5356         0.0000         0.0000         0.0000     2.6178     1.5336   6  11   0.0305   0.0325   0.0155  -0.0096  -0.0096   0.0130   0.00    0.0
2016/06/27 01:34:30.000  -2200207.8536   5924895.5473   -855929.1627   -182939.4224         0.0000         0.0000         0.0000     2.6182     1.5351   6  11   0.0302   0.0321   0.0155  -0.0100  -0.0092   0.0129   0.00    0.0
2016/06/27 01:35:00.000  -2200207.8531   5924895.5497   -855929.1467   -182970.8281         0.0000         0.0000         0.0000     2.6186     1.5365   6  11   0.0301   0.0320   0.0158  -0.0101  -0.0100   0.0128   0.00    0.0
2016/06/27 01:35:30.000  -2200207.8620   5924895.5427   -855929.1548   -183002.8803         0.0000         0.0000         0.0000     2.6191     1.5380   6  11   0.0299   0.0320   0.0158  -0.0104  -0.0100   0.0128   0.00    0.0
2016/06/27 01:36:00.000  -2200207.8670   5924895.5462   -855929.1566   -183031.5883         0.0000         0.0000         0.0000     2.6193     1.5395   6  11   0.0297   0.0321   0.0158  -0.0105  -0.0100   0.0126   0.00    0.0
2016/06/27 01:36:30.000  -2200207.8774   5924895.5210   -855929.1626   -183056.8996         0.0000         0.0000         0.0000     2.6194     1.5410   6  10   0.0295   0.0340   0.0161  -0.0104  -0.0077   0.0126   0.00    0.0
2016/06/27 01:37:00.000  -2200207.8775   5924895.5202   -855929.1643   -183079.7325         0.0000         0.0000         0.0000     2.6195     1.5425   6  11   0.0294   0.0319   0.0154  -0.0110  -0.0104   0.0127   0.00    0.0
2016/06/27 01:37:30.000  -2200207.8818   5924895.5159   -855929.1712   -183103.0453         0.0000         0.0000         0.0000     2.6197     1.5440   6  11   0.0294   0.0320   0.0155  -0.0113  -0.0101   0.0128   0.00    0.0
2016/06/27 01:38:00.000  -2200207.8868   5924895.5218   -855929.1719   -183128.4446         0.0000         0.0000         0.0000     2.6195     1.5456   6  11   0.0293   0.0319   0.0155  -0.0115  -0.0104   0.0124   0.00    0.0
2016/06/27 01:38:30.000  -2200207.8836   5924895.5155   -855929.1733   -183148.7594         0.0000         0.0000         0.0000     2.6191     1.5471   6  11   0.0290   0.0318   0.0156  -0.0115  -0.0106   0.0129   0.00    0.0
2016/06/27 01:39:00.000  -2200207.8855   5924895.5129   -855929.1749   -183170.5436         0.0000         0.0000         0.0000     2.6190     1.5487   6  11   0.0289   0.0317   0.0156  -0.0117  -0.0108   0.0126   0.00    0.0
2016/06/27 01:39:30.000  -2200207.8830   5924895.5196   -855929.1750   -183193.7612         0.0000         0.0000         0.0000     2.6190     1.5503   6  11   0.0286   0.0319   0.0153  -0.0121  -0.0105   0.0124   0.00    0.0
2016/06/27 01:40:00.000  -2200207.8746   5924895.5273   -855929.1650   -183221.2029         0.0000         0.0000         0.0000     2.6190     1.5519   6  11   0.0287   0.0319   0.0154  -0.0123  -0.0108   0.0127   0.00    0.0
2016/06/27 01:40:30.000  -2200207.8750   5924895.5301   -855929.1633   -183246.4776         0.0000         0.0000         0.0000     2.6187     1.5535   6  11   0.0284   0.0318   0.0155  -0.0124  -0.0108   0.0127   0.00    0.0
2016/06/27 01:41:00.000  -2200207.8773   5924895.5191   -855929.1631   -183275.2162         0.0000         0.0000         0.0000     2.6189     1.5552   6  11   0.0284   0.0316   0.0153  -0.0125  -0.0112   0.0124   0.00    0.0
2016/06/27 01:41:30.000  -2200207.8702   5924895.5220   -855929.1627   -183301.4118         0.0000         0.0000         0.0000     2.6191     1.5568   6  11   0.0282   0.0317   0.0153  -0.0126  -0.0111   0.0124   0.00    0.0
2016/06/27 01:42:00.000  -2200207.8812   5924895.5224   -855929.1625   -183327.9240         0.0000         0.0000         0.0000     2.6196     1.5585   6  11   0.0281   0.0315   0.0153  -0.0128  -0.0111   0.0122   0.00    0.0
2016/06/27 01:42:30.000  -2200207.8846   5924895.5352   -855929.1742   -183351.5259         0.0000         0.0000         0.0000     2.6200     1.5602   6  11   0.0280   0.0316   0.0150  -0.0130  -0.0111   0.0124   0.00    0.0
2016/06/27 01:43:00.000  -2200207.8880   5924895.5314   -855929.1703   -183373.5274         0.0000         0.0000         0.0000     2.6203     1.5619   6  11   0.0278   0.0316   0.0154  -0.0132  -0.0114   0.0125   0.00    0.0
2016/06/27 01:43:30.000  -2200207.8915   5924895.5316   -855929.1700   -183397.2081         0.0000         0.0000         0.0000     2.6206     1.5636   6  11   0.0277   0.0317   0.0150  -0.0132  -0.0115   0.0125   0.00    0.0
2016/06/27 01:44:00.000  -2200207.8958   5924895.5399   -855929.1695   -183421.3966         0.0000         0.0000         0.0000     2.6205     1.5653   6  11   0.0276   0.0318   0.0152  -0.0135  -0.0117   0.0126   0.00    0.0
2016/06/27 01:44:30.000  -2200207.8976   5924895.5352   -855929.1705   -183440.2846         0.0000         0.0000         0.0000     2.6203     1.5670   6  11   0.0277   0.0316   0.0148  -0.0136  -0.0114   0.0125   0.00    0.0
2016/06/27 01:45:00.000  -2200207.8981   5924895.5327   -855929.1656   -183461.0041         0.0000         0.0000         0.0000     2.6200     1.5688   6  11   0.0273   0.0317   0.0150  -0.0138  -0.0111   0.0124   0.00    0.0
2016/06/27 01:45:30.000  -2200207.8938   5924895.5332   -855929.1773   -183484.3962         0.0000         0.0000         0.0000     2.6199     1.5706   6  11   0.0272   0.0315   0.0150  -0.0137  -0.0119   0.0124   0.00    0.0
2016/06/27 01:46:00.000  -2200207.8932   5924895.5199   -855929.1751   -183507.1606         0.0000         0.0000         0.0000     2.6199     1.5723   6  11   0.0272   0.0315   0.0148  -0.0138  -0.0119   0.0121   0.00    0.0
2016/06/27 01:46:30.000  -2200207.8945   5924895.5202   -855929.1661   -183528.5462         0.0000         0.0000         0.0000     2.6197     1.5741   6  11   0.0271   0.0316   0.0147  -0.0141  -0.0116   0.0125   0.00    0.0
2016/06/27 01:47:00.000  -2200207.8982   5924895.5159   -855929.1682   -183546.6882         0.0000         0.0000         0.0000     2.6195     1.5760   6  11   0.0270   0.0317   0.0153  -0.0140  -0.0122   0.0123   0.00    0.0
2016/06/27 01:47:30.000  -2200207.8988   5924895.5254   -855929.1672   -183566.4305         0.0000         0.0000         0.0000     2.6193     1.5778   6  11   0.0269   0.0314   0.0149  -0.0144  -0.0122   0.0123   0.00    0.0
2016/06/27 01:48:00.000  -2200207.9105   5924895.5310   -855929.1783   -183583.8838         0.0000         0.0000         0.0000     2.6190     1.5796   6  11   0.0269   0.0314   0.0148  -0.0147  -0.0122   0.0122   0.00    0.0
2016/06/27 01:48:30.000  -2200207.9059   5924895.5276   -855929.1792   -183600.1892         0.0000         0.0000         0.0000     2.6193     1.5815   6  11   0.0268   0.0315   0.0149  -0.0145  -0.0121   0.0124   0.00    0.0
2016/06/27 01:49:00.000  -2200207.9054   5924895.5271   -855929.1809   -183618.0239         0.0000         0.0000         0.0000     2.6194     1.5833   6  11   0.0267   0.0316   0.0150  -0.0151  -0.0123   0.0124   0.00    0.0
2016/06/27 01:49:30.000  -2200207.9082   5924895.5214   -855929.1672   -183639.6341         0.0000         0.0000         0.0000     2.6194     1.5852   6  11   0.0266   0.0317   0.0150  -0.0150  -0.0125   0.0121   0.00    0.0
2016/06/27 01:50:00.000  -2200207.9020   5924895.5087   -855929.1670   -183656.5917         0.0000         0.0000         0.0000     2.6194     1.5871   6  11   0.0264   0.0315   0.0151  -0.0151  -0.0130   0.0122   0.00    0.0
2016/06/27 01:50:30.000  -2200207.8967   5924895.5209   -855929.1653   -183668.5881         0.0000         0.0000         0.0000     2.6198     1.5890   6  11   0.0263   0.0315   0.0149  -0.0152  -0.0127   0.0123   0.00    0.0
2016/06/27 01:51:00.000  -2200207.8934   5924895.5118   -855929.1634   -183682.3395         0.0000         0.0000         0.0000     2.6197     1.5909   6  11   0.0265   0.0320   0.0147  -0.0156  -0.0125   0.0124   0.00    0.0
2016/06/27 01:51:30.000  -2200207.8937   5924895.5206   -855929.1672   -183695.3395         0.0000         0.0000         0.0000     2.6198     1.5928   6  11   0.0265   0.0316   0.0149  -0.0155  -0.0129   0.0121   0.00    0.0
2016/06/27 01:52:00.000  -2200207.9001   5924895.5340   -855929.1699   -183709.2901         0.0000         0.0000         0.0000     2.6195     1.5947   6  11   0.0262   0.0316   0.0151  -0.0155  -0.0133   0.0124   0.00    0.0
2016/06/27 01:52:30.000  -2200207.9031   5924895.5239   -855929.1679   -183720.5962         0.0000         0.0000         0.0000     2.6191     1.5967   6  11   0.0261   0.0316   0.0149  -0.0160  -0.0130   0.0123   0.00    0.0
2016/06/27 01:53:00.000  -2200207.8940   5924895.5050   -855929.1706   -183732.4573         0.0000         0.0000         0.0000     2.6193     1.5986   6  11   0.0262   0.0317   0.0148  -0.0159  -0.0132   0.0125   0.00    0.0
2016/06/27 01:53:30.000  -2200207.8979   5924895.5185   -855929.1700   -183744.4069         0.0000         0.0000         0.0000     2.6196     1.6006   6  11   0.0261   0.0317   0.0150  -0.0161  -0.0135   0.0122   0.00    0.0
2016/06/27 01:54:00.000  -2200207.9062   5924895.5197   -855929.1656   -183754.9937         0.0000         0.0000         0.0000     2.6195     1.6025   6  11   0.0260   0.0317   0.0148  -0.0163  -0.0132   0.0124   0.00    0.0
2016/06/27 01:54:30.000  -2200207.9138   5924895.5239   -855929.1717   -183762.5388         0.0000         0.0000         0.0000     2.6195     1.6045   6  11   0.0261   0.0317   0.0147  -0.0161  -0.0133   0.0126   0.00    0.0
2016/06/27 01:55:00.000  -2200207.9055   5924895.5272   -855929.1779   -183772.3165         0.0000         0.0000         0.0000     2.6198     1.6065   6  11   0.0259   0.0318   0.0149  -0.0165  -0.0135   0.0126   0.00    0.0
2016/06/27 01:55:30.000  -2200207.8939   5924895.5128   -855929.1764   -183784.0547         0.0000         0.0000         0.0000     2.6203     1.6085   6  11   0.0260   0.0318   0.0149  -0.0166  -0.0135   0.0126   0.00    0.0
2016/06/27 01:56:00.000  -2200207.9080   5924895.5151   -855929.1750   -183794.6387         0.0000         0.0000         0.0000     2.6203     1.6105   6  11   0.0259   0.0318   0.0148  -0.0167  -0.0133   0.0124   0.00    0.0
2016/06/27 01:56:30.000  -2200207.9094   5924895.5108   -855929.1611   -183809.4608         0.0000         0.0000         0.0000     2.6203     1.6125   6  11   0.0259   0.0320   0.0149  -0.0169  -0.0135   0.0124   0.00    0.0
2016/06/27 01:57:00.000  -2200207.9096   5924895.5299   -855929.1681   -183825.3304         0.0000         0.0000         0.0000     2.6200     1.6145   6  11   0.0257   0.0320   0.0149  -0.0170  -0.0137   0.0124   0.00    0.0
2016/06/27 01:57:30.000  -2200207.9016   5924895.5169   -855929.1713   -183840.3371         0.0000         0.0000         0.0000     2.6199     1.6165   6  11   0.0258   0.0320   0.0149  -0.0172  -0.0138   0.0126   0.00    0.0
2016/06/27 01:58:00.000  -2200207.9058   5924895.5046   -855929.1707   -183858.9371         0.0000         0.0000         0.0000     2.6199     1.6185   6  11   0.0258   0.0321   0.0150  -0.0170  -0.0138   0.0127   0.00    0.0
2016/06/27 01:58:30.000  -2200207.9124   5924895.5149   -855929.1765   -183880.5531         0.0000         0.0000         0.0000     2.6201     1.6205   6  11   0.0257   0.0321   0.0148  -0.0173  -0.0139   0.0129   0.00    0.0
2016/06/27 01:59:00.000  -2200207.9195   5924895.5174   -855929.1783   -183902.4849         0.0000         0.0000         0.0000     2.6200     1.6225   6  11   0.0258   0.0322   0.0150  -0.0175  -0.0142   0.0126   0.00    0.0
2016/06/27 01:59:30.000  -2200207.9146   5924895.5200   -855929.1673   -183922.4043         0.0000         0.0000         0.0000     2.6197     1.6246   6  11   0.0258   0.0320   0.0146  -0.0175  -0.0141   0.0126   0.00    0.0
2016/06/27 02:00:00.000  -2200207.9100   5924895.5156   -855929.1692   -183944.9432         0.0000         0.0000         0.0000     2.6196     1.6266   6  11   0.0254   0.0322   0.0150  -0.0176  -0.0141   0.0124   0.00    0.0
2016/06/27 02:00:30.000  -2200207.9111   5924895.5089   -855929.1759   -183970.4563         0.0000         0.0000         0.0000     2.6196     1.6286   6  11   0.0255   0.0322   0.0145  -0.0176  -0.0142   0.0126   0.00    0.0
2016/06/27 02:01:00.000  -2200207.9061   5924895.5020   -855929.1764   -183996.1103         0.0000         0.0000         0.0000     2.6197     1.6306   6  11   0.0256   0.0321   0.0148  -0.0178  -0.0146   0.0129   0.00    0.0
2016/06/27 02:01:30.000  -2200207.9225   5924895.5108   -855929.1795   -184022.2989         0.0000         0.0000         0.0000     2.6197     1.6327   6  11   0.0256   0.0324   0.0149  -0.0180  -0.0144   0.0130   0.00    0.0
2016/06/27 02:02:00.000  -2200207.9199   5924895.5127   -855929.1743   -184045.2238         0.0000         0.0000         0.0000     2.6199     1.6347   6  11   0.0255   0.0323   0.0149  -0.0181  -0.0143   0.0130   0.00    0.0
2016/06/27 02:02:30.000  -2200207.9200   5924895.5054   -855929.1793   -184070.2903         0.0000         0.0000         0.0000     2.6201     1.6367   6  11   0.0256   0.0324   0.0148  -0.0182  -0.0145   0.0126   0.00    0.0
2016/06/27 02:03:00.000  -2200207.9235   5924895.5062   -855929.1751   -184096.0178         0.0000         0.0000         0.0000     2.6207     1.6387   6  11   0.0255   0.0325   0.0149  -0.0184  -0.0146   0.0130   0.00    0.0
2016/06/27 02:03:30.000  -2200207.9280   5924895.5109   -855929.1732   -184120.9918         0.0000         0.0000         0.0000     2.6210     1.6408   6  11   0.0256   0.0324   0.0149  -0.0183  -0.0149   0.0129   0.00    0.0
2016/06/27 02:04:00.000  -2200207.9219   5924895.5110   -855929.1735   -184144.5519         0.0000         0.0000         0.0000     2.6211     1.6428   6  11   0.0257   0.0326   0.0154  -0.0184  -0.0152   0.0129   0.00    0.0
2016/06/27 02:04:30.000  -2200207.9118   5924895.5080   -855929.1750   -184168.7411         0.0000         0.0000         0.0000     2.6214     1.6448   6  11   0.0256   0.0326   0.0150  -0.0188  -0.0151   0.0130   0.00    0.0
2016/06/27 02:05:00.000  -2200207.9042   5924895.5243   -855929.1775   -184193.7433         0.0000         0.0000         0.0000     2.6216     1.6468   6  11   0.0256   0.0326   0.0148  -0.0188  -0.0154   0.0130   0.00    0.0
2016/06/27 02:05:30.000  -2200207.9069   5924895.5394   -855929.1764   -184216.4775         0.0000         0.0000         0.0000     2.6213     1.6488   6  11   0.0255   0.0328   0.0149  -0.0190  -0.0151   0.0129   0.00    0.0
2016/06/27 02:06:00.000  -2200207.9075   5924895.5335   -855929.1733   -184242.4629         0.0000         0.0000         0.0000     2.6213     1.6508   6  11   0.0256   0.0329   0.0151  -0.0190  -0.0152   0.0128   0.00    0.0
2016/06/27 02:06:30.000  -2200207.9164   5924895.5184   -855929.1769   -184268.7342         0.0000         0.0000         0.0000     2.6210     1.6528   6  11   0.0256   0.0329   0.0149  -0.0192  -0.0155   0.0132   0.00    0.0
2016/06/27 02:07:00.000  -2200207.9144   5924895.5084   -855929.1743   -184291.9120         0.0000         0.0000         0.0000     2.6211     1.6548   6  11   0.0254   0.0329   0.0148  -0.0192  -0.0155   0.0133   0.00    0.0
2016/06/27 02:07:30.000  -2200207.9242   5924895.5180   -855929.1747   -184316.5005         0.0000         0.0000         0.0000     2.6216     1.6568   6  11   0.0255   0.0330   0.0146  -0.0194  -0.0153   0.0133   0.00    0.0
2016/06/27 02:08:00.000  -2200207.9375   5924895.5065   -855929.1829   -184341.7561         0.0000         0.0000         0.0000     2.6215     1.6587   6  10   0.0255   0.0341   0.0154  -0.0193  -0.0150   0.0133   0.00    0.0
2016/06/27 02:08:30.000  -2200207.9319   5924895.4987   -855929.1823   -184365.6558         0.0000         0.0000         0.0000     2.6212     1.6607   6  11   0.0256   0.0341   0.0152  -0.0193  -0.0151   0.0132   0.00    0.0
2016/06/27 02:09:00.000  -2200207.9300   5924895.4927   -855929.1790   -184389.9085         0.0000         0.0000         0.0000     2.6212     1.6626   6  10   0.0256   0.0342   0.0150  -0.0194  -0.0153   0.0134   0.00    0.0
2016/06/27 02:09:30.000  -2200207.9274   5924895.4890   -855929.1714   -184417.0969         0.0000         0.0000         0.0000     2.6210     1.6646   6  10   0.0257   0.0341   0.0150  -0.0195  -0.0157   0.0135   0.00    0.0
2016/06/27 02:10:00.000  -2200207.9289   5924895.5014   -855929.1841   -184443.7687         0.0000         0.0000         0.0000     2.6208     1.6665   6  10   0.0257   0.0342   0.0149  -0.0196  -0.0155   0.0136   0.00    0.0
2016/06/27 02:10:30.000  -2200207.9181   5924895.5028   -855929.1775   -184467.7572         0.0000         0.0000         0.0000     2.6202     1.6684   6  10   0.0257   0.0344   0.0153  -0.0199  -0.0158   0.0136   0.00    0.0
2016/06/27 02:11:00.000  -2200207.9280   5924895.5039   -855929.1814   -184493.4267         0.0000         0.0000         0.0000     2.6196     1.6703   6  10   0.0257   0.0345   0.0151  -0.0199  -0.0156   0.0135   0.00    0.0
