%  GPST                      x-ecef(m)      y-ecef(m)      z-ecef(m)   Q  ns   sdx(m)   sdy(m)   sdz(m)  sdxy(m)  sdyz(m)  sdzx(m) age(s)  ratio
2016/06/27 00:00:00.000  -5743539.4516   1380504.2180  -2397898.7819       -21.2720         0.0000         0.0000       -15.9687     2.4720     1.4234   6  18   2.8516   1.3379   1.9645  -1.4045  -1.1679   1.9717   0.00    0.0
2016/06/27 00:00:30.000  -5743538.1047   1380503.6323  -2397897.1229       -25.5422         0.0000         0.0000       -16.4832     2.4707     1.4219   6  18   1.9655   0.9284   1.2971  -0.9561  -0.7774   1.3142   0.00    0.0
2016/06/27 00:01:00.000  -5743537.8413   1380503.4286  -2397896.4560       -26.9847         0.0000         0.0000       -16.3550     2.4751     1.5080   6  17   1.5718   0.7498   0.9658  -0.7639  -0.5938   1.0004   0.00    0.0
2016/06/27 00:01:30.000  -5743538.0433   1380503.4196  -2397896.4192       -26.2695         0.0000         0.0000       -16.4641     2.4759     1.5070   6  17   1.3150   0.6341   0.7513  -0.6322  -0.4724   0.7943   0.00    0.0
2016/06/27 00:02:00.000  -5743537.9860   1380503.3605  -2397896.3293       -26.3261         0.0000         0.0000       -16.3758     2.4807     1.5059   6  17   1.1321   0.5511   0.6028  -0.5368  -0.3878   0.6507   0.00    0.0
2016/06/27 00:02:30.000  -5743538.2435   1380503.4034  -2397896.2996       -25.4294         0.0000         0.0000       -16.6940     2.4798     1.5048   6  17   0.9944   0.4880   0.4962  -0.4651  -0.3270   0.5472   0.00    0.0
2016/06/27 00:03:00.000  -5743538.2758   1380503.3292  -2397896.2750       -25.1846         0.0000         0.0000       -16.9567     2.4917     1.5037   6  16   0.8888   0.4383   0.4188  -0.4108  -0.2831   0.4723   0.00    0.0
2016/06/27 00:03:30.000  -5743538.1381   1380503.2613  -2397896.1798       -25.7131         0.0000         0.0000       -16.8785     2.4975     1.5025   6  17   0.7998   0.3971   0.3587  -0.3656  -0.2486   0.4124   0.00    0.0
2016/06/27 00:04:00.000  -5743538.1453   1380503.2773  -2397896.1307       -25.6441         0.0000         0.0000       -17.0610     2.5044     1.5013   6  17   0.7259   0.3626   0.3124  -0.3287  -0.2218   0.3656   0.00    0.0
2016/06/27 00:04:30.000  -5743538.1719   1380503.2633  -2397896.0740       -25.8403         0.0000         0.0000       -17.0454     2.5196     1.5000   6  17   0.6632   0.3331   0.2758  -0.2980  -0.2005   0.3281   0.00    0.0
2016/06/27 00:05:00.000  -5743538.0823   1380503.2608  -2397896.0740       -26.0649         0.0000         0.0000       -16.9967     2.5195     1.4987   6  16   0.6115   0.3098   0.2493  -0.2719  -0.1793   0.2956   0.00    0.0
2016/06/27 00:05:30.000  -5743538.1937   1380503.2702  -2397896.0610       -26.0215         0.0000         0.0000       -16.9631     2.5221     1.4974   6  17   0.5640   0.2866   0.2233  -0.2497  -0.1664   0.2694   0.00    0.0
2016/06/27 00:06:00.000  -5743538.0872   1380503.2855  -2397896.0564       -26.3448         0.0000         0.0000       -16.8739     2.5196     1.4960   6  16   0.5232   0.2684   0.2050  -0.2302  -0.1510   0.2459   0.00    0.0
2016/06/27 00:06:30.000  -5743538.1292   1380503.2915  -2397896.0556       -26.3671         0.0000         0.0000       -16.9231     2.5151     1.4946   6  17   0.4856   0.2495   0.1857  -0.2128  -0.1421   0.2267   0.00    0.0
2016/06/27 00:07:00.000  -5743538.1181   1380503.2931  -2397896.0406       -26.4491         0.0000         0.0000       -16.9780     2.5156     1.4932   6  17   0.4513   0.2329   0.1700  -0.1969  -0.1334   0.2102   0.00    0.0
2016/06/27 00:07:30.000  -5743538.1239   1380503.3149  -2397896.0277       -26.5415         0.0000         0.0000       -16.9514     2.5177     1.7684   6  16   0.4260   0.2184   0.1568  -0.1844  -0.1256   0.1970   0.00    0.0
2016/06/27 00:08:00.000  -5743538.0596   1380503.3399  -2397896.0287       -26.7434         0.0000         0.0000       -16.9384     2.5163     1.7661   6  16   0.4063   0.2058   0.1463  -0.1759  -0.1194   0.1877   0.00    0.0
2016/06/27 00:08:30.000  -5743538.0333   1380503.3751  -2397896.0302       -26.8139         0.0000         0.0000       -17.0436     2.5166     1.7637   6  16   0.3892   0.1945   0.1374  -0.1688  -0.1139   0.1797   0.00    0.0
2016/06/27 00:09:00.000  -5743538.0135   1380503.4227  -2397896.0422       -26.8339         0.0000         0.0000       -17.0414     2.5149     1.7613   6  16   0.3741   0.1843   0.1298  -0.1627  -0.1091   0.1730   0.00    0.0
2016/06/27 00:09:30.000  -5743538.0014   1380503.4401  -2397896.0611       -27.0199         0.0000         0.0000       -16.9403     2.5151     1.7587   6  16   0.3609   0.1751   0.1231  -0.1577  -0.1049   0.1671   0.00    0.0
2016/06/27 00:10:00.000  -5743537.9524   1380503.4780  -2397896.0675       -27.3087         0.0000         0.0000       -16.8278     2.5149     1.7562   6  16   0.3491   0.1668   0.1173  -0.1533  -0.1010   0.1621   0.00    0.0
2016/06/27 00:10:30.000  -5743537.9020   1380503.4838  -2397896.0854       -27.4754         0.0000         0.0000       -16.8298     2.5141     1.7535   6  16   0.3385   0.1592   0.1122  -0.1496  -0.0976   0.1577   0.00    0.0
2016/06/27 00:11:00.000  -5743537.8947   1380503.5013  -2397896.1000       -27.5595         0.0000         0.0000       -16.8216     2.5127     1.7508   6  15   0.3295   0.1523   0.1080  -0.1466  -0.0947   0.1542   0.00    0.0
2016/06/27 00:11:30.000  -5743537.8672   1380503.5299  -2397896.1204       -27.6986         0.0000         0.0000       -16.7011     2.5102     1.7481   6  16   0.3210   0.1461   0.1039  -0.1438  -0.0919   0.1506   0.00    0.0
2016/06/27 00:12:00.000  -5743537.8225   1380503.5516  -2397896.1248       -27.9114         0.0000         0.0000       -16.6358     2.5101     1.7452   6  16   0.3132   0.1403   0.1003  -0.1413  -0.0895   0.1475   0.00    0.0
2016/06/27 00:12:30.000  -5743537.7968   1380503.5594  -2397896.1300       -28.0803         0.0000         0.0000       -16.6123     2.5102     1.7424   6  16   0.3061   0.1350   0.0972  -0.1390  -0.0872   0.1447   0.00    0.0
2016/06/27 00:13:00.000  -5743537.7785   1380503.5750  -2397896.1364       -28.1106         0.0000         0.0000       -16.6489     2.5098     1.7394   6  16   0.2995   0.1301   0.0943  -0.1370  -0.0851   0.1422   0.00    0.0
2016/06/27 00:13:30.000  -5743537.7431   1380503.5790  -2397896.1273       -28.3007         0.0000         0.0000       -16.6312     2.5123     1.7365   6  16   0.2935   0.1256   0.0917  -0.1352  -0.0833   0.1398   0.00    0.0
2016/06/27 00:14:00.000  -5743537.7213   1380503.5849  -2397896.1217       -28.3692         0.0000         0.0000       -16.6573     2.5149     1.7334   6  16   0.2878   0.1214   0.0894  -0.1334  -0.0816   0.1377   0.00    0.0
2016/06/27 00:14:30.000  -5743537.6882   1380503.5960  -2397896.1178       -28.4250         0.0000         0.0000       -16.6179     2.5177     1.7304   6  16   0.2825   0.1176   0.0872  -0.1317  -0.0799   0.1356   0.00    0.0
2016/06/27 00:15:00.000  -5743537.6564   1380503.5911  -2397896.1088       -28.6631         0.0000         0.0000       -16.5769     2.5231     1.7272   6  16   0.2775   0.1139   0.0853  -0.1302  -0.0784   0.1337   0.00    0.0
2016/06/27 00:15:30.000  -5743537.6729   1380503.5983  -2397896.1139       -28.7004         0.0000         0.0000       -16.6103     2.5262     1.7241   6  16   0.2727   0.1107   0.0834  -0.1287  -0.0770   0.1318   0.00    0.0
2016/06/27 00:16:00.000  -5743537.6726   1380503.5942  -2397896.1019       -28.8834         0.0000         0.0000       -16.6320     2.5326     1.7209   6  16   0.2682   0.1075   0.0817  -0.1272  -0.0756   0.1300   0.00    0.0
2016/06/27 00:16:30.000  -5743537.6670   1380503.5987  -2397896.0862       -29.0446         0.0000         0.0000       -16.6435     2.5349     1.7176   6  16   0.2638   0.1046   0.0801  -0.1258  -0.0744   0.1283   0.00    0.0
2016/06/27 00:17:00.000  -5743537.6733   1380503.6096  -2397896.0787       -29.1697         0.0000         0.0000       -16.6137     2.5388     1.7144   6  16   0.2595   0.1018   0.0786  -0.1243  -0.0731   0.1265   0.00    0.0
2016/06/27 00:17:30.000  -5743537.6781   1380503.6254  -2397896.0735       -29.3085         0.0000         0.0000       -16.6146     2.5396     1.7110   6  16   0.2554   0.0992   0.0771  -0.1229  -0.0720   0.1249   0.00    0.0
2016/06/27 00:18:00.000  -5743537.6909   1380503.6405  -2397896.0729       -29.4069         0.0000         0.0000       -16.5715     2.5405     1.7077   6  16   0.2513   0.0968   0.0757  -0.1215  -0.0709   0.1232   0.00    0.0
2016/06/27 00:18:30.000  -5743537.6930   1380503.6563  -2397896.0762       -29.3694         0.0000         0.0000       -16.5288     2.5412     1.7043   6  16   0.2473   0.0945   0.0744  -0.1200  -0.0697   0.1215   0.00    0.0
2016/06/27 00:19:00.000  -5743537.6875   1380503.6677  -2397896.0679       -29.4653         0.0000         0.0000       -16.5059     2.5431     1.7009   6  16   0.2433   0.0922   0.0731  -0.1186  -0.0685   0.1198   0.00    0.0
2016/06/27 00:19:30.000  -5743537.6758   1380503.6710  -2397896.0630       -29.5540         0.0000         0.0000       -16.4463     2.5467     1.6974   6  16   0.2394   0.0901   0.0719  -0.1171  -0.0675   0.1182   0.00    0.0
2016/06/27 00:20:00.000  -5743537.6831   1380503.6795  -2397896.0664       -29.5941         0.0000         0.0000       -16.3994     2.5481     1.6939   6  16   0.2355   0.0881   0.0706  -0.1156  -0.0664   0.1165   0.00    0.0
2016/06/27 00:20:30.000  -5743537.6817   1380503.6859  -2397896.0601       -29.7280         0.0000         0.0000       -16.3402     2.5468     1.6904   6  16   0.2317   0.0861   0.0694  -0.1141  -0.0653   0.1147   0.00    0.0
2016/06/27 00:21:00.000  -5743537.6719   1380503.6943  -2397896.0506       -29.7544         0.0000         0.0000       -16.3086     2.5461     1.6869   6  16   0.2278   0.0842   0.0683  -0.1125  -0.0644   0.1131   0.00    0.0
2016/06/27 00:21:30.000  -5743537.6842   1380503.7091  -2397896.0582       -29.7570         0.0000         0.0000       -16.2885     2.5433     1.6834   6  16   0.2240   0.0824   0.0672  -0.1110  -0.0632   0.1114   0.00    0.0
2016/06/27 00:22:00.000  -5743537.6868   1380503.7169  -2397896.0631       -29.7424         0.0000         0.0000       -16.2635     2.5416     1.6798   6  16   0.2202   0.0807   0.0661  -0.1094  -0.0622   0.1097   0.00    0.0
2016/06/27 00:22:30.000  -5743537.6727   1380503.7198  -2397896.0629       -29.7621         0.0000         0.0000       -16.2644     2.5398     1.6762   6  16   0.2163   0.0790   0.0650  -0.1077  -0.0612   0.1079   0.00    0.0
2016/06/27 00:23:00.000  -5743537.6746   1380503.7260  -2397896.0660       -29.8644         0.0000         0.0000       -16.2151     2.5385     1.6726   6  16   0.2125   0.0773   0.0638  -0.1061  -0.0602   0.1062   0.00    0.0
2016/06/27 00:23:30.000  -5743537.6801   1380503.7329  -2397896.0654       -30.0090         0.0000         0.0000       -16.1878     2.5349     1.6690   6  16   0.2087   0.0757   0.0628  -0.1044  -0.0591   0.1044   0.00    0.0
2016/06/27 00:24:00.000  -5743537.6731   1380503.7380  -2397896.0658       -30.0507         0.0000         0.0000       -16.1432     2.5344     1.6653   6  16   0.2050   0.0742   0.0617  -0.1027  -0.0581   0.1027   0.00    0.0
2016/06/27 00:24:30.000  -5743537.6807   1380503.7461  -2397896.0697       -29.9994         0.0000         0.0000       -16.0953     2.5326     1.6617   6  16   0.2012   0.0726   0.0607  -0.1011  -0.0572   0.1009   0.00    0.0
2016/06/27 00:25:00.000  -5743537.6691   1380503.7531  -2397896.0648       -30.0923         0.0000         0.0000       -16.0572     2.5311     1.6580   6  16   0.1975   0.0712   0.0597  -0.0995  -0.0561   0.0991   0.00    0.0
2016/06/27 00:25:30.000  -5743537.6713   1380503.7580  -2397896.0665       -30.1515         0.0000         0.0000       -16.0043     2.5290     1.6543   6  16   0.1938   0.0697   0.0588  -0.0977  -0.0552   0.0974   0.00    0.0
2016/06/27 00:26:00.000  -5743537.6709   1380503.7709  -2397896.0632       -30.2372         0.0000         0.0000       -15.9661     2.5266     1.6506   6  16   0.1901   0.0684   0.0578  -0.0960  -0.0542   0.0957   0.00    0.0
2016/06/27 00:26:30.000  -5743537.6880   1380503.7763  -2397896.0693       -30.2195         0.0000         0.0000       -15.9792     2.5249     1.6469   6  16   0.1865   0.0670   0.0568  -0.0943  -0.0532   0.0940   0.00    0.0
2016/06/27 00:27:00.000  -5743537.6869   1380503.7831  -2397896.0692       -30.2618         0.0000         0.0000       -16.0377     2.5234     1.6432   6  16   0.1828   0.0657   0.0558  -0.0926  -0.0522   0.0922   0.00    0.0
2016/06/27 00:27:30.000  -5743537.7013   1380503.7914  -2397896.0771       -30.1345         0.0000         0.0000       -16.0412     2.5226     1.6395   6  16   0.1793   0.0643   0.0549  -0.0909  -0.0512   0.0905   0.00    0.0
2016/06/27 00:28:00.000  -5743537.7219   1380503.8016  -2397896.0834       -30.2700         0.0000         0.0000       -16.0320     2.5216     1.6357   6  16   0.1757   0.0630   0.0540  -0.0892  -0.0504   0.0888   0.00    0.0
2016/06/27 00:28:30.000  -5743537.7298   1380503.8020  -2397896.0861       -30.2968         0.0000         0.0000       -16.0215     2.5212     1.6320   6  16   0.1723   0.0618   0.0531  -0.0876  -0.0495   0.0872   0.00    0.0
2016/06/27 00:29:00.000  -5743537.7256   1380503.8013  -2397896.0827       -30.3616         0.0000         0.0000       -16.0352     2.5221     1.6283   6  16   0.1688   0.0606   0.0521  -0.0860  -0.0485   0.0854   0.00    0.0
2016/06/27 00:29:30.000  -5743537.7303   1380503.8076  -2397896.0874       -30.3958         0.0000         0.0000       -16.0583     2.5213     1.6245   6  16   0.1654   0.0594   0.0514  -0.0843  -0.0476   0.0838   0.00    0.0
2016/06/27 00:30:00.000  -5743537.7278   1380503.8078  -2397896.0872       -30.4699         0.0000         0.0000       -16.0865     2.5189     1.6208   6  16   0.1621   0.0582   0.0504  -0.0827  -0.0467   0.0823   0.00    0.0
2016/06/27 00:30:30.000  -5743537.7207   1380503.8081  -2397896.0859       -30.5319         0.0000         0.0000       -16.1056     2.5188     1.6170   6  16   0.1589   0.0571   0.0497  -0.0811  -0.0458   0.0807   0.00    0.0
2016/06/27 00:31:00.000  -5743537.7184   1380503.8121  -2397896.0846       -30.5380         0.0000         0.0000       -16.1143     2.5171     1.6133   6  16   0.1556   0.0560   0.0487  -0.0795  -0.0449   0.0790   0.00    0.0
2016/06/27 00:31:30.000  -5743537.7235   1380503.8161  -2397896.0931       -30.5446         0.0000         0.0000       -16.0929     2.5164     1.6096   6  16   0.1525   0.0549   0.0480  -0.0779  -0.0440   0.0775   0.00    0.0
2016/06/27 00:32:00.000  -5743537.7350   1380503.8201  -2397896.0949       -30.5012         0.0000         0.0000       -16.0779     2.5144     1.6058   6  15   0.1495   0.0539   0.0474  -0.0764  -0.0432   0.0761   0.00    0.0
2016/06/27 00:32:30.000  -5743537.7427   1380503.8232  -2397896.1000       -30.4951         0.0000         0.0000       -16.0599     2.5119     1.6021   6  16   0.1465   0.0529   0.0465  -0.0750  -0.0423   0.0745   0.00    0.0
2016/06/27 00:33:00.000  -5743537.7472   1380503.8252  -2397896.1035       -30.4160         0.0000         0.0000       -16.0495     2.5095     1.5984   6  16   0.1435   0.0520   0.0457  -0.0736  -0.0417   0.0731   0.00    0.0
2016/06/27 00:33:30.000  -5743537.7552   1380503.8276  -2397896.1084       -30.4065         0.0000         0.0000       -16.0274     2.5077     1.5946   6  16   0.1406   0.0509   0.0449  -0.0721  -0.0408   0.0717   0.00    0.0
2016/06/27 00:34:00.000  -5743537.7565   1380503.8276  -2397896.1037       -30.3332         0.0000         0.0000       -16.0262     2.5053     1.5909   6  16   0.1377   0.0499   0.0443  -0.0706  -0.0400   0.0703   0.00    0.0
2016/06/27 00:34:30.000  -5743537.7614   1380503.8272  -2397896.1085       -30.2328         0.0000         0.0000       -16.0158     2.5047     1.5872   6  16   0.1350   0.0490   0.0437  -0.0693  -0.0393   0.0690   0.00    0.0
2016/06/27 00:35:00.000  -5743537.7641   1380503.8308  -2397896.1090       -30.1322         0.0000         0.0000       -16.0147     2.5045     1.5835   6  16   0.1322   0.0481   0.0430  -0.0678  -0.0385   0.0676   0.00    0.0
2016/06/27 00:35:30.000  -5743537.7626   1380503.8331  -2397896.1055       -30.0165         0.0000         0.0000       -16.0102     2.5043     1.5798   6  16   0.1296   0.0473   0.0424  -0.0666  -0.0379   0.0664   0.00    0.0
2016/06/27 00:36:00.000  -5743537.7544   1380503.8346  -2397896.0971       -29.8823         0.0000         0.0000       -16.0370     2.5035     1.5761   6  16   0.1271   0.0464   0.0418  -0.0652  -0.0370   0.0651   0.00    0.0
2016/06/27 00:36:30.000  -5743537.7646   1380503.8336  -2397896.1070       -29.5657         0.0000         0.0000       -16.0443     2.5030     1.5724   6  16   0.1246   0.0456   0.0411  -0.0639  -0.0364   0.0639   0.00    0.0
2016/06/27 00:37:00.000  -5743537.7780   1380503.8384  -2397896.1168       -29.3922         0.0000         0.0000       -16.0458     2.5021     1.5688   6  16   0.1221   0.0447   0.0405  -0.0627  -0.0357   0.0626   0.00    0.0
2016/06/27 00:37:30.000  -5743537.7750   1380503.8367  -2397896.1148       -29.0912         0.0000         0.0000       -16.0518     2.5016     1.5651   6  16   0.1198   0.0441   0.0399  -0.0615  -0.0350   0.0615   0.00    0.0
2016/06/27 00:38:00.000  -5743537.7748   1380503.8399  -2397896.1188       -28.9704         0.0000         0.0000       -16.0505     2.5016     1.5615   6  16   0.1175   0.0433   0.0393  -0.0603  -0.0344   0.0604   0.00    0.0
2016/06/27 00:38:30.000  -5743537.7794   1380503.8402  -2397896.1179       -28.7235         0.0000         0.0000       -16.0839     2.5002     1.5578   6  16   0.1152   0.0425   0.0388  -0.0591  -0.0338   0.0593   0.00    0.0
2016/06/27 00:39:00.000  -5743537.7775   1380503.8379  -2397896.1194       -28.6266         0.0000         0.0000       -16.1093     2.5000     1.5542   6  16   0.1130   0.0418   0.0382  -0.0579  -0.0333   0.0581   0.00    0.0
2016/06/27 00:39:30.000  -5743537.7807   1380503.8363  -2397896.1186       -28.5628         0.0000         0.0000       -16.1165     2.5001     1.5506   6  16   0.1109   0.0411   0.0377  -0.0569  -0.0323   0.0570   0.00    0.0
2016/06/27 00:40:00.000  -5743537.7867   1380503.8402  -2397896.1207       -28.3518         0.0000         0.0000       -16.1040     2.4996     1.5470   6  16   0.1088   0.0404   0.0373  -0.0559  -0.0319   0.0561   0.00    0.0
2016/06/27 00:40:30.000  -5743537.7886   1380503.8403  -2397896.1178       -28.1375         0.0000         0.0000       -16.1128     2.4997     1.3988   6  17   0.1068   0.0397   0.0368  -0.0547  -0.0314   0.0551   0.00    0.0
2016/06/27 00:41:00.000  -5743537.7934   1380503.8425  -2397896.1153       -28.0239         0.0000         0.0000       -16.0882     2.4998     1.3987   6  17   0.1039   0.0390   0.0345  -0.0532  -0.0300   0.0527   0.00    0.0
2016/06/27 00:41:30.000  -5743537.7988   1380503.8473  -2397896.1171       -27.8999         0.0000         0.0000       -16.1003     2.4997     1.2649   6  18   0.1016   0.0382   0.0334  -0.0520  -0.0293   0.0511   0.00    0.0
2016/06/27 00:42:00.000  -5743537.7962   1380503.8461  -2397896.1162       -27.8120         0.0000         0.0000       -16.0913     2.5000     1.2651   6  18   0.0989   0.0375   0.0324  -0.0509  -0.0286   0.0495   0.00    0.0
2016/06/27 00:42:30.000  -5743537.7980   1380503.8456  -2397896.1175       -27.5156         0.0000         0.0000       -16.1341     2.4995     1.2654   6  18   0.0967   0.0368   0.0317  -0.0497  -0.0278   0.0482   0.00    0.0
2016/06/27 00:43:00.000  -5743537.8093   1380503.8484  -2397896.1183       -27.4146         0.0000         0.0000       -16.1855     2.4993     1.2655   6  18   0.0946   0.0363   0.0311  -0.0487  -0.0272   0.0470   0.00    0.0
2016/06/27 00:43:30.000  -5743537.8087   1380503.8534  -2397896.1224       -27.2101         0.0000         0.0000       -16.2262     2.4984     1.2657   6  18   0.0926   0.0355   0.0304  -0.0474  -0.0267   0.0459   0.00    0.0
2016/06/27 00:44:00.000  -5743537.8184   1380503.8553  -2397896.1239       -27.2192         0.0000         0.0000       -16.2661     2.4971     1.2658   6  18   0.0906   0.0349   0.0299  -0.0465  -0.0260   0.0448   0.00    0.0
2016/06/27 00:44:30.000  -5743537.8172   1380503.8519  -2397896.1204       -27.1142         0.0000         0.0000       -16.2975     2.4959     1.2659   6  18   0.0888   0.0345   0.0292  -0.0456  -0.0255   0.0437   0.00    0.0
2016/06/27 00:45:00.000  -5743537.8174   1380503.8525  -2397896.1201       -27.0512         0.0000         0.0000       -16.3246     2.4945     1.2660   6  18   0.0869   0.0340   0.0287  -0.0446  -0.0250   0.0429   0.00    0.0
2016/06/27 00:45:30.000  -5743537.8323   1380503.8576  -2397896.1260       -27.0901         0.0000         0.0000       -16.3589     2.4931     1.2660   6  18   0.0852   0.0333   0.0281  -0.0437  -0.0242   0.0417   0.00    0.0
2016/06/27 00:46:00.000  -5743537.8403   1380503.8629  -2397896.1275       -26.8655         0.0000         0.0000       -16.3862     2.4912     1.2661   6  18   0.0835   0.0327   0.0277  -0.0427  -0.0236   0.0409   0.00    0.0
2016/06/27 00:46:30.000  -5743537.8522   1380503.8649  -2397896.1271       -26.7849         0.0000         0.0000       -16.3973     2.4899     1.2660   6  18   0.0819   0.0322   0.0271  -0.0419  -0.0234   0.0400   0.00    0.0
2016/06/27 00:47:00.000  -5743537.8484   1380503.8655  -2397896.1268       -26.7131         0.0000         0.0000       -16.4086     2.4889     1.2660   6  18   0.0824   0.0322   0.0304  -0.0424  -0.0248   0.0426   0.00    0.0
2016/06/27 00:47:30.000  -5743537.8650   1380503.8698  -2397896.1347       -26.4215         0.0000         0.0000       -16.4187     2.4876     1.2660   6  18   0.0804   0.0317   0.0286  -0.0412  -0.0236   0.0406   0.00    0.0
2016/06/27 00:48:00.000  -5743537.8655   1380503.8714  -2397896.1315       -26.4796         0.0000         0.0000       -16.4273     2.4870     1.2659   6  17   0.0818   0.0314   0.0304  -0.0413  -0.0240   0.0425   0.00    0.0
2016/06/27 00:48:30.000  -5743537.8605   1380503.8745  -2397896.1280       -26.3617         0.0000         0.0000       -16.4084     2.4859     1.2657   6  17   0.0798   0.0309   0.0283  -0.0401  -0.0232   0.0405   0.00    0.0
2016/06/27 00:49:00.000  -5743537.8679   1380503.8736  -2397896.1308       -26.3078         0.0000         0.0000       -16.4118     2.4854     1.2656   6  17   0.0783   0.0304   0.0274  -0.0394  -0.0226   0.0394   0.00    0.0
2016/06/27 00:49:30.000  -5743537.8708   1380503.8745  -2397896.1288       -26.2379         0.0000         0.0000       -16.4051     2.4849     1.2654   6  18   0.0751   0.0300   0.0265  -0.0385  -0.0218   0.0374   0.00    0.0
2016/06/27 00:50:00.000  -5743537.8800   1380503.8786  -2397896.1331       -26.1188         0.0000         0.0000       -16.4127     2.4842     1.2652   6  18   0.0737   0.0297   0.0259  -0.0378  -0.0216   0.0366   0.00    0.0
2016/06/27 00:50:30.000  -5743537.8871   1380503.8776  -2397896.1313       -26.1036         0.0000         0.0000       -16.4169     2.4835     1.2650   6  18   0.0726   0.0294   0.0255  -0.0373  -0.0210   0.0359   0.00    0.0
2016/06/27 00:51:00.000  -5743537.8935   1380503.8778  -2397896.1322       -25.9888         0.0000         0.0000       -16.4158     2.4831     1.2647   6  18   0.0714   0.0289   0.0251  -0.0364  -0.0206   0.0353   0.00    0.0
2016/06/27 00:51:30.000  -5743537.8962   1380503.8791  -2397896.1327       -25.9075         0.0000         0.0000       -16.4369     2.4828     1.2644   6  18   0.0702   0.0284   0.0247  -0.0359  -0.0203   0.0346   0.00    0.0
2016/06/27 00:52:00.000  -5743537.9008   1380503.8775  -2397896.1365       -25.7374         0.0000         0.0000       -16.4640     2.4828     1.3940   6  17   0.0693   0.0283   0.0245  -0.0354  -0.0199   0.0339   0.00    0.0
2016/06/27 00:52:30.000  -5743537.8990   1380503.8792  -2397896.1343       -25.6914         0.0000         0.0000       -16.4864     2.4824     1.3948   6  17   0.0687   0.0276   0.0245  -0.0348  -0.0196   0.0335   0.00    0.0
2016/06/27 00:53:00.000  -5743537.9084   1380503.8844  -2397896.1382       -25.7902         0.0000         0.0000       -16.4993     2.4819     1.3956   6  17   0.0681   0.0275   0.0242  -0.0344  -0.0194   0.0333   0.00    0.0
2016/06/27 00:53:30.000  -5743537.9065   1380503.8791  -2397896.1359       -25.8100         0.0000         0.0000       -16.5076     2.4815     1.3963   6  17   0.0676   0.0272   0.0237  -0.0340  -0.0188   0.0326   0.00    0.0
2016/06/27 00:54:00.000  -5743537.9050   1380503.8806  -2397896.1418       -25.6726         0.0000         0.0000       -16.5083     2.4815     1.3970   6  17   0.0670   0.0273   0.0237  -0.0339  -0.0189   0.0324   0.00    0.0
2016/06/27 00:54:30.000  -5743537.9075   1380503.8816  -2397896.1420       -25.6924         0.0000         0.0000       -16.5120     2.4815     1.3976   6  17   0.0664   0.0266   0.0234  -0.0334  -0.0188   0.0322   0.00    0.0
2016/06/27 00:55:00.000  -5743537.9085   1380503.8821  -2397896.1409       -25.6295         0.0000         0.0000       -16.5291     2.4811     1.3982   6  17   0.0660   0.0265   0.0231  -0.0331  -0.0185   0.0318   0.00    0.0
2016/06/27 00:55:30.000  -5743537.9135   1380503.8823  -2397896.1409       -25.5972         0.0000         0.0000       -16.5459     2.4807     1.3987   6  17   0.0655   0.0263   0.0230  -0.0329  -0.0182   0.0316   0.00    0.0
2016/06/27 00:56:00.000  -5743537.9095   1380503.8799  -2397896.1391       -25.4987         0.0000         0.0000       -16.5666     2.4805     1.3992   6  17   0.0650   0.0262   0.0226  -0.0324  -0.0180   0.0312   0.00    0.0
2016/06/27 00:56:30.000  -5743537.9044   1380503.8811  -2397896.1414       -25.5409         0.0000         0.0000       -16.5754     2.4803     1.3997   6  17   0.0644   0.0255   0.0226  -0.0319  -0.0176   0.0309   0.00    0.0
2016/06/27 00:57:00.000  -5743537.9042   1380503.8780  -2397896.1406       -25.5281         0.0000         0.0000       -16.5901     2.4801     1.4001   6  17   0.0639   0.0255   0.0222  -0.0315  -0.0174   0.0307   0.00    0.0
2016/06/27 00:57:30.000  -5743537.9042   1380503.8787  -2397896.1390       -25.5086         0.0000         0.0000       -16.5924     2.4797     1.4004   6  17   0.0636   0.0251   0.0222  -0.0314  -0.0173   0.0303   0.00    0.0
2016/06/27 00:58:00.000  -5743537.9029   1380503.8799  -2397896.1359       -25.5306         0.0000         0.0000       -16.6017     2.4792     1.4007   6  17   0.0630   0.0251   0.0221  -0.0311  -0.0171   0.0301   0.00    0.0
2016/06/27 00:58:30.000  -5743537.9163   1380503.8851  -2397896.1445       -25.3916         0.0000         0.0000       -16.6085     2.4788     1.4010   6  17   0.0626   0.0248   0.0218  -0.0308  -0.0170   0.0298   0.00    0.0
2016/06/27 00:59:00.000  -5743537.9103   1380503.8873  -2397896.1427       -25.3449         0.0000         0.0000       -16.6248     2.4787     1.4012   6  17   0.0622   0.0247   0.0218  -0.0305  -0.0167   0.0297   0.00    0.0
2016/06/27 00:59:30.000  -5743537.9189   1380503.8866  -2397896.1405       -25.2552         0.0000         0.0000       -16.6600     2.4789     1.4014   6  17   0.0617   0.0246   0.0215  -0.0304  -0.0167   0.0293   0.00    0.0
2016/06/27 01:00:00.000  -5743537.9173   1380503.8851  -2397896.1429       -24.9019         0.0000         0.0000       -16.6776     2.4787     1.4015   6  17   0.0613   0.0245   0.0212  -0.0303  -0.0164   0.0289   0.00    0.0
2016/06/27 01:00:30.000  -5743537.9204   1380503.8861  -2397896.1467       -24.8419         0.0000         0.0000       -16.6974     2.4788     1.4015   6  17   0.0609   0.0243   0.0213  -0.0300  -0.0163   0.0288   0.00    0.0
2016/06/27 01:01:00.000  -5743537.9164   1380503.8829  -2397896.1414       -24.7239         0.0000         0.0000       -16.7073     2.4785     1.4015   6  17   0.0604   0.0237   0.0208  -0.0294  -0.0161   0.0284   0.00    0.0
2016/06/27 01:01:30.000  -5743537.9160   1380503.8870  -2397896.1445       -24.5549         0.0000         0.0000       -16.7347     2.4779     1.4015   6  17   0.0601   0.0238   0.0210  -0.0293  -0.0162   0.0285   0.00    0.0
2016/06/27 01:02:00.000  -5743537.9283   1380503.8875  -2397896.1461       -24.5292         0.0000         0.0000       -16.7523     2.4774     1.4014   6  17   0.0596   0.0234   0.0206  -0.0287  -0.0158   0.0281   0.00    0.0
2016/06/27 01:02:30.000  -5743537.9310   1380503.8899  -2397896.1488       -24.3132         0.0000         0.0000       -16.7649     2.4768     1.4013   6  17   0.0593   0.0232   0.0206  -0.0286  -0.0156   0.0277   0.00    0.0
2016/06/27 01:03:00.000  -5743537.9325   1380503.8921  -2397896.1493       -24.2925         0.0000         0.0000       -16.7875     2.4761     1.4011   6  17   0.0589   0.0231   0.0205  -0.0284  -0.0157   0.0279   0.00    0.0
2016/06/27 01:03:30.000  -5743537.9342   1380503.8943  -2397896.1495       -24.0101         0.0000         0.0000       -16.8131     2.4751     1.4008   6  17   0.0585   0.0228   0.0204  -0.0280  -0.0152   0.0276   0.00    0.0
2016/06/27 01:04:00.000  -5743537.9453   1380503.8985  -2397896.1501       -23.7869         0.0000         0.0000       -16.8398     2.4737     1.4005   6  17   0.0582   0.0227   0.0201  -0.0278  -0.0149   0.0271   0.00    0.0
2016/06/27 01:04:30.000  -5743537.9562   1380503.9003  -2397896.1558       -23.8193         0.0000         0.0000       -16.8548     2.4726     1.4002   6  17   0.0578   0.0228   0.0202  -0.0277  -0.0151   0.0271   0.00    0.0
2016/06/27 01:05:00.000  -5743537.9551   1380503.9030  -2397896.1534       -23.7439         0.0000         0.0000       -16.8566     2.4715     1.3997   6  17   0.0575   0.0227   0.0202  -0.0274  -0.0150   0.0270   0.00    0.0
2016/06/27 01:05:30.000  -5743537.9606   1380503.9075  -2397896.1575       -23.8159         0.0000         0.0000       -16.8498     2.4708     1.3993   6  17   0.0572   0.0224   0.0197  -0.0273  -0.0144   0.0264   0.00    0.0
2016/06/27 01:06:00.000  -5743537.9548   1380503.9085  -2397896.1576       -23.7824         0.0000         0.0000       -16.8507     2.4696     1.3988   6  17   0.0567   0.0224   0.0198  -0.0269  -0.0146   0.0266   0.00    0.0
2016/06/27 01:06:30.000  -5743537.9628   1380503.9064  -2397896.1619       -23.6554         0.0000         0.0000       -16.8562     2.4686     1.3982   6  17   0.0565   0.0221   0.0196  -0.0268  -0.0145   0.0263   0.00    0.0
2016/06/27 01:07:00.000  -5743537.9673   1380503.9049  -2397896.1607       -23.5753         0.0000         0.0000       -16.8496     2.4682     1.3976   6  17   0.0561   0.0217   0.0193  -0.0264  -0.0145   0.0260   0.00    0.0
2016/06/27 01:07:30.000  -5743537.9711   1380503.9092  -2397896.1608       -23.4070         0.0000         0.0000       -16.8435     2.4678     1.3969   6  17   0.0557   0.0219   0.0193  -0.0264  -0.0143   0.0259   0.00    0.0
2016/06/27 01:08:00.000  -5743537.9700   1380503.9094  -2397896.1576       -23.4436         0.0000         0.0000       -16.8542     2.4674     1.3962   6  17   0.0556   0.0217   0.0196  -0.0260  -0.0141   0.0258   0.00    0.0
2016/06/27 01:08:30.000  -5743537.9674   1380503.9081  -2397896.1568       -23.3771         0.0000         0.0000       -16.8563     2.4671     1.3954   6  17   0.0552   0.0216   0.0190  -0.0259  -0.0140   0.0255   0.00    0.0
2016/06/27 01:09:00.000  -5743537.9754   1380503.9075  -2397896.1606       -23.3342         0.0000         0.0000       -16.8616     2.4667     1.3946   6  17   0.0550   0.0214   0.0192  -0.0256  -0.0139   0.0254   0.00    0.0
2016/06/27 01:09:30.000  -5743537.9762   1380503.9103  -2397896.1585       -23.3638         0.0000         0.0000       -16.8662     2.4663     1.3937   6  17   0.0546   0.0213   0.0192  -0.0255  -0.0140   0.0253   0.00    0.0
2016/06/27 01:10:00.000  -5743537.9748   1380503.9100  -2397896.1572       -23.4599         0.0000         0.0000       -16.8654     2.4660     1.3928   6  17   0.0544   0.0214   0.0188  -0.0257  -0.0135   0.0248   0.00    0.0
2016/06/27 01:10:30.000  -5743537.9872   1380503.9109  -2397896.1593       -23.5053         0.0000         0.0000       -16.8690     2.4656     1.3918   6  17   0.0541   0.0211   0.0184  -0.0254  -0.0135   0.0247   0.00    0.0
2016/06/27 01:11:00.000  -5743537.9896   1380503.9132  -2397896.1563       -23.5186         0.0000         0.0000       -16.8647     2.4652     1.3908   6  17   0.0538   0.0207   0.0186  -0.0250  -0.0137   0.0248   0.00    0.0
2016/06/27 01:11:30.000  -5743537.9895   1380503.9127  -2397896.1535       -23.5758         0.0000         0.0000       -16.8675     2.4646     1.3897   6  17   0.0535   0.0210   0.0185  -0.0250  -0.0135   0.0244   0.00    0.0
2016/06/27 01:12:00.000  -5743537.9979   1380503.9113  -2397896.1540       -23.5287         0.0000         0.0000       -16.8660     2.4641     1.3885   6  17   0.0532   0.0206   0.0182  -0.0246  -0.0131   0.0244   0.00    0.0
2016/06/27 01:12:30.000  -5743538.0032   1380503.9132  -2397896.1605       -23.5966         0.0000         0.0000       -16.8669     2.4634     1.3873   6  17   0.0530   0.0209   0.0185  -0.0246  -0.0130   0.0242   0.00    0.0
2016/06/27 01:13:00.000  -5743537.9991   1380503.9137  -2397896.1614       -23.6977         0.0000         0.0000       -16.8641     2.4630     1.3861   6  17   0.0529   0.0204   0.0183  -0.0243  -0.0128   0.0239   0.00    0.0
2016/06/27 01:13:30.000  -5743538.0024   1380503.9210  -2397896.1659       -23.8720         0.0000         0.0000       -16.8613     2.4623     1.3848   6  17   0.0525   0.0208   0.0182  -0.0243  -0.0129   0.0237   0.00    0.0
2016/06/27 01:14:00.000  -5743538.0049   1380503.9189  -2397896.1675       -23.9509         0.0000         0.0000       -16.8690     2.4621     1.3835   6  17   0.0523   0.0204   0.0183  -0.0239  -0.0127   0.0239   0.00    0.0
2016/06/27 01:14:30.000  -5743538.0071   1380503.9201  -2397896.1671       -24.0641         0.0000         0.0000       -16.8807     2.4619     1.3821   6  17   0.0520   0.0205   0.0179  -0.0241  -0.0129   0.0236   0.00    0.0
2016/06/27 01:15:00.000  -5743538.0074   1380503.9186  -2397896.1685       -24.1499         0.0000         0.0000       -16.8853     2.4616     1.3807   6  16   0.0521   0.0203   0.0182  -0.0240  -0.0126   0.0234   0.00    0.0
2016/06/27 01:15:30.000  -5743538.0108   1380503.9233  -2397896.1688       -23.9985         0.0000         0.0000       -16.8708     2.4612     1.3792   6  17   0.0514   0.0204   0.0176  -0.0238  -0.0124   0.0231   0.00    0.0
2016/06/27 01:16:00.000  -5743538.0146   1380503.9278  -2397896.1695       -23.9830         0.0000         0.0000       -16.8783     2.4606     1.3776   6  17   0.0511   0.0201   0.0175  -0.0235  -0.0123   0.0228   0.00    0.0
2016/06/27 01:16:30.000  -5743538.0192   1380503.9233  -2397896.1675       -24.0140         0.0000         0.0000       -16.8905     2.4605     1.3761   6  17   0.0509   0.0200   0.0179  -0.0235  -0.0123   0.0231   0.00    0.0
2016/06/27 01:17:00.000  -5743538.0169   1380503.9248  -2397896.1667       -23.8604         0.0000         0.0000       -16.8879     2.4603     1.3744   6  17   0.0508   0.0198   0.0177  -0.0232  -0.0119   0.0226   0.00    0.0
2016/06/27 01:17:30.000  -5743538.0219   1380503.9254  -2397896.1662       -23.7570         0.0000         0.0000       -16.8667     2.4602     1.3728   6  17   0.0506   0.0200   0.0175  -0.0232  -0.0121   0.0225   0.00    0.0
2016/06/27 01:18:00.000  -5743538.0175   1380503.9271  -2397896.1634       -23.7537         0.0000         0.0000       -16.8693     2.4602     1.3710   6  17   0.0502   0.0197   0.0171  -0.0230  -0.0122   0.0224   0.00    0.0
2016/06/27 01:18:30.000  -5743538.0207   1380503.9283  -2397896.1590       -23.6682         0.0000         0.0000       -16.8720     2.4602     1.3693   6  17   0.0502   0.0199   0.0174  -0.0229  -0.0120   0.0224   0.00    0.0
2016/06/27 01:19:00.000  -5743538.0208   1380503.9228  -2397896.1600       -23.6431         0.0000         0.0000       -16.8730     2.4604     1.3675   6  17   0.0499   0.0195   0.0174  -0.0229  -0.0119   0.0222   0.00    0.0
2016/06/27 01:19:30.000  -5743538.0295   1380503.9234  -2397896.1591       -23.7343         0.0000         0.0000       -16.8684     2.4604     1.6542   6  16   0.0513   0.0207   0.0172  -0.0244  -0.0122   0.0224   0.00    0.0
2016/06/27 01:20:00.000  -5743538.0263   1380503.9243  -2397896.1623       -23.7432         0.0000         0.0000       -16.8670     2.4604     1.6545   6  16   0.0512   0.0206   0.0173  -0.0244  -0.0121   0.0223   0.00    0.0
2016/06/27 01:20:30.000  -5743538.0226   1380503.9240  -2397896.1628       -23.6642         0.0000         0.0000       -16.8560     2.4603     1.6546   6  16   0.0510   0.0202   0.0171  -0.0242  -0.0120   0.0221   0.00    0.0
2016/06/27 01:21:00.000  -5743538.0260   1380503.9248  -2397896.1637       -23.4058         0.0000         0.0000       -16.8531     2.4602     1.6548   6  16   0.0510   0.0206   0.0172  -0.0242  -0.0120   0.0222   0.00    0.0
2016/06/27 01:21:30.000  -5743538.0306   1380503.9252  -2397896.1675       -23.1692         0.0000         0.0000       -16.8484     2.4601     1.6549   6  16   0.0507   0.0204   0.0169  -0.0241  -0.0117   0.0220   0.00    0.0
2016/06/27 01:22:00.000  -5743538.0437   1380503.9320  -2397896.1687       -22.9983         0.0000         0.0000       -16.8479     2.4602     1.6549   6  16   0.0506   0.0203   0.0170  -0.0241  -0.0121   0.0218   0.00    0.0
2016/06/27 01:22:30.000  -5743538.0359   1380503.9308  -2397896.1689       -23.0082         0.0000         0.0000       -16.8605     2.4602     1.6549   6  16   0.0505   0.0203   0.0169  -0.0239  -0.0118   0.0218   0.00    0.0
2016/06/27 01:23:00.000  -5743538.0350   1380503.9293  -2397896.1677       -22.9929         0.0000         0.0000       -16.8609     2.4604     1.6548   6  16   0.0504   0.0201   0.0168  -0.0239  -0.0117   0.0218   0.00    0.0
2016/06/27 01:23:30.000  -5743538.0367   1380503.9296  -2397896.1670       -23.0479         0.0000         0.0000       -16.8759     2.4605     1.6546   6  16   0.0503   0.0200   0.0169  -0.0237  -0.0118   0.0218   0.00    0.0
2016/06/27 01:24:00.000  -5743538.0289   1380503.9268  -2397896.1697       -23.0848         0.0000         0.0000       -16.8951     2.4604     1.6544   6  16   0.0501   0.0201   0.0168  -0.0238  -0.0117   0.0217   0.00    0.0
2016/06/27 01:24:30.000  -5743538.0301   1380503.9269  -2397896.1657       -23.2253         0.0000         0.0000       -16.8978     2.4604     1.6542   6  16   0.0500   0.0199   0.0167  -0.0236  -0.0120   0.0217   0.00    0.0
2016/06/27 01:25:00.000  -5743538.0210   1380503.9232  -2397896.1610       -23.4031         0.0000         0.0000       -16.8950     2.4602     1.6539   6  16   0.0498   0.0198   0.0164  -0.0239  -0.0120   0.0215   0.00    0.0
2016/06/27 01:25:30.000  -5743538.0297   1380503.9259  -2397896.1639       -23.4475         0.0000         0.0000       -16.9204     2.4601     1.6535   6  16   0.0498   0.0198   0.0167  -0.0236  -0.0116   0.0216   0.00    0.0
2016/06/27 01:26:00.000  -5743538.0346   1380503.9242  -2397896.1701       -23.5406         0.0000         0.0000       -16.9222     2.4600     1.6531   6  16   0.0497   0.0198   0.0167  -0.0237  -0.0119   0.0213   0.00    0.0
2016/06/27 01:26:30.000  -5743538.0261   1380503.9263  -2397896.1656       -23.3937         0.0000         0.0000       -16.9149     2.4597     1.6527   6  16   0.0495   0.0198   0.0164  -0.0235  -0.0116   0.0214   0.00    0.0
2016/06/27 01:27:00.000  -5743538.0338   1380503.9232  -2397896.1657       -23.3626         0.0000         0.0000       -16.9219     2.4595     1.6521   6  16   0.0495   0.0197   0.0167  -0.0232  -0.0115   0.0214   0.00    0.0
2016/06/27 01:27:30.000  -5743538.0388   1380503.9291  -2397896.1652       -23.3854         0.0000         0.0000       -16.9198     2.4593     1.6516   6  16   0.0493   0.0199   0.0167  -0.0234  -0.0119   0.0213   0.00    0.0
2016/06/27 01:28:00.000  -5743538.0372   1380503.9241  -2397896.1638       -23.5026         0.0000         0.0000       -16.9251     2.4593     1.6509   6  16   0.0492   0.0199   0.0167  -0.0235  -0.0116   0.0213   0.00    0.0
2016/06/27 01:28:30.000  -5743538.0372   1380503.9257  -2397896.1650       -23.4864         0.0000         0.0000       -16.9183     2.4592     1.6503   6  16   0.0491   0.0197   0.0165  -0.0232  -0.0117   0.0214   0.00    0.0
2016/06/27 01:29:00.000  -5743538.0432   1380503.9270  -2397896.1664       -23.4276         0.0000         0.0000       -16.9115     2.4589     1.6495   6  16   0.0491   0.0200   0.0162  -0.0236  -0.0115   0.0211   0.00    0.0
2016/06/27 01:29:30.000  -5743538.0466   1380503.9287  -2397896.1649       -23.3981         0.0000         0.0000       -16.9115     2.4588     1.6487   6  16   0.0489   0.0200   0.0166  -0.0234  -0.0118   0.0211   0.00    0.0
2016/06/27 01:30:00.000  -5743538.0460   1380503.9264  -2397896.1646       -23.3621         0.0000         0.0000       -16.9131     2.4586     1.6479   6  16   0.0488   0.0197   0.0166  -0.0233  -0.0116   0.0212   0.00    0.0
2016/06/27 01:30:30.000  -5743538.0489   1380503.9256  -2397896.1614       -23.2215         0.0000         0.0000       -16.9016     2.4585     1.6470   6  16   0.0487   0.0197   0.0165  -0.0232  -0.0116   0.0212   0.00    0.0
2016/06/27 01:31:00.000  -5743538.0579   1380503.9300  -2397896.1639       -23.1111         0.0000         0.0000       -16.9052     2.4585     1.6461   6  16   0.0486   0.0196   0.0167  -0.0232  -0.0116   0.0212   0.00    0.0
2016/06/27 01:31:30.000  -5743538.0605   1380503.9280  -2397896.1659       -23.0549         0.0000         0.0000       -16.9012     2.4583     1.6451   6  15   0.0494   0.0200   0.0167  -0.0240  -0.0116   0.0209   0.00    0.0
2016/06/27 01:32:00.000  -5743538.0561   1380503.9253  -2397896.1649       -23.0102         0.0000         0.0000       -16.9096     2.4582     1.6440   6  16   0.0486   0.0196   0.0166  -0.0231  -0.0114   0.0211   0.00    0.0
2016/06/27 01:32:30.000  -5743538.0536   1380503.9218  -2397896.1675       -23.0215         0.0000         0.0000       -16.9114     2.4577     1.6429   6  16   0.0484   0.0194   0.0163  -0.0230  -0.0112   0.0208   0.00    0.0
2016/06/27 01:33:00.000  -5743538.0557   1380503.9200  -2397896.1649       -22.9560         0.0000         0.0000       -16.9129     2.4576     1.6417   6  16   0.0483   0.0196   0.0165  -0.0230  -0.0116   0.0209   0.00    0.0
2016/06/27 01:33:30.000  -5743538.0533   1380503.9224  -2397896.1664       -22.9972         0.0000         0.0000       -16.9123     2.4574     1.6405   6  15   0.0490   0.0198   0.0166  -0.0237  -0.0113   0.0208   0.00    0.0
2016/06/27 01:34:00.000  -5743538.0636   1380503.9242  -2397896.1706       -22.9427         0.0000         0.0000       -16.9221     2.4573     1.6393   6  16   0.0482   0.0196   0.0163  -0.0229  -0.0113   0.0208   0.00    0.0
2016/06/27 01:34:30.000  -5743538.0703   1380503.9264  -2397896.1719       -22.8745         0.0000         0.0000       -16.9278     2.4569     1.6380   6  16   0.0481   0.0197   0.0166  -0.0228  -0.0113   0.0210   0.00    0.0
2016/06/27 01:35:00.000  -5743538.0749   1380503.9286  -2397896.1704       -22.7585         0.0000         0.0000       -16.9289     2.4565     1.6366   6  16   0.0481   0.0195   0.0165  -0.0230  -0.0115   0.0209   0.00    0.0
2016/06/27 01:35:30.000  -5743538.0758   1380503.9288  -2397896.1721       -22.7523         0.0000         0.0000       -16.9407     2.4561     1.6352   6  16   0.0480   0.0194   0.0166  -0.0229  -0.0115   0.0209   0.00    0.0
2016/06/27 01:36:00.000  -5743538.0685   1380503.9279  -2397896.1665       -22.7178         0.0000         0.0000       -16.9324     2.4558     1.6338   6  16   0.0479   0.0193   0.0166  -0.0227  -0.0116   0.0206   0.00    0.0
2016/06/27 01:36:30.000  -5743538.0655   1380503.9242  -2397896.1663       -22.7253         0.0000         0.0000       -16.9315     2.4555     1.6322   6  16   0.0478   0.0193   0.0166  -0.0228  -0.0113   0.0210   0.00    0.0
2016/06/27 01:37:00.000  -5743538.0790   1380503.9277  -2397896.1680       -22.6950         0.0000         0.0000       -16.9290     2.4554     1.6307   6  16   0.0477   0.0191   0.0165  -0.0226  -0.0115   0.0210   0.00    0.0
2016/06/27 01:37:30.000  -5743538.0862   1380503.9267  -2397896.1698       -22.6266         0.0000         0.0000       -16.9309     2.4554     1.6291   6  16   0.0476   0.0194   0.0164  -0.0228  -0.0114   0.0206   0.00    0.0
2016/06/27 01:38:00.000  -5743538.0864   1380503.9265  -2397896.1702       -22.5818         0.0000         0.0000       -16.9295     2.4553     1.6274   6  16   0.0475   0.0192   0.0164  -0.0228  -0.0113   0.0207   0.00    0.0
2016/06/27 01:38:30.000  -5743538.0834   1380503.9308  -2397896.1700       -22.4545         0.0000         0.0000       -16.9262     2.4551     1.6258   6  16   0.0475   0.0194   0.0164  -0.0226  -0.0113   0.0207   0.00    0.0
2016/06/27 01:39:00.000  -5743538.0857   1380503.9287  -2397896.1723       -22.4756         0.0000         0.0000       -16.9260     2.4549     1.6240   6  16   0.0474   0.0192   0.0164  -0.0226  -0.0114   0.0206   0.00    0.0
2016/06/27 01:39:30.000  -5743538.0848   1380503.9267  -2397896.1734       -22.4913         0.0000         0.0000       -16.9190     2.4546     1.6222   6  16   0.0472   0.0191   0.0166  -0.0226  -0.0114   0.0204   0.00    0.0
2016/06/27 01:40:00.000  -5743538.0927   1380503.9270  -2397896.1744       -22.4411         0.0000         0.0000       -16.9000     2.4545     1.6204   6  16   0.0473   0.0191   0.0168  -0.0223  -0.0116   0.0208   0.00    0.0
2016/06/27 01:40:30.000  -5743538.0880   1380503.9296  -2397896.1705       -22.4152         0.0000         0.0000       -16.8996     2.4544     1.6185   6  16   0.0472   0.0192   0.0165  -0.0227  -0.0114   0.0204   0.00    0.0
2016/06/27 01:41:00.000  -5743538.0816   1380503.9289  -2397896.1732       -22.2992         0.0000         0.0000       -16.8959     2.4543     1.6166   6  16   0.0470   0.0189   0.0165  -0.0223  -0.0113   0.0204   0.00    0.0
2016/06/27 01:41:30.000  -5743538.0886   1380503.9292  -2397896.1722       -22.1822         0.0000         0.0000       -16.9033     2.4542     1.6147   6  16   0.0469   0.0191   0.0166  -0.0225  -0.0113   0.0203   0.00    0.0
2016/06/27 01:42:00.000  -5743538.0971   1380503.9327  -2397896.1723       -22.1163         0.0000         0.0000       -16.9078     2.4540     1.6127   6  16   0.0470   0.0191   0.0166  -0.0223  -0.0114   0.0207   0.00    0.0
2016/06/27 01:42:30.000  -5743538.0854   1380503.9290  -2397896.1723       -22.0466         0.0000         0.0000       -16.9117     2.4540     1.6106   6  16   0.0469   0.0191   0.0166  -0.0223  -0.0114   0.0208   0.00    0.0
2016/06/27 01:43:00.000  -5743538.0920   1380503.9334  -2397896.1733       -21.9507         0.0000         0.0000       -16.9114     2.4540     1.6086   6  16   0.0468   0.0189   0.0166  -0.0223  -0.0115   0.0207   0.00    0.0
2016/06/27 01:43:30.000  -5743538.0957   1380503.9316  -2397896.1741       -21.9865         0.0000         0.0000       -16.9144     2.4540     1.6065   6  16   0.0467   0.0191   0.0165  -0.0224  -0.0112   0.0205   0.00    0.0
2016/06/27 01:44:00.000  -5743538.0945   1380503.9329  -2397896.1752       -22.0230         0.0000         0.0000       -16.9134     2.4539     1.6043   6  16   0.0468   0.0189   0.0167  -0.0223  -0.0115   0.0206   0.00    0.0
2016/06/27 01:44:30.000  -5743538.0981   1380503.9347  -2397896.1761       -22.0913         0.0000         0.0000       -16.9028     2.4539     1.6021   6  16   0.0465   0.0188   0.0167  -0.0223  -0.0116   0.0206   0.00    0.0
2016/06/27 01:45:00.000  -5743538.0927   1380503.9356  -2397896.1735       -22.1527         0.0000         0.0000       -16.8931     2.4537     1.5999   6  16   0.0465   0.0190   0.0166  -0.0224  -0.0116   0.0206   0.00    0.0
2016/06/27 01:45:30.000  -5743538.0944   1380503.9345  -2397896.1756       -22.1715         0.0000         0.0000       -16.8926     2.4538     1.5976   6  16   0.0464   0.0189   0.0169  -0.0223  -0.0115   0.0208   0.00    0.0
2016/06/27 01:46:00.000  -5743538.0850   1380503.9338  -2397896.1747       -22.2051         0.0000         0.0000       -16.8920     2.4537     1.5953   6  16   0.0464   0.0189   0.0165  -0.0222  -0.0115   0.0204   0.00    0.0
2016/06/27 01:46:30.000  -5743538.0884   1380503.9336  -2397896.1764       -22.2091         0.0000         0.0000       -16.8855     2.4537     1.5930   6  16   0.0463   0.0188   0.0167  -0.0223  -0.0116   0.0207   0.00    0.0
2016/06/27 01:47:00.000  -5743538.0887   1380503.9348  -2397896.1785       -22.1901         0.0000         0.0000       -16.8876     2.4537     1.5906   6  16   0.0461   0.0191   0.0168  -0.0222  -0.0114   0.0206   0.00    0.0
2016/06/27 01:47:30.000  -5743538.0829   1380503.9363  -2397896.1784       -22.1859         0.0000         0.0000       -16.8864     2.4537     1.5882   6  16   0.0461   0.0188   0.0164  -0.0223  -0.0114   0.0204   0.00    0.0
2016/06/27 01:48:00.000  -5743538.0892   1380503.9389  -2397896.1787       -22.3184         0.0000         0.0000       -16.8933     2.4537     1.5858   6  16   0.0459   0.0188   0.0167  -0.0221  -0.0114   0.0203   0.00    0.0
2016/06/27 01:48:30.000  -5743538.0863   1380503.9377  -2397896.1793       -22.4383         0.0000         0.0000       -16.8933     2.4538     1.5833   6  16   0.0460   0.0190   0.0170  -0.0220  -0.0115   0.0207   0.00    0.0
2016/06/27 01:49:00.000  -5743538.0910   1380503.9386  -2397896.1807       -22.4684         0.0000         0.0000       -16.8869     2.4540     1.5808   6  16   0.0458   0.0190   0.0161  -0.0221  -0.0114   0.0202   0.00    0.0
2016/06/27 01:49:30.000  -5743538.0840   1380503.9361  -2397896.1774       -22.5139         0.0000         0.0000       -16.8830     2.4541     1.5783   6  16   0.0457   0.0188   0.0167  -0.0222  -0.0116   0.0206   0.00    0.0
2016/06/27 01:50:00.000  -5743538.1002   1380503.9411  -2397896.1822       -22.5497         0.0000         0.0000       -16.8840     2.4546     1.5758   6  16   0.0456   0.0189   0.0167  -0.0222  -0.0114   0.0204   0.00    0.0
2016/06/27 01:50:30.000  -5743538.0873   1380503.9395  -2397896.1797       -22.4774         0.0000         0.0000       -16.8920     2.4547     1.5732   6  16   0.0456   0.0190   0.0168  -0.0220  -0.0115   0.0206   0.00    0.0
2016/06/27 01:51:00.000  -5743538.0672   1380503.9332  -2397896.1766       -22.4326         0.0000         0.0000       -16.8957     2.4547     1.5706   6  15   0.0463   0.0195   0.0169  -0.0227  -0.0114   0.0204   0.00    0.0
2016/06/27 01:51:30.000  -5743538.0796   1380503.9354  -2397896.1792       -22.4196         0.0000         0.0000       -16.8976     2.4546     1.5680   6  16   0.0455   0.0188   0.0166  -0.0220  -0.0116   0.0203   0.00    0.0
2016/06/27 01:52:00.000  -5743538.0712   1380503.9353  -2397896.1733       -22.4872         0.0000         0.0000       -16.9036     2.4545     1.5653   6  16   0.0454   0.0190   0.0169  -0.0221  -0.0116   0.0204   0.00    0.0
2016/06/27 01:52:30.000  -5743538.0651   1380503.9338  -2397896.1728       -22.4951         0.0000         0.0000       -16.9046     2.4543     1.5626   6  16   0.0452   0.0190   0.0169  -0.0221  -0.0118   0.0205   0.00    0.0
2016/06/27 01:53:00.000  -5743538.0586   1380503.9313  -2397896.1745       -22.4978         0.0000         0.0000       -16.9090     2.4542     1.5599   6  15   0.0459   0.0194   0.0169  -0.0229  -0.0115   0.0203   0.00    0.0
2016/06/27 01:53:30.000  -5743538.0743   1380503.9332  -2397896.1782       -22.5085         0.0000         0.0000       -16.9151     2.4544     1.5572   6  16   0.0450   0.0191   0.0170  -0.0217  -0.0113   0.0205   0.00    0.0
2016/06/27 01:54:00.000  -5743538.0715   1380503.9372  -2397896.1760       -22.5995         0.0000         0.0000       -16.9155     2.4544     1.5545   6  16   0.0451   0.0189   0.0170  -0.0219  -0.0117   0.0206   0.00    0.0
2016/06/27 01:54:30.000  -5743538.0676   1380503.9358  -2397896.1737       -22.6550         0.0000         0.0000       -16.9051     2.4545     1.5517   6  15   0.0486   0.0188   0.0173  -0.0220  -0.0115   0.0219   0.00    0.0
2016/06/27 01:55:00.000  -5743538.0707   1380503.9318  -2397896.1749       -22.7425         0.0000         0.0000       -16.9015     2.4548     1.5489   6  16   0.0449   0.0190   0.0172  -0.0220  -0.0119   0.0207   0.00    0.0
2016/06/27 01:55:30.000  -5743538.0610   1380503.9282  -2397896.1730       -22.6675         0.0000         0.0000       -16.8921     2.4549     1.5461   6  16   0.0449   0.0187   0.0172  -0.0220  -0.0119   0.0207   0.00    0.0
2016/06/27 01:56:00.000  -5743538.0740   1380503.9299  -2397896.1749       -22.6715         0.0000         0.0000       -16.8888     2.4552     1.5433   6  16   0.0447   0.0191   0.0173  -0.0218  -0.0119   0.0207   0.00    0.0
2016/06/27 01:56:30.000  -5743538.0602   1380503.9255  -2397896.1692       -22.6960         0.0000         0.0000       -16.8940     2.4554     1.5404   6  16   0.0446   0.0190   0.0177  -0.0215  -0.0119   0.0208   0.00    0.0
2016/06/27 01:57:00.000  -5743538.0630   1380503.9236  -2397896.1717       -22.4731         0.0000         0.0000       -16.8981     2.4556     1.5376   6  16   0.0446   0.0191   0.0173  -0.0219  -0.0119   0.0208   0.00    0.0
2016/06/27 01:57:30.000  -5743538.0575   1380503.9244  -2397896.1714       -22.2017         0.0000         0.0000       -16.8978     2.4560     1.5347   6  16   0.0444   0.0190   0.0175  -0.0216  -0.0117   0.0208   0.00    0.0
2016/06/27 01:58:00.000  -5743538.0529   1380503.9299  -2397896.1676       -22.1388         0.0000         0.0000       -16.9001     2.4559     1.5318   6  16   0.0444   0.0187   0.0173  -0.0215  -0.0119   0.0208   0.00    0.0
2016/06/27 01:58:30.000  -5743538.0547   1380503.9283  -2397896.1692       -22.0059         0.0000         0.0000       -16.9078     2.4559     1.5289   6  16   0.0443   0.0189   0.0172  -0.0218  -0.0118   0.0206   0.00    0.0
2016/06/27 01:59:00.000  -5743538.0562   1380503.9235  -2397896.1684       -21.8772         0.0000         0.0000       -16.9054     2.4560     1.5260   6  16   0.0443   0.0190   0.0177  -0.0216  -0.0121   0.0208   0.00    0.0
2016/06/27 01:59:30.000  -5743538.0429   1380503.9255  -2397896.1675       -21.8968         0.0000         0.0000       -16.9079     2.4558     1.5231   6  16   0.0441   0.0188   0.0177  -0.0214  -0.0123   0.0209   0.00    0.0
2016/06/27 02:00:00.000  -5743538.0478   1380503.9285  -2397896.1681       -22.0643         0.0000         0.0000       -16.9062     2.4557     1.5201   6  16   0.0439   0.0188   0.0176  -0.0215  -0.0121   0.0207   0.00    0.0
2016/06/27 02:00:30.000  -5743538.0555   1380503.9310  -2397896.1718       -21.9958         0.0000         0.0000       -16.9100     2.4559     1.5172   6  16   0.0439   0.0188   0.0175  -0.0215  -0.0121   0.0207   0.00    0.0
2016/06/27 02:01:00.000  -5743538.0495   1380503.9296  -2397896.1702       -21.9580         0.0000         0.0000       -16.9162     2.4560     1.5142   6  15   0.0446   0.0195   0.0173  -0.0222  -0.0118   0.0204   0.00    0.0
2016/06/27 02:01:30.000  -5743538.0449   1380503.9286  -2397896.1684       -21.9440         0.0000         0.0000       -16.9272     2.4560     1.3278   6  17   0.0437   0.0186   0.0176  -0.0215  -0.0122   0.0208   0.00    0.0
2016/06/27 02:02:00.000  -5743538.0390   1380503.9236  -2397896.1667       -21.7154         0.0000         0.0000       -16.9317     2.4560     1.3266   6  16   0.0435   0.0186   0.0175  -0.0210  -0.0112   0.0201   0.00    0.0
2016/06/27 02:02:30.000  -5743538.0560   1380503.9296  -2397896.1679       -21.7431         0.0000         0.0000       -16.9248     2.4561     1.3254   6  17   0.0425   0.0179   0.0173  -0.0196  -0.0112   0.0202   0.00    0.0
2016/06/27 02:03:00.000  -5743538.0548   1380503.9258  -2397896.1695       -21.6718         0.0000         0.0000       -16.9234     2.4564     1.2032   6  18   0.0422   0.0178   0.0175  -0.0197  -0.0111   0.0200   0.00    0.0
2016/06/27 02:03:30.000  -5743538.0507   1380503.9261  -2397896.1672       -21.7822         0.0000         0.0000       -16.9304     2.4564     1.2031   6  18   0.0406   0.0177   0.0174  -0.0195  -0.0112   0.0196   0.00    0.0
2016/06/27 02:04:00.000  -5743538.0510   1380503.9261  -2397896.1725       -21.6952         0.0000         0.0000       -16.9464     2.4565     1.2030   6  18   0.0400   0.0174   0.0177  -0.0192  -0.0112   0.0196   0.00    0.0
2016/06/27 02:04:30.000  -5743538.0505   1380503.9256  -2397896.1724       -21.6670         0.0000         0.0000       -16.9589     2.4566     1.2029   6  18   0.0396   0.0175   0.0174  -0.0189  -0.0109   0.0194   0.00    0.0
2016/06/27 02:05:00.000  -5743538.0566   1380503.9314  -2397896.1757       -21.5724         0.0000         0.0000       -16.9637     2.4564     1.2027   6  18   0.0393   0.0177   0.0172  -0.0189  -0.0108   0.0193   0.00    0.0
2016/06/27 02:05:30.000  -5743538.0645   1380503.9330  -2397896.1801       -21.6609         0.0000         0.0000       -16.9687     2.4562     1.2026   6  18   0.0390   0.0175   0.0177  -0.0188  -0.0112   0.0195   0.00    0.0
2016/06/27 02:06:00.000  -5743538.0645   1380503.9335  -2397896.1779       -21.7071         0.0000         0.0000       -16.9770     2.4561     1.2024   6  18   0.0387   0.0176   0.0172  -0.0188  -0.0110   0.0193   0.00    0.0
2016/06/27 02:06:30.000  -5743538.0694   1380503.9367  -2397896.1859       -21.7450         0.0000         0.0000       -16.9804     2.4559     1.2022   6  18   0.0386   0.0175   0.0175  -0.0186  -0.0110   0.0193   0.00    0.0
2016/06/27 02:07:00.000  -5743538.0704   1380503.9354  -2397896.1827       -21.7539         0.0000         0.0000       -16.9772     2.4559     1.2020   6  18   0.0384   0.0174   0.0176  -0.0186  -0.0109   0.0194   0.00    0.0
2016/06/27 02:07:30.000  -5743538.0635   1380503.9390  -2397896.1788       -21.8151         0.0000         0.0000       -16.9772     2.4557     1.2017   6  17   0.0396   0.0189   0.0184  -0.0204  -0.0125   0.0205   0.00    0.0
2016/06/27 02:08:00.000  -5743538.0665   1380503.9343  -2397896.1777       -21.9162         0.0000         0.0000       -16.9740     2.4558     1.2015   6  18   0.0380   0.0173   0.0175  -0.0184  -0.0111   0.0191   0.00    0.0
2016/06/27 02:08:30.000  -5743538.0707   1380503.9347  -2397896.1814       -21.8323         0.0000         0.0000       -16.9700     2.4557     1.2012   6  18   0.0378   0.0175   0.0180  -0.0183  -0.0110   0.0195   0.00    0.0
2016/06/27 02:09:00.000  -5743538.0740   1380503.9386  -2397896.1817       -21.6994         0.0000         0.0000       -16.9694     2.4559     1.2009   6  17   0.0392   0.0188   0.0184  -0.0202  -0.0124   0.0204   0.00    0.0
2016/06/27 02:09:30.000  -5743538.0740   1380503.9350  -2397896.1799       -21.6671         0.0000         0.0000       -16.9753     2.4561     1.2006   6  18   0.0375   0.0170   0.0177  -0.0183  -0.0114   0.0192   0.00    0.0
2016/06/27 02:10:00.000  -5743538.0818   1380503.9333  -2397896.1810       -21.7343         0.0000         0.0000       -16.9744     2.4563     1.2003   6  18   0.0375   0.0173   0.0179  -0.0180  -0.0112   0.0193   0.00    0.0
2016/06/27 02:10:30.000  -5743538.0788   1380503.9376  -2397896.1828       -21.6796         0.0000         0.0000       -16.9668     2.4564     1.1999   6  18   0.0372   0.0171   0.0177  -0.0183  -0.0111   0.0189   0.00    0.0
2016/06/27 02:11:00.000  -5743538.0759   1380503.9332  -2397896.1831       -21.8187         0.0000         0.0000       -16.9578     2.4566     1.2458   6  17   0.0381   0.0171   0.0179  -0.0176  -0.0111   0.0198   0.00    0.0
