%  GPST                      x-ecef(m)      y-ecef(m)      z-ecef(m)   Q  ns   sdx(m)   sdy(m)   sdz(m)  sdxy(m)  sdyz(m)  sdzx(m) age(s)  ratio
2016/06/27 00:00:00.000   1202379.2837    252474.5041   6237792.1763    -96667.6348         0.0000         0.0000         0.0000     2.3858     3.3089   6   9   1.0633   1.4046   5.8838  -0.1739   1.8612   0.5688   0.00    0.0
2016/06/27 00:00:30.000   1202379.4015    252474.4248   6237789.1827    -97713.4600         0.0000         0.0000         0.0000     2.3848     3.3130   6   9   0.7510   0.9501   3.1175  -0.1324   0.9664   0.4041   0.00    0.0
2016/06/27 00:01:00.000   1202379.4137    252473.9779   6237787.8705    -98753.2650         0.0000         0.0000         0.0000     2.3820     3.3155   6   9   0.6112   0.7559   1.9700  -0.1130   0.5869   0.3464   0.00    0.0
2016/06/27 00:01:30.000   1202379.6937    252474.0491   6237786.9078    -99792.2009         0.0000         0.0000         0.0000     2.3797     3.3164   6   9   0.5268   0.6453   1.4048  -0.1022   0.3928   0.3194   0.00    0.0
2016/06/27 00:02:00.000   1202379.9725    252474.3376   6237786.8058   -100830.5385         0.0000         0.0000         0.0000     2.3786     3.3158   6   9   0.4684   0.5719   1.0927  -0.0959   0.2795   0.3045   0.00    0.0
2016/06/27 00:02:30.000   1202379.8619    252474.3134   6237786.9772   -101864.9591         0.0000         0.0000         0.0000     2.3844     3.3136   6   9   0.4248   0.5186   0.9043  -0.0925   0.2054   0.2952   0.00    0.0
2016/06/27 00:03:00.000   1202379.8599    252474.3769   6237786.8627   -102904.0197         0.0000         0.0000         0.0000     2.3703     3.3098   6   9   0.3907   0.4774   0.7812  -0.0910   0.1514   0.2884   0.00    0.0
2016/06/27 00:03:30.000   1202379.8659    252474.2941   6237786.9068   -103942.2079         0.0000         0.0000         0.0000     2.3665     3.3045   6   9   0.3629   0.4444   0.6944  -0.0908   0.1070   0.2826   0.00    0.0
2016/06/27 00:04:00.000   1202379.9302    252474.3848   6237786.9046   -104980.0083         0.0000         0.0000         0.0000     2.3585     3.2976   6   9   0.3397   0.4171   0.6291  -0.0913   0.0630   0.2769   0.00    0.0
2016/06/27 00:04:30.000   1202379.9659    252474.3271   6237786.9635   -106019.6655         0.0000         0.0000         0.0000     2.3402     3.2893   6   9   0.3199   0.3939   0.5772  -0.0925  -0.0353   0.2710   0.00    0.0
2016/06/27 00:05:00.000   1202379.9465    252474.2847   6237787.0319   -107062.2100         0.0000         0.0000         0.0000     2.3400     3.2795   6   9   0.3026   0.3739   0.5341  -0.0940  -0.0713   0.2646   0.00    0.0
2016/06/27 00:05:30.000   1202379.9284    252474.2681   6237787.0744   -108107.4434         0.0000         0.0000         0.0000     2.3261     3.2683   6   9   0.2873   0.3565   0.4972  -0.0955  -0.0894   0.2580   0.00    0.0
2016/06/27 00:06:00.000   1202379.9422    252474.2305   6237787.1211   -109149.6552         0.0000         0.0000         0.0000     2.3144     3.2558   6   9   0.2736   0.3411   0.4651  -0.0971  -0.1012   0.2510   0.00    0.0
2016/06/27 00:06:30.000   1202380.0187    252474.2594   6237787.2178   -110194.2492         0.0000         0.0000         0.0000     2.3002     3.2419   6   9   0.2612   0.3273   0.4367  -0.0985  -0.1096   0.2439   0.00    0.0
2016/06/27 00:07:00.000   1202379.9506    252474.2837   6237787.1354   -111237.9792         0.0000         0.0000         0.0000     2.3120     3.2268   6   9   0.2498   0.3150   0.4114  -0.0999  -0.1159   0.2367   0.00    0.0
2016/06/27 00:07:30.000   1202379.9390    252474.2207   6237787.1193   -112284.5597         0.0000         0.0000         0.0000     2.3150     3.2106   6   9   0.2393   0.3038   0.3887  -0.1010  -0.1205   0.2295   0.00    0.0
2016/06/27 00:08:00.000   1202379.8434    252474.2205   6237787.0836   -113325.4713         0.0000         0.0000         0.0000     2.3136     3.1932   6   9   0.2295   0.2937   0.3682  -0.1019  -0.1240   0.2224   0.00    0.0
2016/06/27 00:08:30.000   1202379.8425    252474.2338   6237787.1014   -114368.0785         0.0000         0.0000         0.0000     2.3123     3.1748   6   9   0.2204   0.2844   0.3496  -0.1026  -0.1267   0.2155   0.00    0.0
2016/06/27 00:09:00.000   1202379.8256    252474.2329   6237787.0840   -115413.1033         0.0000         0.0000         0.0000     2.3142     3.1554   6   9   0.2119   0.2759   0.3328  -0.1031  -0.1287   0.2088   0.00    0.0
2016/06/27 00:09:30.000   1202379.8005    252474.2775   6237787.0108   -116456.9969         0.0000         0.0000         0.0000     2.3250     3.1351   6   9   0.2039   0.2680   0.3174  -0.1034  -0.1301   0.2022   0.00    0.0
2016/06/27 00:10:00.000   1202379.8088    252474.3217   6237787.0386   -117496.2727         0.0000         0.0000         0.0000     2.3210     3.1139   6   9   0.1992   0.2617   0.3048  -0.0999  -0.1335   0.1935   0.00    0.0
2016/06/27 00:10:30.000   1202379.8173    252474.2963   6237787.0385   -118539.6116         0.0000         0.0000         0.0000     2.3208     3.0920   6   9   0.1946   0.2556   0.2906  -0.0971  -0.1318   0.1898   0.00    0.0
2016/06/27 00:11:00.000   1202379.8008    252474.2737   6237787.0484   -119584.3112         0.0000         0.0000         0.0000     2.3175     3.0694   6   9   0.1903   0.2499   0.2792  -0.0944  -0.1300   0.1863   0.00    0.0
2016/06/27 00:11:30.000   1202379.7913    252474.2941   6237787.0404   -120626.8232         0.0000         0.0000         0.0000     2.3154     3.0462   6   9   0.1863   0.2445   0.2693  -0.0917  -0.1282   0.1831   0.00    0.0
2016/06/27 00:12:00.000   1202379.7635    252474.3162   6237786.9979   -121672.3029         0.0000         0.0000         0.0000     2.3219     3.0224   6   9   0.1827   0.2394   0.2605  -0.0891  -0.1264   0.1800   0.00    0.0
2016/06/27 00:12:30.000   1202379.7463    252474.3554   6237786.9784   -122713.3234         0.0000         0.0000         0.0000     2.3218     2.9982   6   9   0.1796   0.2347   0.2562  -0.0860  -0.1261   0.1756   0.00    0.0
2016/06/27 00:13:00.000   1202379.7629    252474.3865   6237786.9710   -123759.3029         0.0000         0.0000         0.0000     2.3193     2.9735   6   9   0.1766   0.2302   0.2460  -0.0832  -0.1236   0.1733   0.00    0.0
2016/06/27 00:13:30.000   1202379.7431    252474.3866   6237786.9571   -124807.1324         0.0000         0.0000         0.0000     2.3209     2.9484   6   9   0.1739   0.2259   0.2424  -0.0803  -0.1223   0.1702   0.00    0.0
2016/06/27 00:14:00.000   1202379.7440    252474.4073   6237786.9753   -125852.1595         0.0000         0.0000         0.0000     2.3161     2.9231   6   9   0.1713   0.2218   0.2364  -0.0775  -0.1203   0.1677   0.00    0.0
2016/06/27 00:14:30.000   1202379.7255    252474.4557   6237786.9219   -126895.0778         0.0000         0.0000         0.0000     2.3202     2.8974   6   9   0.1689   0.2179   0.2309  -0.0748  -0.1184   0.1654   0.00    0.0
2016/06/27 00:15:00.000   1202379.7222    252474.4695   6237786.9108   -127936.6071         0.0000         0.0000         0.0000     2.3185     2.8716   6   9   0.1666   0.2140   0.2225  -0.0722  -0.1158   0.1637   0.00    0.0
2016/06/27 00:15:30.000   1202379.7269    252474.4815   6237786.9315   -128979.1352         0.0000         0.0000         0.0000     2.3145     2.8457   6   9   0.1644   0.2103   0.2168  -0.0696  -0.1135   0.1619   0.00    0.0
2016/06/27 00:16:00.000   1202379.7135    252474.4928   6237786.8809   -130022.4241         0.0000         0.0000         0.0000     2.3172     2.8197   6   9   0.1625   0.2068   0.2165  -0.0667  -0.1125   0.1589   0.00    0.0
2016/06/27 00:16:30.000   1202379.7098    252474.4996   6237786.9211   -131072.1612         0.0000         0.0000         0.0000     2.3171     2.7936   6   9   0.1605   0.2034   0.2124  -0.0641  -0.1106   0.1569   0.00    0.0
2016/06/27 00:17:00.000   1202379.6925    252474.5029   6237786.9074   -132119.5499         0.0000         0.0000         0.0000     2.3205     2.7675   6   9   0.1586   0.2000   0.2049  -0.0617  -0.1081   0.1556   0.00    0.0
2016/06/27 00:17:30.000   1202379.7103    252474.4928   6237786.8835   -133165.2786         0.0000         0.0000         0.0000     2.3174     2.7414   6   9   0.1569   0.1967   0.2048  -0.0589  -0.1068   0.1531   0.00    0.0
2016/06/27 00:18:00.000   1202379.7190    252474.4801   6237786.9000   -134214.3509         0.0000         0.0000         0.0000     2.3168     2.7154   6   9   0.1551   0.1935   0.1976  -0.0565  -0.1043   0.1519   0.00    0.0
2016/06/27 00:18:30.000   1202379.7263    252474.4979   6237786.9375   -135261.5541         0.0000         0.0000         0.0000     2.3115     2.6895   6   9   0.1533   0.1903   0.1932  -0.0541  -0.1021   0.1504   0.00    0.0
2016/06/27 00:19:00.000   1202379.7268    252474.4856   6237786.9307   -136309.8049         0.0000         0.0000         0.0000     2.3113     2.6637   6   9   0.1518   0.1872   0.1947  -0.0513  -0.1011   0.1477   0.00    0.0
2016/06/27 00:19:30.000   1202379.7350    252474.4920   6237786.9277   -137361.7113         0.0000         0.0000         0.0000     2.3087     2.6381   6   9   0.1501   0.1842   0.1878  -0.0490  -0.0987   0.1466   0.00    0.0
2016/06/27 00:20:00.000   1202379.7133    252474.4995   6237786.8996   -138413.2947         0.0000         0.0000         0.0000     2.3122     2.6126   6   9   0.1484   0.1812   0.1838  -0.0466  -0.0966   0.1452   0.00    0.0
2016/06/27 00:20:30.000   1202379.7037    252474.4733   6237786.9399   -139466.4108         0.0000         0.0000         0.0000     2.3132     2.5874   6   9   0.1470   0.1784   0.2060  -0.0442  -0.0920   0.1413   0.00    0.0
2016/06/27 00:21:00.000   1202379.7088    252474.4918   6237786.9450   -140521.4170         0.0000         0.0000         0.0000     2.3130     2.5624   6   9   0.1454   0.1754   0.2006  -0.0412  -0.0915   0.1412   0.00    0.0
2016/06/27 00:21:30.000   1202379.7216    252474.5153   6237786.9261   -141573.4139         0.0000         0.0000         0.0000     2.3108     2.5376   6   9   0.1438   0.1725   0.1946  -0.0387  -0.0894   0.1410   0.00    0.0
2016/06/27 00:22:00.000   1202379.7155    252474.5222   6237786.9231   -142620.7173         0.0000         0.0000         0.0000     2.3112     2.5131   6   9   0.1423   0.1699   0.1949  -0.0365  -0.0860   0.1399   0.00    0.0
2016/06/27 00:22:30.000   1202379.7310    252474.5304   6237786.9316   -143666.3398         0.0000         0.0000         0.0000     2.3089     2.4889   6   9   0.1407   0.1670   0.1923  -0.0336  -0.0847   0.1396   0.00    0.0
2016/06/27 00:23:00.000   1202379.7184    252474.5674   6237787.0060   -144716.1250         0.0000         0.0000         0.0000     2.3091     2.4649   6   9   0.1398   0.1659   0.2112  -0.0260  -0.0685   0.1426   0.00    0.0
2016/06/27 00:23:30.000   1202379.7349    252474.5778   6237786.9629   -145765.8800         0.0000         0.0000         0.0000     2.3081     2.4413   6   9   0.1385   0.1627   0.2045  -0.0214  -0.0702   0.1423   0.00    0.0
2016/06/27 00:24:00.000   1202379.7411    252474.5748   6237786.9910   -146819.6294         0.0000         0.0000         0.0000     2.3050     2.4180   6   9   0.1372   0.1602   0.2043  -0.0164  -0.0670   0.1417   0.00    0.0
2016/06/27 00:24:30.000   1202379.7360    252474.5837   6237787.0044   -147872.0018         0.0000         0.0000         0.0000     2.3047     2.3949   6   9   0.1362   0.1576   0.2037  -0.0096  -0.0641   0.1415   0.00    0.0
2016/06/27 00:25:00.000   1202379.7355    252474.5901   6237786.9746   -148923.5927         0.0000         0.0000         0.0000     2.3059     2.3723   6   9   0.1359   0.1563   0.2184   0.0204  -0.0465   0.1454   0.00    0.0
2016/06/27 00:25:30.000   1202379.7174    252474.6048   6237786.9537   -149972.7990         0.0000         0.0000         0.0000     2.3095     2.3499   6   9   0.1344   0.1540   0.2186   0.0257  -0.0410   0.1456   0.00    0.0
2016/06/27 00:26:00.000   1202379.7262    252474.6152   6237787.0267   -151022.5609         0.0000         0.0000         0.0000     2.3075     2.3279   6   9   0.1339   0.1542   0.2499   0.0350   0.0469   0.1505   0.00    0.0
2016/06/27 00:26:30.000   1202379.7187    252474.6341   6237786.9989   -152081.6221         0.0000         0.0000         0.0000     2.3071     2.3062   6   9   0.1333   0.1507   0.2393   0.0366   0.0345   0.1496   0.00    0.0
2016/06/27 00:27:00.000   1202379.7162    252474.6468   6237787.0204   -153140.9753         0.0000         0.0000         0.0000     2.3079     2.2848   6   9   0.1316   0.1478   0.2335   0.0385   0.0304   0.1486   0.00    0.0
2016/06/27 00:27:30.000   1202379.7171    252474.6583   6237787.0115   -154195.8675         0.0000         0.0000         0.0000     2.3086     2.2638   6   9   0.1302   0.1453   0.2301   0.0404   0.0315   0.1475   0.00    0.0
2016/06/27 00:28:00.000   1202379.7227    252474.6904   6237787.0370   -155253.3063         0.0000         0.0000         0.0000     2.3094     2.2432   6   9   0.1300   0.1447   0.2422   0.0462   0.0551   0.1510   0.00    0.0
2016/06/27 00:28:30.000   1202379.7071    252474.6677   6237787.0178   -156315.6040         0.0000         0.0000         0.0000     2.3097     2.2229   6   9   0.1288   0.1427   0.2406   0.0482   0.0583   0.1502   0.00    0.0
2016/06/27 00:29:00.000   1202379.7193    252474.6615   6237786.9335   -157378.0947         0.0000         0.0000         0.0000     2.3090     2.2029   6   9   0.1292   0.1407   0.2741   0.0451   0.0697   0.1351   0.00    0.0
2016/06/27 00:29:30.000   1202379.7136    252474.6717   6237786.9222   -158439.8610         0.0000         0.0000         0.0000     2.3102     2.1833   6   9   0.1284   0.1413   0.3265   0.0428   0.0997   0.1251   0.00    0.0
2016/06/27 00:30:00.000   1202379.6970    252474.6807   6237786.9045   -159501.9741         0.0000         0.0000         0.0000     2.3132     2.1640   6   9   0.1259   0.1393   0.2964   0.0463   0.0949   0.1323   0.00    0.0
2016/06/27 00:30:30.000   1202379.7004    252474.6736   6237786.8929   -160567.1436         0.0000         0.0000         0.0000     2.3119     2.1450   6   9   0.1243   0.1377   0.2824   0.0477   0.0945   0.1330   0.00    0.0
2016/06/27 00:31:00.000   1202379.6940    252474.6866   6237786.8812   -161629.9500         0.0000         0.0000         0.0000     2.3127     2.1264   6   9   0.1231   0.1364   0.2732   0.0488   0.0953   0.1326   0.00    0.0
2016/06/27 00:31:30.000   1202379.6837    252474.6888   6237786.8624   -162689.5442         0.0000         0.0000         0.0000     2.3165     2.1081   6   9   0.1218   0.1351   0.2656   0.0493   0.0962   0.1310   0.00    0.0
2016/06/27 00:32:00.000   1202379.6690    252474.6930   6237786.8400   -163751.9338         0.0000         0.0000         0.0000     2.3184     2.0901   6   9   0.1206   0.1341   0.2578   0.0489   0.0966   0.1292   0.00    0.0
2016/06/27 00:32:30.000   1202379.6665    252474.6889   6237786.8483   -164817.2477         0.0000         0.0000         0.0000     2.3195     2.0725   6   9   0.1194   0.1331   0.2508   0.0485   0.0966   0.1274   0.00    0.0
2016/06/27 00:33:00.000   1202379.6861    252474.6906   6237786.8193   -165879.4123         0.0000         0.0000         0.0000     2.3177     2.0552   6   9   0.1180   0.1329   0.2522   0.0482   0.1008   0.1259   0.00    0.0
2016/06/27 00:33:30.000   1202379.6635    252474.6831   6237786.9117   -166940.3419         0.0000         0.0000         0.0000     2.3194     2.0382   6   9   0.1170   0.1320   0.2484   0.0485   0.1014   0.1251   0.00    0.0
2016/06/27 00:34:00.000   1202379.6851    252474.6699   6237786.7871   -168001.5075         0.0000         0.0000         0.0000     2.3185     2.0215   6   9   0.1178   0.1317   0.2761   0.0466   0.1081   0.1135   0.00    0.0
2016/06/27 00:34:30.000   1202379.6781    252474.6875   6237786.7670   -169061.0962         0.0000         0.0000         0.0000     2.3179     2.3719   6   8   0.1169   0.1307   0.2539   0.0472   0.1039   0.1171   0.00    0.0
2016/06/27 00:35:00.000   1202379.6828    252474.6780   6237786.8034   -170120.3990         0.0000         0.0000         0.0000     2.3185     3.7597   6   7   0.1165   0.1301   0.2456   0.0473   0.1013   0.1171   0.00    0.0
2016/06/27 00:35:30.000   1202379.6766    252474.6755   6237786.7774   -171181.0227         0.0000         0.0000         0.0000     2.3186     3.7246   6   7   0.1161   0.1292   0.2367   0.0473   0.1009   0.1170   0.00    0.0
2016/06/27 00:36:00.000   1202379.6853    252474.6738   6237786.8043   -172234.6683         0.0000         0.0000         0.0000     2.3180     3.6896   6   7   0.1164   0.1291   0.2670   0.0452   0.1086   0.1094   0.00    0.0
2016/06/27 00:36:30.000   1202379.6900    252474.6820   6237786.8334   -173296.5685         0.0000         0.0000         0.0000     2.3171     3.6548   6   7   0.1156   0.1281   0.2440   0.0459   0.1042   0.1137   0.00    0.0
2016/06/27 00:37:00.000   1202379.6797    252474.6819   6237786.8360   -174354.7859         0.0000         0.0000         0.0000     2.3182     3.6202   6   7   0.1151   0.1274   0.2336   0.0459   0.1021   0.1149   0.00    0.0
2016/06/27 00:37:30.000   1202379.6809    252474.6913   6237786.8690   -175414.2604         0.0000         0.0000         0.0000     2.3176     3.5860   6   7   0.1147   0.1266   0.2268   0.0457   0.1007   0.1154   0.00    0.0
2016/06/27 00:38:00.000   1202379.6812    252474.6961   6237786.8843   -176469.1638         0.0000         0.0000         0.0000     2.3182     3.5520   6   7   0.1143   0.1259   0.2215   0.0454   0.0995   0.1156   0.00    0.0
2016/06/27 00:38:30.000   1202379.6899    252474.6920   6237786.8425   -177525.4579         0.0000         0.0000         0.0000     2.3166     3.5183   6   7   0.1140   0.1252   0.2171   0.0452   0.0983   0.1156   0.00    0.0
2016/06/27 00:39:00.000   1202379.6822    252474.6788   6237786.8140   -178579.8098         0.0000         0.0000         0.0000     2.3190     2.5475   6   8   0.1137   0.1245   0.2132   0.0447   0.0972   0.1155   0.00    0.0
2016/06/27 00:39:30.000   1202379.6886    252474.6733   6237786.8019   -179633.9571         0.0000         0.0000         0.0000     2.3167     2.5421   6   8   0.1133   0.1237   0.2097   0.0444   0.0960   0.1153   0.00    0.0
2016/06/27 00:40:00.000   1202379.7016    252474.6634   6237786.8141   -180685.5454         0.0000         0.0000         0.0000     2.3151     2.5365   6   8   0.1130   0.1229   0.2045   0.0440   0.0954   0.1149   0.00    0.0
2016/06/27 00:40:30.000   1202379.6986    252474.6580   6237786.8400   -181736.1970         0.0000         0.0000         0.0000     2.3146     2.5308   6   8   0.1126   0.1220   0.2007   0.0437   0.0944   0.1144   0.00    0.0
2016/06/27 00:41:00.000   1202379.7133    252474.6635   6237786.8176   -182790.4261         0.0000         0.0000         0.0000     2.3113     2.5248   6   8   0.1123   0.1213   0.2004   0.0430   0.0924   0.1146   0.00    0.0
2016/06/27 00:41:30.000   1202379.7223    252474.6591   6237786.8699   -183839.3613         0.0000         0.0000         0.0000     2.3109     2.5187   6   8   0.1120   0.1203   0.1957   0.0425   0.0917   0.1141   0.00    0.0
2016/06/27 00:42:00.000   1202379.7172    252474.6547   6237786.8238   -184886.9814         0.0000         0.0000         0.0000     2.3113     2.5124   6   8   0.1116   0.1194   0.1922   0.0420   0.0906   0.1135   0.00    0.0
2016/06/27 00:42:30.000   1202379.7176    252474.6505   6237786.8368   -185937.7451         0.0000         0.0000         0.0000     2.3108     2.5060   6   8   0.1112   0.1185   0.1891   0.0415   0.0893   0.1129   0.00    0.0
2016/06/27 00:43:00.000   1202379.7235    252474.6534   6237786.8501   -186989.6678         0.0000         0.0000         0.0000     2.3109     2.4994   6   8   0.1108   0.1176   0.1897   0.0406   0.0870   0.1131   0.00    0.0
2016/06/27 00:43:30.000   1202379.7190    252474.6484   6237786.8477   -188037.8623         0.0000         0.0000         0.0000     2.3110     2.4927   6   8   0.1105   0.1166   0.1853   0.0399   0.0861   0.1125   0.00    0.0
2016/06/27 00:44:00.000   1202379.7248    252474.6425   6237786.8577   -189088.4201         0.0000         0.0000         0.0000     2.3111     2.4858   6   8   0.1101   0.1156   0.1848   0.0389   0.0839   0.1122   0.00    0.0
2016/06/27 00:44:30.000   1202379.7291    252474.6374   6237786.8448   -190140.7905         0.0000         0.0000         0.0000     2.3099     2.4788   6   8   0.1097   0.1146   0.1824   0.0381   0.0822   0.1118   0.00    0.0
2016/06/27 00:45:00.000   1202379.7257    252474.6334   6237786.8492   -191188.6795         0.0000         0.0000         0.0000     2.3111     2.4717   6   8   0.1093   0.1135   0.1800   0.0370   0.0805   0.1112   0.00    0.0
2016/06/27 00:45:30.000   1202379.7276    252474.6390   6237786.8823   -192241.0964         0.0000         0.0000         0.0000     2.3096     2.4645   6   8   0.1093   0.1138   0.2423   0.0337   0.0954   0.1035   0.00    0.0
2016/06/27 00:46:00.000   1202379.7330    252474.6355   6237786.8913   -193291.5131         0.0000         0.0000         0.0000     2.3092     2.4571   6   8   0.1085   0.1127   0.2162   0.0344   0.0906   0.1093   0.00    0.0
2016/06/27 00:46:30.000   1202379.7340    252474.6346   6237786.8818   -194344.9627         0.0000         0.0000         0.0000     2.3099     2.4497   6   8   0.1081   0.1118   0.2060   0.0345   0.0883   0.1111   0.00    0.0
2016/06/27 00:47:00.000   1202379.7387    252474.6396   6237786.9087   -195400.9177         0.0000         0.0000         0.0000     2.3088     2.4421   6   8   0.1078   0.1108   0.1984   0.0344   0.0871   0.1118   0.00    0.0
2016/06/27 00:47:30.000   1202379.7369    252474.6441   6237786.8958   -196452.8093         0.0000         0.0000         0.0000     2.3089     2.4344   6   8   0.1075   0.1100   0.1958   0.0340   0.0850   0.1124   0.00    0.0
2016/06/27 00:48:00.000   1202379.7439    252474.6516   6237786.8835   -197508.2877         0.0000         0.0000         0.0000     2.3086     2.4267   6   8   0.1072   0.1089   0.1909   0.0337   0.0841   0.1124   0.00    0.0
2016/06/27 00:48:30.000   1202379.7475    252474.6565   6237786.9039   -198560.6196         0.0000         0.0000         0.0000     2.3071     2.4189   6   8   0.1069   0.1080   0.1875   0.0334   0.0829   0.1124   0.00    0.0
2016/06/27 00:49:00.000   1202379.7606    252474.6593   6237786.9157   -199611.8917         0.0000         0.0000         0.0000     2.3050     2.4110   6   8   0.1066   0.1070   0.1846   0.0328   0.0817   0.1122   0.00    0.0
2016/06/27 00:49:30.000   1202379.7648    252474.6562   6237786.9766   -200664.3517         0.0000         0.0000         0.0000     2.3051     2.4030   6   8   0.1064   0.1061   0.1851   0.0319   0.0790   0.1126   0.00    0.0
2016/06/27 00:50:00.000   1202379.7694    252474.6486   6237786.9606   -201713.7688         0.0000         0.0000         0.0000     2.3041     2.3950   6   8   0.1061   0.1049   0.1812   0.0313   0.0781   0.1122   0.00    0.0
2016/06/27 00:50:30.000   1202379.7645    252474.6394   6237786.9418   -202763.1603         0.0000         0.0000         0.0000     2.3039     2.3869   6   8   0.1058   0.1040   0.1809   0.0303   0.0757   0.1121   0.00    0.0
2016/06/27 00:51:00.000   1202379.7674    252474.6404   6237786.9540   -203818.5708         0.0000         0.0000         0.0000     2.3062     2.3787   6   8   0.1055   0.1029   0.1772   0.0295   0.0747   0.1116   0.00    0.0
2016/06/27 00:51:30.000   1202379.7591    252474.6413   6237786.9232   -204870.5365         0.0000         0.0000         0.0000     2.3071     2.3705   6   8   0.1051   0.1018   0.1768   0.0282   0.0722   0.1114   0.00    0.0
2016/06/27 00:52:00.000   1202379.7659    252474.6328   6237786.9544   -205921.7378         0.0000         0.0000         0.0000     2.3068     2.3622   6   8   0.1047   0.1011   0.1742   0.0270   0.0695   0.1108   0.00    0.0
2016/06/27 00:52:30.000   1202379.7672    252474.6319   6237786.9433   -206974.8479         0.0000         0.0000         0.0000     2.3062     2.3539   6   8   0.1043   0.1007   0.1733   0.0265   0.0666   0.1101   0.00    0.0
2016/06/27 00:53:00.000   1202379.7644    252474.6397   6237786.9246   -208027.7946         0.0000         0.0000         0.0000     2.3064     2.3456   6   8   0.1040   0.1000   0.1691   0.0265   0.0658   0.1093   0.00    0.0
2016/06/27 00:53:30.000   1202379.7654    252474.6397   6237786.9443   -209077.2294         0.0000         0.0000         0.0000     2.3078     2.3372   6   8   0.1037   0.0994   0.1662   0.0265   0.0646   0.1086   0.00    0.0
2016/06/27 00:54:00.000   1202379.7612    252474.6447   6237786.9459   -210128.9668         0.0000         0.0000         0.0000     2.3080     2.3288   6   8   0.1033   0.0988   0.1636   0.0263   0.0634   0.1079   0.00    0.0
2016/06/27 00:54:30.000   1202379.7648    252474.6389   6237786.9450   -211175.1985         0.0000         0.0000         0.0000     2.3077     2.3204   6   8   0.1030   0.0981   0.1612   0.0262   0.0620   0.1072   0.00    0.0
2016/06/27 00:55:00.000   1202379.7671    252474.6406   6237786.9405   -212223.6093         0.0000         0.0000         0.0000     2.3075     2.3119   6   8   0.1030   0.0979   0.1798   0.0244   0.0661   0.1026   0.00    0.0
2016/06/27 00:55:30.000   1202379.7654    252474.6484   6237786.9375   -213269.6667         0.0000         0.0000         0.0000     2.3084     2.3035   6   8   0.1022   0.0970   0.1702   0.0251   0.0624   0.1040   0.00    0.0
2016/06/27 00:56:00.000   1202379.7651    252474.6403   6237786.9450   -214318.0381         0.0000         0.0000         0.0000     2.3089     2.2950   6   8   0.1016   0.0964   0.1655   0.0249   0.0602   0.1040   0.00    0.0
2016/06/27 00:56:30.000   1202379.7713    252474.6358   6237786.9274   -215370.1283         0.0000         0.0000         0.0000     2.3089     1.9934   6   9   0.1011   0.0957   0.1620   0.0247   0.0584   0.1036   0.00    0.0
2016/06/27 00:57:00.000   1202379.7640    252474.6277   6237786.9239   -216421.1471         0.0000         0.0000         0.0000     2.3103     1.9952   6   9   0.1004   0.0949   0.1582   0.0240   0.0562   0.1027   0.00    0.0
2016/06/27 00:57:30.000   1202379.7598    252474.6355   6237786.9172   -217470.8281         0.0000         0.0000         0.0000     2.3118     1.9969   6   9   0.0998   0.0942   0.1561   0.0236   0.0549   0.1022   0.00    0.0
2016/06/27 00:58:00.000   1202379.7585    252474.6337   6237786.9570   -218515.4734         0.0000         0.0000         0.0000     2.3121     1.9984   6   9   0.0993   0.0937   0.1582   0.0216   0.0502   0.1025   0.00    0.0
2016/06/27 00:58:30.000   1202379.7600    252474.6309   6237786.9567   -219561.2375         0.0000         0.0000         0.0000     2.3130     1.9996   6   9   0.0985   0.0928   0.1542   0.0207   0.0493   0.1015   0.00    0.0
2016/06/27 00:59:00.000   1202379.7587    252474.6343   6237786.9063   -220608.3214         0.0000         0.0000         0.0000     2.3148     2.0007   6   9   0.0980   0.0920   0.1527   0.0201   0.0486   0.1012   0.00    0.0
2016/06/27 00:59:30.000   1202379.7523    252474.6297   6237786.9156   -221660.6101         0.0000         0.0000         0.0000     2.3147     2.1574   6   8   0.0973   0.0914   0.1496   0.0190   0.0457   0.1000   0.00    0.0
2016/06/27 01:00:00.000   1202379.7562    252474.6332   6237786.9518   -222717.4941         0.0000         0.0000         0.0000     2.3142     2.1654   6   8   0.0969   0.0909   0.1468   0.0190   0.0443   0.0991   0.00    0.0
2016/06/27 01:00:30.000   1202379.7551    252474.6309   6237786.9103   -223771.4074         0.0000         0.0000         0.0000     2.3145     2.1735   6   8   0.0964   0.0904   0.1442   0.0192   0.0432   0.0982   0.00    0.0
2016/06/27 01:01:00.000   1202379.7648    252474.6269   6237786.9354   -224831.3667         0.0000         0.0000         0.0000     2.3141     2.1816   6   8   0.0959   0.0899   0.1419   0.0198   0.0424   0.0974   0.00    0.0
2016/06/27 01:01:30.000   1202379.7597    252474.6189   6237786.9323   -225891.4017         0.0000         0.0000         0.0000     2.3155     2.1897   6   8   0.0954   0.0894   0.1396   0.0203   0.0417   0.0965   0.00    0.0
2016/06/27 01:02:00.000   1202379.7423    252474.6167   6237786.8789   -226951.8597         0.0000         0.0000         0.0000     2.3178     2.1979   6   8   0.0948   0.0889   0.1374   0.0207   0.0410   0.0955   0.00    0.0
2016/06/27 01:02:30.000   1202379.7561    252474.6287   6237786.9269   -228014.5049         0.0000         0.0000         0.0000     2.3178     2.2061   6   8   0.0941   0.0884   0.1353   0.0215   0.0406   0.0946   0.00    0.0
2016/06/27 01:03:00.000   1202379.7410    252474.6357   6237786.9067   -229074.8252         0.0000         0.0000         0.0000     2.3191     2.2144   6   8   0.0934   0.0878   0.1332   0.0223   0.0402   0.0936   0.00    0.0
2016/06/27 01:03:30.000   1202379.7354    252474.6365   6237786.8784   -230136.5322         0.0000         0.0000         0.0000     2.3215     2.2226   6   8   0.0926   0.0873   0.1312   0.0230   0.0401   0.0925   0.00    0.0
2016/06/27 01:04:00.000   1202379.7277    252474.6412   6237786.8865   -231200.1042         0.0000         0.0000         0.0000     2.3224     2.2309   6   8   0.0917   0.0868   0.1292   0.0240   0.0399   0.0915   0.00    0.0
2016/06/27 01:04:30.000   1202379.7339    252474.6484   6237786.8950   -232265.0642         0.0000         0.0000         0.0000     2.3224     2.2393   6   8   0.0909   0.0862   0.1272   0.0250   0.0399   0.0903   0.00    0.0
2016/06/27 01:05:00.000   1202379.7289    252474.6437   6237786.8780   -233332.3798         0.0000         0.0000         0.0000     2.3238     2.2476   6   8   0.0899   0.0857   0.1253   0.0260   0.0400   0.0892   0.00    0.0
2016/06/27 01:05:30.000   1202379.7220    252474.6502   6237786.8857   -234400.0896         0.0000         0.0000         0.0000     2.3251     2.2559   6   8   0.0890   0.0852   0.1235   0.0270   0.0402   0.0880   0.00    0.0
2016/06/27 01:06:00.000   1202379.7278    252474.6540   6237786.8508   -235470.3284         0.0000         0.0000         0.0000     2.3253     1.8913   6   9   0.0880   0.0846   0.1217   0.0279   0.0403   0.0868   0.00    0.0
2016/06/27 01:06:30.000   1202379.7017    252474.6655   6237786.8644   -236542.7934         0.0000         0.0000         0.0000     2.3293     1.9032   6   9   0.0869   0.0841   0.1185   0.0287   0.0408   0.0857   0.00    0.0
2016/06/27 01:07:00.000   1202379.7024    252474.6695   6237786.8429   -237614.7346         0.0000         0.0000         0.0000     2.3304     1.9153   6   9   0.0859   0.0835   0.1161   0.0297   0.0410   0.0845   0.00    0.0
2016/06/27 01:07:30.000   1202379.7289    252474.6607   6237786.8384   -238684.6426         0.0000         0.0000         0.0000     2.3292     1.9276   6   9   0.0849   0.0830   0.1140   0.0305   0.0413   0.0832   0.00    0.0
2016/06/27 01:08:00.000   1202379.7072    252474.6679   6237786.8572   -239757.3570         0.0000         0.0000         0.0000     2.3317     1.9399   6   9   0.0838   0.0825   0.1149   0.0314   0.0415   0.0820   0.00    0.0
2016/06/27 01:08:30.000   1202379.6869    252474.6709   6237786.8269   -240825.4845         0.0000         0.0000         0.0000     2.3345     1.9524   6   9   0.0828   0.0819   0.1133   0.0321   0.0419   0.0808   0.00    0.0
2016/06/27 01:09:00.000   1202379.6706    252474.6770   6237786.7978   -241895.5952         0.0000         0.0000         0.0000     2.3381     1.9651   6   9   0.0817   0.0814   0.1102   0.0328   0.0423   0.0798   0.00    0.0
2016/06/27 01:09:30.000   1202379.6642    252474.6839   6237786.8182   -242967.4957         0.0000         0.0000         0.0000     2.3407     1.9778   6   9   0.0807   0.0809   0.1082   0.0335   0.0427   0.0787   0.00    0.0
2016/06/27 01:10:00.000   1202379.6705    252474.6933   6237786.8301   -244041.7329         0.0000         0.0000         0.0000     2.3413     1.9907   6   9   0.0797   0.0803   0.1063   0.0342   0.0429   0.0776   0.00    0.0
2016/06/27 01:10:30.000   1202379.6479    252474.6844   6237786.7662   -245121.4399         0.0000         0.0000         0.0000     2.3455     2.0037   6   9   0.0787   0.0798   0.1047   0.0348   0.0432   0.0765   0.00    0.0
2016/06/27 01:11:00.000   1202379.6506    252474.6908   6237786.7602   -246201.2402         0.0000         0.0000         0.0000     2.3458     2.0168   6   9   0.0785   0.0793   0.1056   0.0350   0.0440   0.0738   0.00    0.0
2016/06/27 01:11:30.000   1202379.6410    252474.6894   6237786.7721   -247283.4819         0.0000         0.0000         0.0000     2.3473     2.0301   6   9   0.0776   0.0787   0.1026   0.0356   0.0438   0.0733   0.00    0.0
2016/06/27 01:12:00.000   1202379.6390    252474.6864   6237786.7552   -248368.0493         0.0000         0.0000         0.0000     2.3478     2.0434   6   9   0.0768   0.0781   0.1007   0.0361   0.0438   0.0725   0.00    0.0
2016/06/27 01:12:30.000   1202379.6325    252474.6897   6237786.7586   -249452.6334         0.0000         0.0000         0.0000     2.3483     2.0568   6   9   0.0760   0.0776   0.0991   0.0366   0.0439   0.0717   0.00    0.0
2016/06/27 01:13:00.000   1202379.6348    252474.6889   6237786.7701   -250537.0587         0.0000         0.0000         0.0000     2.3488     2.0704   6   9   0.0752   0.0770   0.1023   0.0369   0.0443   0.0705   0.00    0.0
2016/06/27 01:13:30.000   1202379.6274    252474.6950   6237786.7567   -251617.4154         0.0000         0.0000         0.0000     2.3499     2.0840   6   9   0.0745   0.0765   0.1012   0.0374   0.0446   0.0699   0.00    0.0
2016/06/27 01:14:00.000   1202379.6193    252474.6893   6237786.7350   -252701.7046         0.0000         0.0000         0.0000     2.3513     2.0977   6   9   0.0736   0.0760   0.0982   0.0378   0.0449   0.0694   0.00    0.0
2016/06/27 01:14:30.000   1202379.6254    252474.7012   6237786.7490   -253788.7103         0.0000         0.0000         0.0000     2.3508     2.1115   6   9   0.0729   0.0754   0.0993   0.0381   0.0450   0.0686   0.00    0.0
2016/06/27 01:15:00.000   1202379.6140    252474.6965   6237786.7329   -254875.9303         0.0000         0.0000         0.0000     2.3526     2.1253   6   9   0.0721   0.0750   0.0985   0.0385   0.0453   0.0679   0.00    0.0
2016/06/27 01:15:30.000   1202379.6165    252474.7024   6237786.7168   -255969.1237         0.0000         0.0000         0.0000     2.3527     2.1392   6   9   0.0714   0.0744   0.0956   0.0389   0.0456   0.0676   0.00    0.0
2016/06/27 01:16:00.000   1202379.6134    252474.7057   6237786.7327   -257063.0957         0.0000         0.0000         0.0000     2.3531     2.1532   6   9   0.0707   0.0739   0.0970   0.0391   0.0456   0.0668   0.00    0.0
2016/06/27 01:16:30.000   1202379.6087    252474.7009   6237786.7306   -258157.4639         0.0000         0.0000         0.0000     2.3546     2.1671   6   9   0.0701   0.0734   0.0964   0.0394   0.0458   0.0662   0.00    0.0
2016/06/27 01:17:00.000   1202379.6029    252474.7043   6237786.7247   -259250.4536         0.0000         0.0000         0.0000     2.3550     2.1812   6   9   0.0694   0.0729   0.0958   0.0397   0.0460   0.0657   0.00    0.0
2016/06/27 01:17:30.000   1202379.5931    252474.6980   6237786.6936   -260342.1024         0.0000         0.0000         0.0000     2.3570     2.1952   6   9   0.0687   0.0723   0.0930   0.0399   0.0463   0.0654   0.00    0.0
2016/06/27 01:18:00.000   1202379.6040    252474.7066   6237786.7190   -261433.4274         0.0000         0.0000         0.0000     2.3559     2.2092   6   9   0.0681   0.0718   0.0916   0.0402   0.0465   0.0650   0.00    0.0
2016/06/27 01:18:30.000   1202379.5922    252474.7001   6237786.7062   -262526.2037         0.0000         0.0000         0.0000     2.3569     2.2233   6   8   0.0677   0.0713   0.0946   0.0404   0.0467   0.0634   0.00    0.0
2016/06/27 01:19:00.000   1202379.5904    252474.6983   6237786.7129   -263620.3716         0.0000         0.0000         0.0000     2.3588     2.2373   6   9   0.0669   0.0708   0.0898   0.0406   0.0466   0.0641   0.00    0.0
2016/06/27 01:19:30.000   1202379.5846    252474.6988   6237786.7067   -264713.8038         0.0000         0.0000         0.0000     2.3603     2.2513   6   9   0.0663   0.0702   0.0891   0.0407   0.0467   0.0636   0.00    0.0
2016/06/27 01:20:00.000   1202379.5844    252474.7044   6237786.7117   -265807.8702         0.0000         0.0000         0.0000     2.3605     2.2652   6   9   0.0657   0.0697   0.0884   0.0408   0.0466   0.0632   0.00    0.0
2016/06/27 01:20:30.000   1202379.5724    252474.7023   6237786.6931   -266902.8566         0.0000         0.0000         0.0000     2.3630     2.2791   6   9   0.0652   0.0691   0.0879   0.0409   0.0466   0.0628   0.00    0.0
2016/06/27 01:21:00.000   1202379.5657    252474.7048   6237786.6900   -267998.6558         0.0000         0.0000         0.0000     2.3638     2.2929   6   9   0.0646   0.0685   0.0873   0.0410   0.0466   0.0623   0.00    0.0
2016/06/27 01:21:30.000   1202379.5662    252474.7002   6237786.6976   -269095.3134         0.0000         0.0000         0.0000     2.3647     2.3066   6   9   0.0641   0.0679   0.0868   0.0410   0.0464   0.0619   0.00    0.0
2016/06/27 01:22:00.000   1202379.5648    252474.7076   6237786.6830   -270192.8835         0.0000         0.0000         0.0000     2.3653     2.3202   6   9   0.0636   0.0673   0.0863   0.0410   0.0463   0.0615   0.00    0.0
2016/06/27 01:22:30.000   1202379.5615    252474.7059   6237786.6824   -271289.1203         0.0000         0.0000         0.0000     2.3662     2.3336   6   9   0.0632   0.0667   0.0859   0.0410   0.0462   0.0611   0.00    0.0
2016/06/27 01:23:00.000   1202379.5601    252474.7019   6237786.6760   -272388.2214         0.0000         0.0000         0.0000     2.3666     2.3469   6   9   0.0635   0.0675   0.0862   0.0391   0.0442   0.0616   0.00    0.0
2016/06/27 01:23:30.000   1202379.5543    252474.6999   6237786.7089   -273487.0740         0.0000         0.0000         0.0000     2.3686     2.3601   6   9   0.0629   0.0669   0.0853   0.0391   0.0448   0.0607   0.00    0.0
2016/06/27 01:24:00.000   1202379.5570    252474.7024   6237786.6779   -274584.6754         0.0000         0.0000         0.0000     2.3691     2.3730   6   9   0.0624   0.0664   0.0848   0.0390   0.0449   0.0602   0.00    0.0
2016/06/27 01:24:30.000   1202379.5475    252474.6970   6237786.6653   -275676.6146         0.0000         0.0000         0.0000     2.3715     2.3858   6   9   0.0619   0.0659   0.0844   0.0387   0.0451   0.0597   0.00    0.0
2016/06/27 01:25:00.000   1202379.5469    252474.6929   6237786.6851   -276775.2594         0.0000         0.0000         0.0000     2.3726     2.3983   6   9   0.0615   0.0654   0.0841   0.0384   0.0450   0.0591   0.00    0.0
2016/06/27 01:25:30.000   1202379.5519    252474.6941   6237786.6608   -277877.1410         0.0000         0.0000         0.0000     2.3732     2.4106   6   9   0.0611   0.0650   0.0838   0.0381   0.0449   0.0587   0.00    0.0
2016/06/27 01:26:00.000   1202379.5493    252474.6963   6237786.6616   -278972.1658         0.0000         0.0000         0.0000     2.3740     2.4226   6   9   0.0607   0.0644   0.0835   0.0378   0.0446   0.0582   0.00    0.0
2016/06/27 01:26:30.000   1202379.5418    252474.6877   6237786.6621   -280066.4085         0.0000         0.0000         0.0000     2.3762     2.4344   6   9   0.0603   0.0639   0.0833   0.0373   0.0445   0.0578   0.00    0.0
2016/06/27 01:27:00.000   1202379.5404    252474.6919   6237786.6361   -281162.9287         0.0000         0.0000         0.0000     2.3773     2.4458   6   9   0.0599   0.0633   0.0831   0.0370   0.0443   0.0574   0.00    0.0
2016/06/27 01:27:30.000   1202379.5385    252474.6861   6237786.6420   -282260.5010         0.0000         0.0000         0.0000     2.3768     2.4569   6   9   0.0594   0.0628   0.0828   0.0366   0.0440   0.0570   0.00    0.0
2016/06/27 01:28:00.000   1202379.5427    252474.6874   6237786.6752   -283358.2339         0.0000         0.0000         0.0000     2.3766     2.4676   6   9   0.0591   0.0622   0.0826   0.0362   0.0437   0.0566   0.00    0.0
2016/06/27 01:28:30.000   1202379.5393    252474.6873   6237786.6770   -284456.3695         0.0000         0.0000         0.0000     2.3774     2.4780   6   9   0.0602   0.0617   0.0915   0.0355   0.0456   0.0552   0.00    0.0
2016/06/27 01:29:00.000   1202379.5351    252474.6821   6237786.6826   -285559.3485         0.0000         0.0000         0.0000     2.3786     2.4880   6   9   0.0593   0.0615   0.0882   0.0355   0.0460   0.0557   0.00    0.0
2016/06/27 01:29:30.000   1202379.5368    252474.6896   6237786.6832   -286660.8375         0.0000         0.0000         0.0000     2.3780     2.4976   6   9   0.0589   0.0613   0.0871   0.0354   0.0462   0.0558   0.00    0.0
2016/06/27 01:30:00.000   1202379.5394    252474.6944   6237786.7015   -287759.7250         0.0000         0.0000         0.0000     2.3788     2.5067   6   9   0.0585   0.0610   0.0866   0.0354   0.0465   0.0556   0.00    0.0
2016/06/27 01:30:30.000   1202379.5387    252474.6983   6237786.6625   -288856.2217         0.0000         0.0000         0.0000     2.3788     3.0895   6   8   0.0583   0.0608   0.0914   0.0353   0.0461   0.0544   0.00    0.0
2016/06/27 01:31:00.000   1202379.5329    252474.7017   6237786.6653   -289958.2100         0.0000         0.0000         0.0000     2.3794     3.1276   6   8   0.0588   0.0615   0.0910   0.0339   0.0459   0.0543   0.00    0.0
2016/06/27 01:31:30.000   1202379.5339    252474.7018   6237786.6748   -291063.2147         0.0000         0.0000         0.0000     2.3796     3.1663   6   8   0.0586   0.0614   0.0908   0.0337   0.0459   0.0541   0.00    0.0
2016/06/27 01:32:00.000   1202379.5351    252474.7041   6237786.6592   -292168.9565         0.0000         0.0000         0.0000     2.3796     3.2057   6   8   0.0581   0.0609   0.0906   0.0341   0.0462   0.0537   0.00    0.0
2016/06/27 01:32:30.000   1202379.5570    252474.6948   6237786.7312   -293277.1136         0.0000         0.0000         0.0000     2.3801     3.2458   6   8   0.0922   0.0614   0.2436   0.0254   0.0246   0.1381   0.00    0.0
2016/06/27 01:33:00.000   1202379.5556    252474.6982   6237786.7112   -294385.1790         0.0000         0.0000         0.0000     2.3799     3.2864   6   8   0.0837   0.0610   0.2165   0.0291   0.0352   0.1214   0.00    0.0
2016/06/27 01:33:30.000   1202379.5517    252474.7039   6237786.6815   -295493.6891         0.0000         0.0000         0.0000     2.3800     3.3277   6   8   0.0772   0.0608   0.1885   0.0289   0.0344   0.1065   0.00    0.0
2016/06/27 01:34:00.000   1202379.5554    252474.7001   6237786.7201   -296598.3620         0.0000         0.0000         0.0000     2.3802     3.3695   6   8   0.0745   0.0605   0.1772   0.0287   0.0341   0.1003   0.00    0.0
2016/06/27 01:34:30.000   1202379.5533    252474.7007   6237786.7109   -297702.9287         0.0000         0.0000         0.0000     2.3807     3.4118   6   8   0.0730   0.0603   0.1716   0.0284   0.0335   0.0971   0.00    0.0
2016/06/27 01:35:00.000   1202379.5540    252474.6938   6237786.7238   -298809.8357         0.0000         0.0000         0.0000     2.3811     3.4546   6   8   0.0722   0.0601   0.1688   0.0279   0.0328   0.0954   0.00    0.0
2016/06/27 01:35:30.000   1202379.5556    252474.6944   6237786.7094   -299914.9902         0.0000         0.0000         0.0000     2.3812     3.4979   6   8   0.0717   0.0598   0.1677   0.0275   0.0321   0.0946   0.00    0.0
2016/06/27 01:36:00.000   1202379.5656    252474.7052   6237786.7281   -301017.7556         0.0000         0.0000         0.0000     2.3824     3.5415   6   8   0.0714   0.0597   0.1675   0.0270   0.0311   0.0942   0.00    0.0
2016/06/27 01:36:30.000   1202379.5701    252474.6840   6237786.7238   -302127.5585         0.0000         0.0000         0.0000     2.3829     3.5854   6   8   0.0711   0.0594   0.1679   0.0264   0.0300   0.0942   0.00    0.0
2016/06/27 01:37:00.000   1202379.5656    252474.6912   6237786.7419   -303238.3428         0.0000         0.0000         0.0000     2.3832     3.6295   6   8   0.0710   0.0591   0.1686   0.0259   0.0289   0.0943   0.00    0.0
2016/06/27 01:37:30.000   1202379.5580    252474.6765   6237786.7308   -304347.4673         0.0000         0.0000         0.0000     2.3831     3.6738   6   8   0.0708   0.0589   0.1695   0.0253   0.0276   0.0944   0.00    0.0
2016/06/27 01:38:00.000   1202379.5590    252474.6819   6237786.7160   -305462.4280         0.0000         0.0000         0.0000     2.3830     3.7182   6   8   0.0707   0.0585   0.1703   0.0246   0.0263   0.0946   0.00    0.0
2016/06/27 01:38:30.000   1202379.5524    252474.6827   6237786.7135   -306577.3505         0.0000         0.0000         0.0000     2.3831     3.7625   6   8   0.0705   0.0582   0.1710   0.0241   0.0249   0.0946   0.00    0.0
2016/06/27 01:39:00.000   1202379.5474    252474.6840   6237786.7055   -307690.2860         0.0000         0.0000         0.0000     2.3836     3.8067   6   8   0.0702   0.0579   0.1712   0.0235   0.0236   0.0944   0.00    0.0
2016/06/27 01:39:30.000   1202379.5498    252474.6827   6237786.7113   -308801.2532         0.0000         0.0000         0.0000     2.3837     3.8507   6   8   0.0698   0.0575   0.1711   0.0228   0.0225   0.0939   0.00    0.0
2016/06/27 01:40:00.000   1202379.5458    252474.6824   6237786.7070   -309910.7536         0.0000         0.0000         0.0000     2.3836     3.8943   6   8   0.0693   0.0571   0.1704   0.0225   0.0215   0.0932   0.00    0.0
2016/06/27 01:40:30.000   1202379.5483    252474.6799   6237786.7043   -311026.1592         0.0000         0.0000         0.0000     2.3841     3.9373   6   8   0.0687   0.0567   0.1691   0.0220   0.0208   0.0921   0.00    0.0
2016/06/27 01:41:00.000   1202379.5397    252474.6825   6237786.6939   -312138.1313         0.0000         0.0000         0.0000     2.3840     3.9798   6   8   0.0679   0.0563   0.1672   0.0216   0.0202   0.0907   0.00    0.0
2016/06/27 01:41:30.000   1202379.5436    252474.6815   6237786.6942   -313249.2765         0.0000         0.0000         0.0000     2.3840     4.0214   6   8   0.0670   0.0558   0.1647   0.0213   0.0200   0.0890   0.00    0.0
2016/06/27 01:42:00.000   1202379.5421    252474.6816   6237786.6795   -314359.3814         0.0000         0.0000         0.0000     2.3841     4.0621   6   8   0.0661   0.0553   0.1618   0.0211   0.0199   0.0871   0.00    0.0
2016/06/27 01:42:30.000   1202379.5411    252474.6763   6237786.6879   -315468.0751         0.0000         0.0000         0.0000     2.3848     4.1017   6   8   0.0651   0.0548   0.1584   0.0209   0.0202   0.0850   0.00    0.0
2016/06/27 01:43:00.000   1202379.5393    252474.6728   6237786.6877   -316575.4938         0.0000         0.0000         0.0000     2.3854     4.1400   6   8   0.0640   0.0542   0.1548   0.0207   0.0206   0.0827   0.00    0.0
2016/06/27 01:43:30.000   1202379.5367    252474.6741   6237786.6646   -317683.3418         0.0000         0.0000         0.0000     2.3856     4.1768   6   8   0.0630   0.0537   0.1509   0.0206   0.0210   0.0803   0.00    0.0
2016/06/27 01:44:00.000   1202379.5296    252474.6736   6237786.6681   -318791.2256         0.0000         0.0000         0.0000     2.3859     4.2120   6   8   0.0619   0.0530   0.1470   0.0205   0.0216   0.0779   0.00    0.0
2016/06/27 01:44:30.000   1202379.5246    252474.6740   6237786.6210   -319897.8577         0.0000         0.0000         0.0000     2.3860     4.2454   6   8   0.0610   0.0526   0.1431   0.0204   0.0222   0.0756   0.00    0.0
2016/06/27 01:45:00.000   1202379.5291    252474.6742   6237786.6383   -321003.1295         0.0000         0.0000         0.0000     2.3858     4.2768   6   8   0.0600   0.0520   0.1393   0.0202   0.0226   0.0733   0.00    0.0
2016/06/27 01:45:30.000   1202379.5252    252474.6751   6237786.6211   -322109.1810         0.0000         0.0000         0.0000     2.3858     4.3060   6   8   0.0591   0.0514   0.1357   0.0201   0.0232   0.0711   0.00    0.0
2016/06/27 01:46:00.000   1202379.5262    252474.6699   6237786.6511   -323214.7535         0.0000         0.0000         0.0000     2.3863     4.3328   6   8   0.0583   0.0508   0.1322   0.0199   0.0235   0.0691   0.00    0.0
2016/06/27 01:46:30.000   1202379.5227    252474.6747   6237786.6302   -324319.5285         0.0000         0.0000         0.0000     2.3861     4.3572   6   8   0.0574   0.0501   0.1290   0.0197   0.0239   0.0671   0.00    0.0
2016/06/27 01:47:00.000   1202379.5215    252474.6720   6237786.6058   -325418.5393         0.0000         0.0000         0.0000     2.3863     4.3789   6   8   0.0567   0.0495   0.1260   0.0195   0.0240   0.0653   0.00    0.0
2016/06/27 01:47:30.000   1202379.5102    252474.6767   6237786.5786   -326522.1532         0.0000         0.0000         0.0000     2.3864     4.3978   6   8   0.0561   0.0489   0.1232   0.0194   0.0243   0.0637   0.00    0.0
2016/06/27 01:48:00.000   1202379.5070    252474.6778   6237786.5850   -327626.0014         0.0000         0.0000         0.0000     2.3864     4.4137   6   8   0.0554   0.0483   0.1207   0.0189   0.0244   0.0621   0.00    0.0
2016/06/27 01:48:30.000   1202379.5065    252474.6768   6237786.5617   -328728.6800         0.0000         0.0000         0.0000     2.3865     4.4266   6   8   0.0549   0.0476   0.1183   0.0187   0.0245   0.0607   0.00    0.0
2016/06/27 01:49:00.000   1202379.5130    252474.6781   6237786.5940   -329832.7760         0.0000         0.0000         0.0000     2.3865     4.4364   6   8   0.0543   0.0470   0.1162   0.0185   0.0245   0.0594   0.00    0.0
2016/06/27 01:49:30.000   1202379.5104    252474.6750   6237786.5835   -330936.4515         0.0000         0.0000         0.0000     2.3864     4.4430   6   8   0.0538   0.0463   0.1143   0.0180   0.0244   0.0582   0.00    0.0
2016/06/27 01:50:00.000   1202379.5070    252474.6730   6237786.5902   -332038.9489         0.0000         0.0000         0.0000     2.3868     4.4463   6   8   0.0534   0.0456   0.1125   0.0177   0.0244   0.0571   0.00    0.0
2016/06/27 01:50:30.000   1202379.5015    252474.6770   6237786.5706   -333143.8347         0.0000         0.0000         0.0000     2.3869     4.4464   6   8   0.0529   0.0450   0.1109   0.0172   0.0242   0.0561   0.00    0.0
2016/06/27 01:51:00.000   1202379.4991    252474.6737   6237786.5739   -334249.4511         0.0000         0.0000         0.0000     2.3871     4.4432   6   8   0.0525   0.0444   0.1094   0.0170   0.0241   0.0552   0.00    0.0
2016/06/27 01:51:30.000   1202379.5009    252474.6771   6237786.5545   -335352.0250         0.0000         0.0000         0.0000     2.3871     4.4367   6   8   0.0521   0.0437   0.1081   0.0164   0.0240   0.0543   0.00    0.0
2016/06/27 01:52:00.000   1202379.4962    252474.6738   6237786.5560   -336456.4128         0.0000         0.0000         0.0000     2.3874     4.4270   6   8   0.0518   0.0431   0.1068   0.0161   0.0237   0.0536   0.00    0.0
2016/06/27 01:52:30.000   1202379.5010    252474.6762   6237786.5575   -337561.7661         0.0000         0.0000         0.0000     2.3875     4.4142   6   8   0.0514   0.0426   0.1057   0.0158   0.0235   0.0528   0.00    0.0
2016/06/27 01:53:00.000   1202379.4947    252474.6736   6237786.5591   -338663.9235         0.0000         0.0000         0.0000     2.3877     4.3983   6   8   0.0511   0.0419   0.1046   0.0153   0.0232   0.0521   0.00    0.0
2016/06/27 01:53:30.000   1202379.4939    252474.6767   6237786.5304   -339769.9248         0.0000         0.0000         0.0000     2.3879     4.3795   6   8   0.0508   0.0413   0.1036   0.0147   0.0230   0.0514   0.00    0.0
2016/06/27 01:54:00.000   1202379.5053    252474.6669   6237786.5764   -340874.1916         0.0000         0.0000         0.0000     2.3886     4.3578   6   8   0.0505   0.0407   0.1027   0.0143   0.0227   0.0508   0.00    0.0
2016/06/27 01:54:30.000   1202379.4917    252474.6764   6237786.5360   -341983.3262         0.0000         0.0000         0.0000     2.3881     4.3334   6   8   0.0502   0.0402   0.1018   0.0140   0.0224   0.0502   0.00    0.0
2016/06/27 01:55:00.000   1202379.4979    252474.6674   6237786.5460   -343093.8811         0.0000         0.0000         0.0000     2.3888     4.3065   6   8   0.0499   0.0396   0.1010   0.0135   0.0222   0.0497   0.00    0.0
2016/06/27 01:55:30.000   1202379.4886    252474.6689   6237786.5172   -344202.7997         0.0000         0.0000         0.0000     2.3890     4.2772   6   8   0.0496   0.0390   0.1002   0.0130   0.0220   0.0491   0.00    0.0
2016/06/27 01:56:00.000   1202379.4902    252474.6645   6237786.5265   -345308.9757         0.0000         0.0000         0.0000     2.3891     4.2457   6   8   0.0493   0.0383   0.0994   0.0123   0.0217   0.0486   0.00    0.0
2016/06/27 01:56:30.000   1202379.4949    252474.6660   6237786.5502   -346416.5760         0.0000         0.0000         0.0000     2.3891     4.2122   6   8   0.0490   0.0379   0.0987   0.0119   0.0215   0.0481   0.00    0.0
2016/06/27 01:57:00.000   1202379.4930    252474.6753   6237786.5492   -347530.1975         0.0000         0.0000         0.0000     2.3893     4.1768   6   8   0.0488   0.0373   0.0979   0.0112   0.0212   0.0475   0.00    0.0
2016/06/27 01:57:30.000   1202379.4926    252474.6720   6237786.5268   -348645.7054         0.0000         0.0000         0.0000     2.3893     4.1398   6   8   0.0485   0.0368   0.0972   0.0108   0.0209   0.0471   0.00    0.0
2016/06/27 01:58:00.000   1202379.4898    252474.6650   6237786.5362   -349756.5721         0.0000         0.0000         0.0000     2.3898     4.1012   6   8   0.0483   0.0363   0.0965   0.0101   0.0207   0.0466   0.00    0.0
2016/06/27 01:58:30.000   1202379.4885    252474.6617   6237786.5286   -350870.4147         0.0000         0.0000         0.0000     2.3905     4.0613   6   8   0.0480   0.0358   0.0958   0.0096   0.0204   0.0461   0.00    0.0
2016/06/27 01:59:00.000   1202379.4884    252474.6608   6237786.5234   -351980.5307         0.0000         0.0000         0.0000     2.3910     2.7646   6   9   0.0477   0.0352   0.0952   0.0090   0.0202   0.0456   0.00    0.0
2016/06/27 01:59:30.000   1202379.4909    252474.6564   6237786.5326   -353091.4001         0.0000         0.0000         0.0000     2.3913     2.7659   6   9   0.0475   0.0349   0.0945   0.0081   0.0198   0.0451   0.00    0.0
2016/06/27 02:00:00.000   1202379.4835    252474.6581   6237786.5070   -354202.3837         0.0000         0.0000         0.0000     2.3915     2.7665   6   9   0.0472   0.0342   0.0881   0.0083   0.0199   0.0437   0.00    0.0
2016/06/27 02:00:30.000   1202379.4809    252474.6565   6237786.5308   -355312.0288         0.0000         0.0000         0.0000     2.3919     2.7663   6   9   0.0469   0.0337   0.0855   0.0070   0.0198   0.0429   0.00    0.0
2016/06/27 02:01:00.000   1202379.4843    252474.6589   6237786.5399   -356415.3349         0.0000         0.0000         0.0000     2.3920     2.7653   6   9   0.0466   0.0333   0.0837   0.0070   0.0194   0.0423   0.00    0.0
2016/06/27 02:01:30.000   1202379.4794    252474.6585   6237786.5160   -357519.4038         0.0000         0.0000         0.0000     2.3917     2.7636   6   9   0.0464   0.0328   0.0825   0.0059   0.0192   0.0417   0.00    0.0
2016/06/27 02:02:00.000   1202379.4854    252474.6543   6237786.5792   -358622.4707         0.0000         0.0000         0.0000     2.3920     2.7611   6   9   0.0461   0.0325   0.0814   0.0055   0.0188   0.0412   0.00    0.0
2016/06/27 02:02:30.000   1202379.4854    252474.6543   6237786.5443   -359727.0581         0.0000         0.0000         0.0000     2.3922     2.7578   6   9   0.0458   0.0321   0.0805   0.0041   0.0185   0.0408   0.00    0.0
2016/06/27 02:03:00.000   1202379.4818    252474.6577   6237786.5263   -360832.7561         0.0000         0.0000         0.0000     2.3929     2.7538   6   9   0.0456   0.0317   0.0797   0.0021   0.0183   0.0403   0.00    0.0
2016/06/27 02:03:30.000   1202379.4811    252474.6630   6237786.5333   -361934.3716         0.0000         0.0000         0.0000     2.3926     2.7490   6   9   0.0454   0.0311   0.0790   0.0021   0.0179   0.0399   0.00    0.0
2016/06/27 02:04:00.000   1202379.4846    252474.6624   6237786.5358   -363037.4196         0.0000         0.0000         0.0000     2.3929     2.7434   6   9   0.0451   0.0308   0.0782  -0.0034   0.0177   0.0395   0.00    0.0
2016/06/27 02:04:30.000   1202379.4765    252474.6628   6237786.5600   -364140.8213         0.0000         0.0000         0.0000     2.3932     2.7372   6   9   0.0449   0.0304   0.0879  -0.0032   0.0178   0.0405   0.00    0.0
2016/06/27 02:05:00.000   1202379.4754    252474.6634   6237786.5401   -365244.9207         0.0000         0.0000         0.0000     2.3933     2.7303   6   9   0.0447   0.0300   0.0822  -0.0045   0.0178   0.0394   0.00    0.0
2016/06/27 02:05:30.000   1202379.4774    252474.6673   6237786.5114   -366351.6965         0.0000         0.0000         0.0000     2.3935     2.7226   6   9   0.0444   0.0297   0.0798  -0.0054   0.0174   0.0387   0.00    0.0
2016/06/27 02:06:00.000   1202379.4762    252474.6645   6237786.5352   -367456.1620         0.0000         0.0000         0.0000     2.3938     2.7143   6   9   0.0442   0.0294   0.0784  -0.0062   0.0172   0.0382   0.00    0.0
2016/06/27 02:06:30.000   1202379.4760    252474.6642   6237786.5122   -368559.1608         0.0000         0.0000         0.0000     2.3940     2.7054   6   9   0.0439   0.0290   0.0773  -0.0066   0.0171   0.0378   0.00    0.0
2016/06/27 02:07:00.000   1202379.4708    252474.6657   6237786.5089   -369662.2188         0.0000         0.0000         0.0000     2.3943     2.6958   6   9   0.0438   0.0288   0.0765  -0.0069   0.0169   0.0374   0.00    0.0
2016/06/27 02:07:30.000   1202379.4770    252474.6623   6237786.5484   -370768.3043         0.0000         0.0000         0.0000     2.3947     2.6857   6   9   0.0434   0.0284   0.0757  -0.0073   0.0166   0.0370   0.00    0.0
2016/06/27 02:08:00.000   1202379.4755    252474.6628   6237786.5106   -371870.7436         0.0000         0.0000         0.0000     2.3953     2.6749   6   9   0.0432   0.0282   0.0751  -0.0083   0.0162   0.0365   0.00    0.0
2016/06/27 02:08:30.000   1202379.4729    252474.6596   6237786.5196   -372972.9697         0.0000         0.0000         0.0000     2.3959     2.6636   6   9   0.0429   0.0279   0.0830  -0.0079   0.0162   0.0368   0.00    0.0
2016/06/27 02:09:00.000   1202379.4697    252474.6609   6237786.5064   -374073.0047         0.0000         0.0000         0.0000     2.3960     2.6518   6   9   0.0427   0.0275   0.0781  -0.0087   0.0163   0.0360   0.00    0.0
2016/06/27 02:09:30.000   1202379.4655    252474.6588   6237786.5222   -375171.3844         0.0000         0.0000         0.0000     2.3966     2.6395   6   9   0.0425   0.0272   0.0761  -0.0090   0.0163   0.0355   0.00    0.0
2016/06/27 02:10:00.000   1202379.4594    252474.6576   6237786.5117   -376268.4021         0.0000         0.0000         0.0000     2.3970     2.6267   6   9   0.0422   0.0270   0.0749  -0.0093   0.0160   0.0351   0.00    0.0
2016/06/27 02:10:30.000   1202379.4653    252474.6549   6237786.4982   -377369.7928         0.0000         0.0000         0.0000     2.3976     2.6135   6   9   0.0420   0.0266   0.0740  -0.0095   0.0159   0.0347   0.00    0.0
2016/06/27 02:11:00.000   1202379.4544    252474.6571   6237786.5176   -378469.4240         0.0000         0.0000         0.0000     2.3979     2.5998   6   9   0.0418   0.0265   0.0833  -0.0104   0.0178   0.0337   0.00    0.0
