%  GPST                      x-ecef(m)      y-ecef(m)      z-ecef(m)   Q  ns   sdx(m)   sdy(m)   sdz(m)  sdxy(m)  sdyz(m)  sdzx(m) age(s)  ratio
2016/06/27 00:00:00.000  -4387891.3314    733421.0789  -4555176.5786    492813.8073         0.0000         0.0000         0.0000     2.3776     1.6975   6  10   2.3008   1.0787   2.1253  -0.8993  -0.7359   1.6583   0.00    0.0
2016/06/27 00:00:30.000  -4387891.9143    733420.7145  -4555177.9505    487912.9692         0.0000         0.0000         0.0000     2.3767     1.6995   6  10   1.6112   0.7590   1.4120  -0.6252  -0.5017   1.1259   0.00    0.0
2016/06/27 00:01:00.000  -4387891.3670    733420.6552  -4555176.9428    483005.7488         0.0000         0.0000         0.0000     2.3688     1.7013   6  10   1.2962   0.6151   1.0585  -0.4984  -0.3900   0.8700   0.00    0.0
2016/06/27 00:01:30.000  -4387890.9025    733420.6526  -4555176.8477    478096.0692         0.0000         0.0000         0.0000     2.3738     1.7031   6  10   1.1040   0.5277   0.8368  -0.4202  -0.3214   0.7123   0.00    0.0
2016/06/27 00:02:00.000  -4387890.9092    733420.5739  -4555176.6190    473187.4920         0.0000         0.0000         0.0000     2.3673     1.7049   6  10   0.9702   0.4668   0.6861  -0.3651  -0.2748   0.6052   0.00    0.0
2016/06/27 00:02:30.000  -4387890.9476    733420.6169  -4555176.5757    468279.6618         0.0000         0.0000         0.0000     2.3576     1.7065   6  10   0.8692   0.4209   0.5785  -0.3233  -0.2410   0.5277   0.00    0.0
2016/06/27 00:03:00.000  -4387891.2233    733420.6016  -4555176.4964    463372.0090         0.0000         0.0000         0.0000     2.3474     1.7081   6  10   0.7886   0.3844   0.4984  -0.2898  -0.2153   0.4682   0.00    0.0
2016/06/27 00:03:30.000  -4387891.2996    733420.6234  -4555176.4170    458462.4732         0.0000         0.0000         0.0000     2.3447     1.7096   6  10   0.7217   0.3542   0.4362  -0.2619  -0.1947   0.4205   0.00    0.0
2016/06/27 00:04:00.000  -4387891.2965    733420.6588  -4555176.4104    453551.8719         0.0000         0.0000         0.0000     2.3416     1.7110   6  10   0.6646   0.3286   0.3864  -0.2381  -0.1779   0.3809   0.00    0.0
2016/06/27 00:04:30.000  -4387890.8262    733420.7315  -4555176.2729    448641.9563         0.0000         0.0000         0.0000     2.3454     1.7123   6  10   0.6150   0.3065   0.3454  -0.2175  -0.1637   0.3472   0.00    0.0
2016/06/27 00:05:00.000  -4387890.8456    733420.6752  -4555176.2187    443734.7477         0.0000         0.0000         0.0000     2.3469     1.7136   6  10   0.5713   0.2871   0.3111  -0.1994  -0.1515   0.3180   0.00    0.0
2016/06/27 00:05:30.000  -4387890.8504    733420.7967  -4555176.1937    438829.8792         0.0000         0.0000         0.0000     2.3429     1.7147   6  10   0.5325   0.2698   0.2819  -0.1835  -0.1409   0.2925   0.00    0.0
2016/06/27 00:06:00.000  -4387890.8058    733420.7845  -4555176.1696    433921.5265         0.0000         0.0000         0.0000     2.3433     1.7158   6  10   0.4979   0.2543   0.2569  -0.1694  -0.1316   0.2701   0.00    0.0
2016/06/27 00:06:30.000  -4387890.7533    733420.7535  -4555176.1244    429014.0430         0.0000         0.0000         0.0000     2.3460     1.7168   6  10   0.4667   0.2403   0.2353  -0.1568  -0.1235   0.2503   0.00    0.0
2016/06/27 00:07:00.000  -4387890.7002    733420.7939  -4555176.0978    424109.2636         0.0000         0.0000         0.0000     2.3482     1.7177   6  10   0.4385   0.2275   0.2164  -0.1455  -0.1162   0.2327   0.00    0.0
2016/06/27 00:07:30.000  -4387890.7652    733420.7653  -4555176.0929    419203.2233         0.0000         0.0000         0.0000     2.3497     1.7185   6  10   0.4130   0.2159   0.1999  -0.1355  -0.1097   0.2170   0.00    0.0
2016/06/27 00:08:00.000  -4387890.7302    733420.7722  -4555176.0727    414298.5539         0.0000         0.0000         0.0000     2.3515     1.7192   6  10   0.3897   0.2052   0.1854  -0.1264  -0.1039   0.2029   0.00    0.0
2016/06/27 00:08:30.000  -4387890.8473    733420.7618  -4555176.0776    409397.1738         0.0000         0.0000         0.0000     2.3541     1.7198   6  10   0.3685   0.1954   0.1726  -0.1183  -0.0986   0.1902   0.00    0.0
2016/06/27 00:09:00.000  -4387890.8338    733420.7982  -4555176.0723    404496.0434         0.0000         0.0000         0.0000     2.3544     1.7204   6  10   0.3491   0.1863   0.1611  -0.1110  -0.0939   0.1788   0.00    0.0
2016/06/27 00:09:30.000  -4387890.8606    733420.7798  -4555176.0806    399597.9643         0.0000         0.0000         0.0000     2.3492     1.7208   6  10   0.3313   0.1779   0.1509  -0.1044  -0.0896   0.1684   0.00    0.0
2016/06/27 00:10:00.000  -4387890.9204    733420.7896  -4555176.0951    394696.1542         0.0000         0.0000         0.0000     2.3422     1.7212   6  10   0.3149   0.1700   0.1418  -0.0985  -0.0857   0.1590   0.00    0.0
2016/06/27 00:10:30.000  -4387890.9563    733420.7953  -4555176.0908    389786.4118         0.0000         0.0000         0.0000     2.3452     1.7214   6  10   0.2997   0.1628   0.1336  -0.0931  -0.0821   0.1504   0.00    0.0
2016/06/27 00:11:00.000  -4387890.9648    733420.8068  -4555176.0950    384878.9578         0.0000         0.0000         0.0000     2.3447     1.7216   6  10   0.2858   0.1560   0.1262  -0.0882  -0.0787   0.1426   0.00    0.0
2016/06/27 00:11:30.000  -4387890.9449    733420.7950  -4555176.0724    379973.3405         0.0000         0.0000         0.0000     2.3503     1.7217   6  10   0.2728   0.1497   0.1195  -0.0838  -0.0757   0.1354   0.00    0.0
2016/06/27 00:12:00.000  -4387890.9973    733420.7997  -4555176.0883    375063.7612         0.0000         0.0000         0.0000     2.3452     1.7216   6  10   0.2608   0.1437   0.1134  -0.0797  -0.0729   0.1288   0.00    0.0
2016/06/27 00:12:30.000  -4387890.9616    733420.7801  -4555176.0916    370149.3789         0.0000         0.0000         0.0000     2.3434     1.7215   6  10   0.2496   0.1382   0.1078  -0.0761  -0.0703   0.1227   0.00    0.0
2016/06/27 00:13:00.000  -4387890.9387    733420.7898  -4555176.0774    365231.6674         0.0000         0.0000         0.0000     2.3470     1.7213   6  10   0.2392   0.1330   0.1028  -0.0727  -0.0679   0.1171   0.00    0.0
2016/06/27 00:13:30.000  -4387890.9303    733420.7835  -4555176.0737    360318.7583         0.0000         0.0000         0.0000     2.3488     1.7210   6  10   0.2295   0.1281   0.0981  -0.0696  -0.0656   0.1119   0.00    0.0
2016/06/27 00:14:00.000  -4387890.9226    733420.7857  -4555176.0772    355407.7785         0.0000         0.0000         0.0000     2.3529     1.7206   6  10   0.2205   0.1235   0.0938  -0.0668  -0.0635   0.1071   0.00    0.0
2016/06/27 00:14:30.000  -4387890.9301    733420.7679  -4555176.0746    350494.9606         0.0000         0.0000         0.0000     2.3559     1.7201   6  10   0.2121   0.1192   0.0899  -0.0642  -0.0616   0.1026   0.00    0.0
2016/06/27 00:15:00.000  -4387890.9149    733420.7480  -4555176.0614    345580.0007         0.0000         0.0000         0.0000     2.3557     1.7195   6  10   0.2041   0.1151   0.0863  -0.0618  -0.0597   0.0985   0.00    0.0
2016/06/27 00:15:30.000  -4387890.9248    733420.7613  -4555176.0723    340665.3826         0.0000         0.0000         0.0000     2.3548     1.7188   6  10   0.1967   0.1113   0.0829  -0.0596  -0.0580   0.0946   0.00    0.0
2016/06/27 00:16:00.000  -4387890.9255    733420.7629  -4555176.0766    335751.6986         0.0000         0.0000         0.0000     2.3538     1.7180   6  10   0.1897   0.1077   0.0797  -0.0576  -0.0564   0.0910   0.00    0.0
2016/06/27 00:16:30.000  -4387890.9093    733420.7557  -4555176.0606    330834.0577         0.0000         0.0000         0.0000     2.3532     1.7171   6  10   0.1832   0.1042   0.0769  -0.0557  -0.0548   0.0876   0.00    0.0
2016/06/27 00:17:00.000  -4387890.9286    733420.7531  -4555176.0605    325916.0656         0.0000         0.0000         0.0000     2.3544     1.7161   6  10   0.1770   0.1010   0.0742  -0.0539  -0.0534   0.0844   0.00    0.0
2016/06/27 00:17:30.000  -4387890.9277    733420.7374  -4555176.0529    321000.4733         0.0000         0.0000         0.0000     2.3567     1.7151   6  10   0.1712   0.0979   0.0717  -0.0524  -0.0520   0.0815   0.00    0.0
2016/06/27 00:18:00.000  -4387890.9206    733420.7379  -4555176.0598    316086.4738         0.0000         0.0000         0.0000     2.3572     1.7139   6  10   0.1657   0.0950   0.0694  -0.0507  -0.0508   0.0787   0.00    0.0
2016/06/27 00:18:30.000  -4387890.9141    733420.7411  -4555176.0597    311170.9958         0.0000         0.0000         0.0000     2.3586     1.7127   6  10   0.1605   0.0923   0.0672  -0.0494  -0.0496   0.0760   0.00    0.0
2016/06/27 00:19:00.000  -4387890.9289    733420.7481  -4555176.0648    306257.3034         0.0000         0.0000         0.0000     2.3570     1.7113   6  10   0.1556   0.0896   0.0652  -0.0479  -0.0483   0.0736   0.00    0.0
2016/06/27 00:19:30.000  -4387890.9290    733420.7491  -4555176.0611    301341.8805         0.0000         0.0000         0.0000     2.3568     1.7099   6  10   0.1509   0.0872   0.0632  -0.0468  -0.0472   0.0712   0.00    0.0
2016/06/27 00:20:00.000  -4387890.9312    733420.7482  -4555176.0548    296428.0628         0.0000         0.0000         0.0000     2.3564     1.7084   6  10   0.1466   0.0848   0.0615  -0.0455  -0.0462   0.0691   0.00    0.0
2016/06/27 00:20:30.000  -4387890.9457    733420.7550  -4555176.0709    291512.4917         0.0000         0.0000         0.0000     2.3563     1.7068   6  10   0.1424   0.0825   0.0598  -0.0444  -0.0453   0.0670   0.00    0.0
2016/06/27 00:21:00.000  -4387890.9452    733420.7600  -4555176.0714    286600.4199         0.0000         0.0000         0.0000     2.3559     1.7051   6  10   0.1384   0.0804   0.0582  -0.0434  -0.0442   0.0650   0.00    0.0
2016/06/27 00:21:30.000  -4387890.9385    733420.7609  -4555176.0623    281687.4925         0.0000         0.0000         0.0000     2.3556     1.7033   6  10   0.1347   0.0784   0.0567  -0.0424  -0.0434   0.0632   0.00    0.0
2016/06/27 00:22:00.000  -4387890.9504    733420.7634  -4555176.0713    276776.4709         0.0000         0.0000         0.0000     2.3537     1.7014   6  10   0.1311   0.0765   0.0554  -0.0414  -0.0425   0.0614   0.00    0.0
2016/06/27 00:22:30.000  -4387890.9486    733420.7617  -4555176.0673    271864.5944         0.0000         0.0000         0.0000     2.3542     1.6995   6  10   0.1277   0.0746   0.0540  -0.0406  -0.0417   0.0597   0.00    0.0
2016/06/27 00:23:00.000  -4387890.9511    733420.7634  -4555176.0706    266951.4988         0.0000         0.0000         0.0000     2.3529     1.6974   6  10   0.1245   0.0728   0.0528  -0.0397  -0.0409   0.0582   0.00    0.0
2016/06/27 00:23:30.000  -4387890.9598    733420.7672  -4555176.0710    262039.3036         0.0000         0.0000         0.0000     2.3529     1.6953   6  10   0.1215   0.0711   0.0516  -0.0389  -0.0401   0.0567   0.00    0.0
2016/06/27 00:24:00.000  -4387890.9650    733420.7700  -4555176.0671    257124.7074         0.0000         0.0000         0.0000     2.3528     1.6931   6  10   0.1185   0.0695   0.0505  -0.0381  -0.0393   0.0553   0.00    0.0
2016/06/27 00:24:30.000  -4387890.9731    733420.7671  -4555176.0687    252209.9903         0.0000         0.0000         0.0000     2.3534     1.6909   6  10   0.1157   0.0679   0.0494  -0.0375  -0.0387   0.0539   0.00    0.0
2016/06/27 00:25:00.000  -4387890.9811    733420.7627  -4555176.0776    247297.1262         0.0000         0.0000         0.0000     2.3535     1.9772   6   9   0.1134   0.0667   0.0485  -0.0360  -0.0382   0.0523   0.00    0.0
2016/06/27 00:25:30.000  -4387890.9787    733420.7606  -4555176.0785    242385.8908         0.0000         0.0000         0.0000     2.3538     1.9748   6   9   0.1121   0.0653   0.0480  -0.0352  -0.0375   0.0521   0.00    0.0
2016/06/27 00:26:00.000  -4387890.9762    733420.7667  -4555176.0759    237473.4117         0.0000         0.0000         0.0000     2.3536     1.9722   6   9   0.1108   0.0639   0.0474  -0.0344  -0.0369   0.0517   0.00    0.0
2016/06/27 00:26:30.000  -4387890.9652    733420.7583  -4555176.0696    232561.4838         0.0000         0.0000         0.0000     2.3536     1.9695   6   9   0.1096   0.0627   0.0469  -0.0337  -0.0362   0.0514   0.00    0.0
2016/06/27 00:27:00.000  -4387890.9755    733420.7606  -4555176.0717    227651.1246         0.0000         0.0000         0.0000     2.3540     1.9666   6   9   0.1084   0.0613   0.0463  -0.0331  -0.0356   0.0512   0.00    0.0
2016/06/27 00:27:30.000  -4387890.9881    733420.7715  -4555176.0915    222745.3869         0.0000         0.0000         0.0000     2.3542     1.9636   6   9   0.1073   0.0601   0.0460  -0.0326  -0.0350   0.0510   0.00    0.0
2016/06/27 00:28:00.000  -4387890.9776    733420.7648  -4555176.0758    217835.8711         0.0000         0.0000         0.0000     2.3539     1.9604   6   9   0.1063   0.0589   0.0455  -0.0320  -0.0344   0.0508   0.00    0.0
2016/06/27 00:28:30.000  -4387890.9838    733420.7725  -4555176.0806    212924.9468         0.0000         0.0000         0.0000     2.3541     1.9571   6   9   0.1053   0.0578   0.0450  -0.0317  -0.0340   0.0505   0.00    0.0
2016/06/27 00:29:00.000  -4387890.9835    733420.7684  -4555176.0734    208015.9375         0.0000         0.0000         0.0000     2.3543     1.9536   6   9   0.1044   0.0568   0.0447  -0.0314  -0.0335   0.0504   0.00    0.0
2016/06/27 00:29:30.000  -4387890.9747    733420.7743  -4555176.0812    203109.7408         0.0000         0.0000         0.0000     2.3541     1.9501   6   9   0.1035   0.0557   0.0443  -0.0310  -0.0330   0.0504   0.00    0.0
2016/06/27 00:30:00.000  -4387890.9711    733420.7805  -4555176.0840    198199.4237         0.0000         0.0000         0.0000     2.3540     1.9463   6   9   0.1027   0.0547   0.0440  -0.0307  -0.0326   0.0502   0.00    0.0
2016/06/27 00:30:30.000  -4387890.9563    733420.7736  -4555176.0663    193287.2282         0.0000         0.0000         0.0000     2.3541     1.9425   6   9   0.1019   0.0537   0.0437  -0.0306  -0.0322   0.0500   0.00    0.0
2016/06/27 00:31:00.000  -4387890.9649    733420.7823  -4555176.0795    188379.4146         0.0000         0.0000         0.0000     2.3544     1.9385   6   9   0.1011   0.0528   0.0434  -0.0304  -0.0318   0.0499   0.00    0.0
2016/06/27 00:31:30.000  -4387890.9623    733420.7829  -4555176.0789    183472.1680         0.0000         0.0000         0.0000     2.3544     1.9344   6   9   0.1004   0.0519   0.0432  -0.0302  -0.0315   0.0498   0.00    0.0
2016/06/27 00:32:00.000  -4387890.9660    733420.7783  -4555176.0819    178565.0910         0.0000         0.0000         0.0000     2.3546     1.9302   6   9   0.0996   0.0510   0.0429  -0.0304  -0.0312   0.0496   0.00    0.0
2016/06/27 00:32:30.000  -4387890.9656    733420.7797  -4555176.0820    173657.4984         0.0000         0.0000         0.0000     2.3549     1.9258   6   9   0.0990   0.0502   0.0426  -0.0302  -0.0309   0.0496   0.00    0.0
2016/06/27 00:33:00.000  -4387890.9543    733420.7798  -4555176.0775    168748.7016         0.0000         0.0000         0.0000     2.3551     1.9214   6   9   0.0983   0.0494   0.0425  -0.0302  -0.0306   0.0496   0.00    0.0
2016/06/27 00:33:30.000  -4387890.9659    733420.7847  -4555176.0805    163838.0650         0.0000         0.0000         0.0000     2.3553     1.9168   6   9   0.0976   0.0487   0.0421  -0.0304  -0.0303   0.0494   0.00    0.0
2016/06/27 00:34:00.000  -4387890.9699    733420.7852  -4555176.0757    158928.2938         0.0000         0.0000         0.0000     2.3553     1.9122   6   9   0.0970   0.0479   0.0420  -0.0304  -0.0302   0.0493   0.00    0.0
2016/06/27 00:34:30.000  -4387890.9775    733420.7831  -4555176.0766    154021.5892         0.0000         0.0000         0.0000     2.3557     1.9074   6   9   0.0964   0.0472   0.0417  -0.0305  -0.0298   0.0492   0.00    0.0
2016/06/27 00:35:00.000  -4387890.9791    733420.7877  -4555176.0787    149118.9613         0.0000         0.0000         0.0000     2.3561     1.9026   6   9   0.0958   0.0465   0.0416  -0.0306  -0.0297   0.0492   0.00    0.0
2016/06/27 00:35:30.000  -4387890.9643    733420.7792  -4555176.0684    144211.5763         0.0000         0.0000         0.0000     2.3560     1.8976   6   9   0.0952   0.0458   0.0415  -0.0307  -0.0295   0.0492   0.00    0.0
2016/06/27 00:36:00.000  -4387890.9845    733420.7839  -4555176.0694    139302.5633         0.0000         0.0000         0.0000     2.3560     1.8926   6   9   0.0946   0.0453   0.0413  -0.0311  -0.0294   0.0490   0.00    0.0
2016/06/27 00:36:30.000  -4387890.9606    733420.7819  -4555176.0696    134393.3420         0.0000         0.0000         0.0000     2.3561     1.8875   6   9   0.0941   0.0446   0.0411  -0.0310  -0.0292   0.0490   0.00    0.0
2016/06/27 00:37:00.000  -4387890.9599    733420.7826  -4555176.0661    129482.6247         0.0000         0.0000         0.0000     2.3563     1.8823   6   9   0.0936   0.0441   0.0410  -0.0314  -0.0290   0.0489   0.00    0.0
2016/06/27 00:37:30.000  -4387890.9651    733420.7854  -4555176.0759    124570.1524         0.0000         0.0000         0.0000     2.3561     1.8771   6   9   0.0930   0.0435   0.0410  -0.0317  -0.0290   0.0489   0.00    0.0
2016/06/27 00:38:00.000  -4387890.9554    733420.7826  -4555176.0636    119659.8509         0.0000         0.0000         0.0000     2.3561     1.8717   6   9   0.0924   0.0430   0.0407  -0.0318  -0.0290   0.0487   0.00    0.0
2016/06/27 00:38:30.000  -4387890.9752    733420.7861  -4555176.0698    114746.8029         0.0000         0.0000         0.0000     2.3564     1.8664   6   9   0.0919   0.0425   0.0405  -0.0320  -0.0289   0.0486   0.00    0.0
2016/06/27 00:39:00.000  -4387890.9615    733420.7920  -4555176.0648    109833.7097         0.0000         0.0000         0.0000     2.3562     1.8609   6   9   0.0913   0.0419   0.0405  -0.0323  -0.0287   0.0486   0.00    0.0
2016/06/27 00:39:30.000  -4387890.9417    733420.7852  -4555176.0579    104921.7457         0.0000         0.0000         0.0000     2.3562     1.8554   6   9   0.0908   0.0416   0.0403  -0.0324  -0.0287   0.0485   0.00    0.0
2016/06/27 00:40:00.000  -4387890.9542    733420.7829  -4555176.0592    100010.5636         0.0000         0.0000         0.0000     2.3559     1.8498   6   9   0.0903   0.0411   0.0402  -0.0327  -0.0287   0.0483   0.00    0.0
2016/06/27 00:40:30.000  -4387890.9439    733420.7779  -4555176.0560     95099.4003         0.0000         0.0000         0.0000     2.3562     1.8442   6   9   0.0897   0.0406   0.0401  -0.0330  -0.0286   0.0482   0.00    0.0
2016/06/27 00:41:00.000  -4387890.9447    733420.7829  -4555176.0595     90189.6626         0.0000         0.0000         0.0000     2.3564     1.8386   6   9   0.0892   0.0402   0.0400  -0.0333  -0.0285   0.0481   0.00    0.0
2016/06/27 00:41:30.000  -4387890.9377    733420.7774  -4555176.0568     85286.9630         0.0000         0.0000         0.0000     2.3563     1.8329   6   9   0.0886   0.0398   0.0399  -0.0335  -0.0286   0.0481   0.00    0.0
2016/06/27 00:42:00.000  -4387890.9480    733420.7761  -4555176.0566     80381.9410         0.0000         0.0000         0.0000     2.3565     1.8271   6   9   0.0881   0.0396   0.0398  -0.0337  -0.0285   0.0479   0.00    0.0
2016/06/27 00:42:30.000  -4387890.9421    733420.7768  -4555176.0566     75478.7728         0.0000         0.0000         0.0000     2.3567     1.8214   6   9   0.0876   0.0392   0.0397  -0.0339  -0.0285   0.0478   0.00    0.0
2016/06/27 00:43:00.000  -4387890.9454    733420.7759  -4555176.0568     70576.0746         0.0000         0.0000         0.0000     2.3567     1.8156   6   9   0.0870   0.0389   0.0397  -0.0342  -0.0284   0.0476   0.00    0.0
2016/06/27 00:43:30.000  -4387890.9350    733420.7801  -4555176.0609     65672.5414         0.0000         0.0000         0.0000     2.3564     1.8098   6   9   0.0865   0.0386   0.0396  -0.0343  -0.0284   0.0475   0.00    0.0
2016/06/27 00:44:00.000  -4387890.9454    733420.7831  -4555176.0636     60770.6908         0.0000         0.0000         0.0000     2.3569     1.8039   6   9   0.0860   0.0383   0.0395  -0.0347  -0.0285   0.0473   0.00    0.0
2016/06/27 00:44:30.000  -4387890.9360    733420.7796  -4555176.0631     55869.2597         0.0000         0.0000         0.0000     2.3567     1.7981   6   9   0.0854   0.0381   0.0394  -0.0348  -0.0285   0.0472   0.00    0.0
2016/06/27 00:45:00.000  -4387890.9265    733420.7809  -4555176.0581     50969.1111         0.0000         0.0000         0.0000     2.3568     1.7922   6   9   0.0848   0.0378   0.0392  -0.0350  -0.0284   0.0470   0.00    0.0
2016/06/27 00:45:30.000  -4387890.9193    733420.7819  -4555176.0556     46064.6611         0.0000         0.0000         0.0000     2.3565     1.7863   6   9   0.0842   0.0375   0.0392  -0.0351  -0.0285   0.0469   0.00    0.0
2016/06/27 00:46:00.000  -4387890.9311    733420.7866  -4555176.0633     41163.2682         0.0000         0.0000         0.0000     2.3565     1.7804   6   9   0.0837   0.0373   0.0390  -0.0354  -0.0283   0.0466   0.00    0.0
2016/06/27 00:46:30.000  -4387890.9230    733420.7875  -4555176.0699     36259.7014         0.0000         0.0000         0.0000     2.3565     1.7745   6   9   0.0831   0.0372   0.0390  -0.0355  -0.0284   0.0465   0.00    0.0
2016/06/27 00:47:00.000  -4387890.9152    733420.7874  -4555176.0615     31361.9838         0.0000         0.0000         0.0000     2.3565     1.7686   6   9   0.0825   0.0369   0.0388  -0.0357  -0.0284   0.0462   0.00    0.0
2016/06/27 00:47:30.000  -4387890.9319    733420.7837  -4555176.0661     26461.0475         0.0000         0.0000         0.0000     2.3562     1.7627   6   9   0.0819   0.0367   0.0388  -0.0357  -0.0284   0.0460   0.00    0.0
2016/06/27 00:48:00.000  -4387890.9230    733420.7886  -4555176.0641     21559.0758         0.0000         0.0000         0.0000     2.3563     1.7568   6   9   0.0813   0.0364   0.0386  -0.0358  -0.0283   0.0458   0.00    0.0
2016/06/27 00:48:30.000  -4387890.9291    733420.7846  -4555176.0582     16659.9135         0.0000         0.0000         0.0000     2.3559     1.7509   6   9   0.0807   0.0363   0.0385  -0.0360  -0.0284   0.0455   0.00    0.0
2016/06/27 00:49:00.000  -4387890.9209    733420.7892  -4555176.0619     11760.2678         0.0000         0.0000         0.0000     2.3560     1.7450   6   9   0.0800   0.0361   0.0384  -0.0360  -0.0283   0.0453   0.00    0.0
2016/06/27 00:49:30.000  -4387890.9305    733420.7871  -4555176.0593      6860.2358         0.0000         0.0000         0.0000     2.3559     1.7391   6   9   0.0794   0.0359   0.0382  -0.0361  -0.0283   0.0450   0.00    0.0
2016/06/27 00:50:00.000  -4387890.9251    733420.7918  -4555176.0618      1960.0929         0.0000         0.0000         0.0000     2.3558     1.7333   6   9   0.0788   0.0357   0.0381  -0.0361  -0.0282   0.0448   0.00    0.0
2016/06/27 00:50:30.000  -4387890.9242    733420.7917  -4555176.0627     -2938.9841         0.0000         0.0000         0.0000     2.3558     1.7274   6   9   0.0781   0.0357   0.0380  -0.0362  -0.0282   0.0445   0.00    0.0
2016/06/27 00:51:00.000  -4387890.9344    733420.7923  -4555176.0620     -7837.3449         0.0000         0.0000         0.0000     2.3556     1.7216   6   9   0.0776   0.0355   0.0379  -0.0361  -0.0282   0.0442   0.00    0.0
2016/06/27 00:51:30.000  -4387890.9405    733420.7945  -4555176.0630    -12737.6450         0.0000         0.0000         0.0000     2.3555     1.7157   6   9   0.0768   0.0353   0.0377  -0.0363  -0.0283   0.0439   0.00    0.0
2016/06/27 00:52:00.000  -4387890.9395    733420.7975  -4555176.0743    -17639.8147         0.0000         0.0000         0.0000     2.3557     1.7100   6   9   0.0762   0.0350   0.0377  -0.0361  -0.0281   0.0436   0.00    0.0
2016/06/27 00:52:30.000  -4387890.9404    733420.7984  -4555176.0713    -22544.0529         0.0000         0.0000         0.0000     2.3557     1.7042   6   9   0.0755   0.0350   0.0375  -0.0362  -0.0281   0.0433   0.00    0.0
2016/06/27 00:53:00.000  -4387890.9378    733420.7940  -4555176.0603    -27444.5036         0.0000         0.0000         0.0000     2.3555     2.1174   6   8   0.0755   0.0354   0.0377  -0.0368  -0.0284   0.0435   0.00    0.0
2016/06/27 00:53:30.000  -4387890.9400    733420.7963  -4555176.0654    -32343.8275         0.0000         0.0000         0.0000     2.3555     2.1092   6   8   0.0750   0.0351   0.0375  -0.0367  -0.0283   0.0433   0.00    0.0
2016/06/27 00:54:00.000  -4387890.9499    733420.7997  -4555176.0696    -37247.5060         0.0000         0.0000         0.0000     2.3553     2.1011   6   8   0.0746   0.0350   0.0376  -0.0366  -0.0281   0.0432   0.00    0.0
2016/06/27 00:54:30.000  -4387890.9242    733420.7975  -4555176.0609    -42151.2817         0.0000         0.0000         0.0000     2.3552     2.0929   6   8   0.0741   0.0348   0.0375  -0.0364  -0.0281   0.0430   0.00    0.0
2016/06/27 00:55:00.000  -4387890.9425    733420.7972  -4555176.0656    -47052.1205         0.0000         0.0000         0.0000     2.3550     2.0849   6   8   0.0736   0.0346   0.0374  -0.0364  -0.0279   0.0428   0.00    0.0
2016/06/27 00:55:30.000  -4387890.9344    733420.7991  -4555176.0701    -51952.2877         0.0000         0.0000         0.0000     2.3549     2.0768   6   8   0.0732   0.0345   0.0375  -0.0362  -0.0279   0.0427   0.00    0.0
2016/06/27 00:56:00.000  -4387890.9507    733420.8014  -4555176.0824    -56851.3331         0.0000         0.0000         0.0000     2.3552     2.0688   6   8   0.0728   0.0342   0.0374  -0.0360  -0.0277   0.0425   0.00    0.0
2016/06/27 00:56:30.000  -4387890.9292    733420.7964  -4555176.0693    -61756.0571         0.0000         0.0000         0.0000     2.3550     2.0609   6   8   0.0724   0.0342   0.0374  -0.0359  -0.0277   0.0423   0.00    0.0
2016/06/27 00:57:00.000  -4387890.9309    733420.8050  -4555176.0746    -66659.1090         0.0000         0.0000         0.0000     2.3547     2.0529   6   8   0.0719   0.0339   0.0373  -0.0356  -0.0276   0.0421   0.00    0.0
2016/06/27 00:57:30.000  -4387890.9335    733420.8002  -4555176.0742    -71561.7282         0.0000         0.0000         0.0000     2.3545     2.0451   6   8   0.0714   0.0339   0.0373  -0.0357  -0.0276   0.0419   0.00    0.0
2016/06/27 00:58:00.000  -4387890.9551    733420.8008  -4555176.0722    -76465.5213         0.0000         0.0000         0.0000     2.3542     2.0373   6   8   0.0710   0.0337   0.0372  -0.0355  -0.0273   0.0417   0.00    0.0
2016/06/27 00:58:30.000  -4387890.9458    733420.8065  -4555176.0782    -81369.0864         0.0000         0.0000         0.0000     2.3540     2.0295   6   8   0.0706   0.0336   0.0372  -0.0354  -0.0273   0.0416   0.00    0.0
2016/06/27 00:59:00.000  -4387890.9575    733420.8057  -4555176.0768    -86269.7242         0.0000         0.0000         0.0000     2.3538     2.0218   6   8   0.0702   0.0334   0.0372  -0.0352  -0.0272   0.0415   0.00    0.0
2016/06/27 00:59:30.000  -4387890.9519    733420.8080  -4555176.0776    -91170.4197         0.0000         0.0000         0.0000     2.3537     2.0142   6   8   0.0697   0.0334   0.0372  -0.0351  -0.0271   0.0413   0.00    0.0
2016/06/27 01:00:00.000  -4387890.9497    733420.8071  -4555176.0728    -96077.5633         0.0000         0.0000         0.0000     2.3534     2.0066   6   8   0.0693   0.0332   0.0372  -0.0349  -0.0269   0.0411   0.00    0.0
2016/06/27 01:00:30.000  -4387890.9596    733420.8114  -4555176.0814   -100981.8510         0.0000         0.0000         0.0000     2.3530     1.9991   6   8   0.0689   0.0329   0.0373  -0.0347  -0.0269   0.0410   0.00    0.0
2016/06/27 01:01:00.000  -4387890.9691    733420.8093  -4555176.0861   -105884.9721         0.0000         0.0000         0.0000     2.3526     1.9916   6   8   0.0685   0.0328   0.0372  -0.0346  -0.0266   0.0408   0.00    0.0
2016/06/27 01:01:30.000  -4387890.9681    733420.8135  -4555176.0889   -110784.3419         0.0000         0.0000         0.0000     2.3526     1.9842   6   8   0.0681   0.0327   0.0372  -0.0344  -0.0266   0.0407   0.00    0.0
2016/06/27 01:02:00.000  -4387890.9790    733420.8102  -4555176.0802   -115684.4127         0.0000         0.0000         0.0000     2.3523     1.9769   6   8   0.0677   0.0325   0.0372  -0.0342  -0.0266   0.0405   0.00    0.0
2016/06/27 01:02:30.000  -4387890.9851    733420.8135  -4555176.0931   -120584.4228         0.0000         0.0000         0.0000     2.3523     1.9697   6   8   0.0673   0.0325   0.0373  -0.0341  -0.0264   0.0403   0.00    0.0
2016/06/27 01:03:00.000  -4387890.9852    733420.8170  -4555176.0891   -125484.8295         0.0000         0.0000         0.0000     2.3520     1.9625   6   8   0.0669   0.0323   0.0372  -0.0339  -0.0264   0.0401   0.00    0.0
2016/06/27 01:03:30.000  -4387890.9856    733420.8168  -4555176.0838   -130384.5046         0.0000         0.0000         0.0000     2.3519     1.9553   6   8   0.0665   0.0322   0.0373  -0.0338  -0.0263   0.0400   0.00    0.0
2016/06/27 01:04:00.000  -4387890.9717    733420.8211  -4555176.0934   -135284.1460         0.0000         0.0000         0.0000     2.3521     1.9483   6   8   0.0661   0.0320   0.0373  -0.0336  -0.0261   0.0398   0.00    0.0
2016/06/27 01:04:30.000  -4387890.9855    733420.8150  -4555176.0862   -140183.7371         0.0000         0.0000         0.0000     2.3523     1.9413   6   8   0.0657   0.0320   0.0373  -0.0335  -0.0262   0.0396   0.00    0.0
2016/06/27 01:05:00.000  -4387890.9880    733420.8181  -4555176.0931   -145085.5952         0.0000         0.0000         0.0000     2.3524     1.9343   6   8   0.0653   0.0318   0.0372  -0.0333  -0.0261   0.0394   0.00    0.0
2016/06/27 01:05:30.000  -4387890.9853    733420.8160  -4555176.0962   -149990.6749         0.0000         0.0000         0.0000     2.3526     1.9275   6   8   0.0649   0.0317   0.0373  -0.0332  -0.0260   0.0393   0.00    0.0
2016/06/27 01:06:00.000  -4387890.9792    733420.8124  -4555176.0806   -154893.5859         0.0000         0.0000         0.0000     2.3525     1.6537   6   9   0.0646   0.0315   0.0374  -0.0329  -0.0260   0.0392   0.00    0.0
2016/06/27 01:06:30.000  -4387890.9869    733420.8132  -4555176.0848   -159796.6987         0.0000         0.0000         0.0000     2.3525     1.6494   6   9   0.0629   0.0315   0.0373  -0.0329  -0.0259   0.0388   0.00    0.0
2016/06/27 01:07:00.000  -4387890.9857    733420.8155  -4555176.0811   -164698.8458         0.0000         0.0000         0.0000     2.3524     1.6450   6   9   0.0621   0.0314   0.0374  -0.0327  -0.0258   0.0387   0.00    0.0
2016/06/27 01:07:30.000  -4387890.9966    733420.8143  -4555176.0808   -169601.0041         0.0000         0.0000         0.0000     2.3520     1.6407   6   9   0.0614   0.0311   0.0374  -0.0327  -0.0257   0.0384   0.00    0.0
2016/06/27 01:08:00.000  -4387890.9863    733420.8155  -4555176.0860   -174503.3505         0.0000         0.0000         0.0000     2.3522     1.6364   6   9   0.0609   0.0310   0.0374  -0.0324  -0.0256   0.0382   0.00    0.0
2016/06/27 01:08:30.000  -4387890.9909    733420.8134  -4555176.0857   -179403.4619         0.0000         0.0000         0.0000     2.3519     1.6321   6   9   0.0604   0.0310   0.0375  -0.0323  -0.0256   0.0381   0.00    0.0
2016/06/27 01:09:00.000  -4387890.9974    733420.8145  -4555176.0915   -184306.1625         0.0000         0.0000         0.0000     2.3520     1.6279   6   9   0.0599   0.0308   0.0375  -0.0322  -0.0255   0.0378   0.00    0.0
2016/06/27 01:09:30.000  -4387890.9862    733420.8132  -4555176.0831   -189207.8723         0.0000         0.0000         0.0000     2.3520     1.6236   6   9   0.0595   0.0308   0.0376  -0.0320  -0.0253   0.0377   0.00    0.0
2016/06/27 01:10:00.000  -4387890.9970    733420.8148  -4555176.0885   -194110.5396         0.0000         0.0000         0.0000     2.3519     1.6194   6   9   0.0590   0.0306   0.0376  -0.0319  -0.0253   0.0376   0.00    0.0
2016/06/27 01:10:30.000  -4387890.9920    733420.8115  -4555176.0907   -199015.7273         0.0000         0.0000         0.0000     2.3522     1.6152   6   9   0.0586   0.0304   0.0376  -0.0317  -0.0251   0.0373   0.00    0.0
2016/06/27 01:11:00.000  -4387890.9926    733420.8140  -4555176.0908   -203919.2516         0.0000         0.0000         0.0000     2.3522     1.6111   6   9   0.0581   0.0303   0.0376  -0.0316  -0.0251   0.0372   0.00    0.0
2016/06/27 01:11:30.000  -4387890.9979    733420.8087  -4555176.0871   -208823.1287         0.0000         0.0000         0.0000     2.3522     1.6069   6   9   0.0578   0.0303   0.0377  -0.0315  -0.0251   0.0371   0.00    0.0
2016/06/27 01:12:00.000  -4387890.9981    733420.8083  -4555176.0882   -213726.2887         0.0000         0.0000         0.0000     2.3525     1.6028   6   9   0.0574   0.0301   0.0378  -0.0312  -0.0251   0.0370   0.00    0.0
2016/06/27 01:12:30.000  -4387890.9822    733420.8101  -4555176.0837   -218628.1041         0.0000         0.0000         0.0000     2.3524     1.5988   6   9   0.0569   0.0300   0.0378  -0.0312  -0.0248   0.0368   0.00    0.0
2016/06/27 01:13:00.000  -4387890.9888    733420.8130  -4555176.0785   -223530.9838         0.0000         0.0000         0.0000     2.3524     1.5947   6   9   0.0566   0.0299   0.0379  -0.0309  -0.0249   0.0367   0.00    0.0
2016/06/27 01:13:30.000  -4387890.9808    733420.8121  -4555176.0864   -228433.9197         0.0000         0.0000         0.0000     2.3526     1.5907   6   9   0.0562   0.0298   0.0379  -0.0307  -0.0247   0.0364   0.00    0.0
2016/06/27 01:14:00.000  -4387890.9832    733420.8079  -4555176.0876   -233338.0598         0.0000         0.0000         0.0000     2.3526     1.5867   6   9   0.0559   0.0297   0.0380  -0.0306  -0.0247   0.0363   0.00    0.0
2016/06/27 01:14:30.000  -4387890.9689    733420.8050  -4555176.0844   -238241.7573         0.0000         0.0000         0.0000     2.3527     1.5828   6   9   0.0553   0.0296   0.0380  -0.0304  -0.0246   0.0360   0.00    0.0
2016/06/27 01:15:00.000  -4387890.9839    733420.8092  -4555176.0858   -243144.9268         0.0000         0.0000         0.0000     2.3527     1.5789   6   9   0.0550   0.0295   0.0381  -0.0303  -0.0246   0.0360   0.00    0.0
2016/06/27 01:15:30.000  -4387890.9730    733420.8102  -4555176.0907   -248046.5056         0.0000         0.0000         0.0000     2.3526     1.5750   6   9   0.0546   0.0294   0.0381  -0.0302  -0.0244   0.0358   0.00    0.0
2016/06/27 01:16:00.000  -4387890.9854    733420.8079  -4555176.0868   -252950.4443         0.0000         0.0000         0.0000     2.3526     1.5712   6   9   0.0543   0.0292   0.0382  -0.0300  -0.0244   0.0356   0.00    0.0
2016/06/27 01:16:30.000  -4387890.9876    733420.8130  -4555176.0755   -257851.3179         0.0000         0.0000         0.0000     2.3526     1.5674   6   9   0.0539   0.0292   0.0382  -0.0299  -0.0242   0.0354   0.00    0.0
2016/06/27 01:17:00.000  -4387890.9787    733420.8155  -4555176.0868   -262753.4689         0.0000         0.0000         0.0000     2.3525     1.5636   6   9   0.0535   0.0291   0.0383  -0.0297  -0.0242   0.0353   0.00    0.0
2016/06/27 01:17:30.000  -4387890.9835    733420.8134  -4555176.0902   -267656.3916         0.0000         0.0000         0.0000     2.3525     1.5599   6   9   0.0531   0.0289   0.0383  -0.0296  -0.0240   0.0351   0.00    0.0
2016/06/27 01:18:00.000  -4387890.9891    733420.8188  -4555176.0908   -272556.6086         0.0000         0.0000         0.0000     2.3523     1.5562   6   9   0.0527   0.0289   0.0384  -0.0294  -0.0239   0.0350   0.00    0.0
2016/06/27 01:18:30.000  -4387890.9837    733420.8158  -4555176.0895   -277455.9381         0.0000         0.0000         0.0000     2.3520     1.5525   6   9   0.0524   0.0287   0.0383  -0.0292  -0.0239   0.0346   0.00    0.0
2016/06/27 01:19:00.000  -4387890.9842    733420.8194  -4555176.0937   -282352.3606         0.0000         0.0000         0.0000     2.3521     1.5489   6   9   0.0522   0.0287   0.0385  -0.0291  -0.0237   0.0346   0.00    0.0
2016/06/27 01:19:30.000  -4387890.9874    733420.8156  -4555176.0919   -287249.2581         0.0000         0.0000         0.0000     2.3518     1.5453   6   9   0.0517   0.0286   0.0386  -0.0289  -0.0237   0.0345   0.00    0.0
2016/06/27 01:20:00.000  -4387890.9938    733420.8133  -4555176.0904   -292145.0087         0.0000         0.0000         0.0000     2.3517     1.5418   6   9   0.0513   0.0284   0.0386  -0.0288  -0.0237   0.0343   0.00    0.0
2016/06/27 01:20:30.000  -4387890.9990    733420.8180  -4555176.0959   -297040.6147         0.0000         0.0000         0.0000     2.3517     1.5383   6   9   0.0511   0.0284   0.0387  -0.0286  -0.0235   0.0342   0.00    0.0
2016/06/27 01:21:00.000  -4387890.9865    733420.8169  -4555176.0862   -301936.1221         0.0000         0.0000         0.0000     2.3515     1.5348   6   9   0.0507   0.0281   0.0387  -0.0284  -0.0235   0.0339   0.00    0.0
2016/06/27 01:21:30.000  -4387891.0002    733420.8234  -4555176.0874   -306830.3344         0.0000         0.0000         0.0000     2.3515     2.0273   6   8   0.0506   0.0285   0.0449  -0.0280  -0.0252   0.0325   0.00    0.0
2016/06/27 01:22:00.000  -4387890.9803    733420.8226  -4555176.1003   -311723.9214         0.0000         0.0000         0.0000     2.3518     2.0168   6   8   0.0504   0.0284   0.0449  -0.0279  -0.0250   0.0324   0.00    0.0
2016/06/27 01:22:30.000  -4387890.9926    733420.8293  -4555176.1112   -316615.8950         0.0000         0.0000         0.0000     2.3523     2.0063   6   8   0.0502   0.0282   0.0449  -0.0278  -0.0250   0.0324   0.00    0.0
2016/06/27 01:23:00.000  -4387890.9916    733420.8224  -4555176.0974   -321505.9962         0.0000         0.0000         0.0000     2.3525     1.9960   6   8   0.0499   0.0282   0.0449  -0.0278  -0.0249   0.0324   0.00    0.0
2016/06/27 01:23:30.000  -4387890.9884    733420.8191  -4555176.1042   -326394.8670         0.0000         0.0000         0.0000     2.3527     1.9858   6   8   0.0497   0.0281   0.0449  -0.0276  -0.0247   0.0324   0.00    0.0
2016/06/27 01:24:00.000  -4387890.9813    733420.8173  -4555176.1086   -331283.8439         0.0000         0.0000         0.0000     2.3531     1.9757   6   8   0.0496   0.0280   0.0449  -0.0277  -0.0246   0.0323   0.00    0.0
2016/06/27 01:24:30.000  -4387890.9694    733420.8198  -4555176.0930   -336173.7933         0.0000         0.0000         0.0000     2.3531     2.6201   6   7   0.0496   0.0280   0.0502  -0.0277  -0.0245   0.0340   0.00    0.0
2016/06/27 01:25:00.000  -4387890.9767    733420.8190  -4555176.0938   -341064.8966         0.0000         0.0000         0.0000     2.3534     2.6058   6   7   0.0495   0.0278   0.0502  -0.0275  -0.0244   0.0338   0.00    0.0
2016/06/27 01:25:30.000  -4387890.9727    733420.8167  -4555176.0958   -345956.9028         0.0000         0.0000         0.0000     2.3534     2.5914   6   7   0.0493   0.0278   0.0501  -0.0274  -0.0242   0.0338   0.00    0.0
2016/06/27 01:26:00.000  -4387890.9665    733420.8195  -4555176.0897   -350849.9950         0.0000         0.0000         0.0000     2.3535     2.5768   6   7   0.0490   0.0277   0.0501  -0.0274  -0.0241   0.0337   0.00    0.0
2016/06/27 01:26:30.000  -4387890.9716    733420.8192  -4555176.0957   -355741.0848         0.0000         0.0000         0.0000     2.3535     2.5623   6   7   0.0489   0.0277   0.0500  -0.0273  -0.0239   0.0336   0.00    0.0
2016/06/27 01:27:00.000  -4387890.9799    733420.8196  -4555176.0961   -360631.4009         0.0000         0.0000         0.0000     2.3536     2.5477   6   7   0.0487   0.0276   0.0500  -0.0272  -0.0237   0.0336   0.00    0.0
2016/06/27 01:27:30.000  -4387890.9730    733420.8233  -4555176.0869   -365525.5287         0.0000         0.0000         0.0000     2.3536     2.5330   6   7   0.0485   0.0275   0.0500  -0.0272  -0.0236   0.0336   0.00    0.0
2016/06/27 01:28:00.000  -4387890.9769    733420.8175  -4555176.0762   -370416.4189         0.0000         0.0000         0.0000     2.3534     2.5184   6   7   0.0483   0.0275   0.0499  -0.0271  -0.0235   0.0335   0.00    0.0
2016/06/27 01:28:30.000  -4387890.9757    733420.8180  -4555176.0837   -375306.9629         0.0000         0.0000         0.0000     2.3534     2.5037   6   7   0.0482   0.0274   0.0498  -0.0270  -0.0232   0.0333   0.00    0.0
2016/06/27 01:29:00.000  -4387890.9662    733420.8170  -4555176.0779   -380198.0391         0.0000         0.0000         0.0000     2.3536     2.4891   6   7   0.0480   0.0273   0.0498  -0.0269  -0.0230   0.0333   0.00    0.0
2016/06/27 01:29:30.000  -4387890.9776    733420.8179  -4555176.0814   -385091.8439         0.0000         0.0000         0.0000     2.3537     2.4745   6   7   0.0478   0.0271   0.0498  -0.0267  -0.0228   0.0333   0.00    0.0
2016/06/27 01:30:00.000  -4387890.9777    733420.8199  -4555176.0861   -389986.2123         0.0000         0.0000         0.0000     2.3537     2.4599   6   7   0.0477   0.0273   0.0498  -0.0268  -0.0227   0.0333   0.00    0.0
2016/06/27 01:30:30.000  -4387890.9740    733420.8212  -4555176.0924   -394882.9129         0.0000         0.0000         0.0000     2.3538     2.4454   6   7   0.0475   0.0270   0.0497  -0.0266  -0.0225   0.0331   0.00    0.0
2016/06/27 01:31:00.000  -4387890.9773    733420.8213  -4555176.0831   -399782.6122         0.0000         0.0000         0.0000     2.3537     2.4309   6   7   0.0473   0.0272   0.0496  -0.0266  -0.0222   0.0330   0.00    0.0
2016/06/27 01:31:30.000  -4387890.9670    733420.8191  -4555176.0805   -404684.8716         0.0000         0.0000         0.0000     2.3539     2.4165   6   7   0.0471   0.0270   0.0496  -0.0265  -0.0220   0.0329   0.00    0.0
2016/06/27 01:32:00.000  -4387890.9711    733420.8176  -4555176.0853   -409585.9570         0.0000         0.0000         0.0000     2.3538     2.4021   6   7   0.0470   0.0270   0.0495  -0.0264  -0.0220   0.0329   0.00    0.0
2016/06/27 01:32:30.000  -4387890.9769    733420.8175  -4555176.0936   -414487.8347         0.0000         0.0000         0.0000     2.3540     2.3878   6   7   0.0469   0.0269   0.0495  -0.0263  -0.0218   0.0329   0.00    0.0
2016/06/27 01:33:00.000  -4387890.9878    733420.8173  -4555176.0880   -419390.6035         0.0000         0.0000         0.0000     2.3539     2.3737   6   7   0.0467   0.0268   0.0495  -0.0262  -0.0216   0.0329   0.00    0.0
2016/06/27 01:33:30.000  -4387890.9783    733420.8133  -4555176.0763   -424294.4073         0.0000         0.0000         0.0000     2.3540     2.3596   6   7   0.0465   0.0267   0.0494  -0.0261  -0.0214   0.0327   0.00    0.0
2016/06/27 01:34:00.000  -4387890.9784    733420.8156  -4555176.0835   -429198.0736         0.0000         0.0000         0.0000     2.3540     2.3456   6   7   0.0464   0.0267   0.0494  -0.0261  -0.0212   0.0327   0.00    0.0
2016/06/27 01:34:30.000  -4387890.9741    733420.8203  -4555176.0670   -434103.4570         0.0000         0.0000         0.0000     2.3540     2.3317   6   7   0.0462   0.0266   0.0493  -0.0260  -0.0210   0.0326   0.00    0.0
2016/06/27 01:35:00.000  -4387890.9686    733420.8178  -4555176.0780   -439008.3896         0.0000         0.0000         0.0000     2.3538     2.3180   6   7   0.0461   0.0266   0.0493  -0.0260  -0.0209   0.0325   0.00    0.0
2016/06/27 01:35:30.000  -4387890.9735    733420.8187  -4555176.0712   -443921.2464         0.0000         0.0000         0.0000     2.3537     2.3044   6   7   0.0460   0.0266   0.0492  -0.0258  -0.0206   0.0325   0.00    0.0
2016/06/27 01:36:00.000  -4387890.9858    733420.8106  -4555176.0884   -448835.3789         0.0000         0.0000         0.0000     2.3538     2.2908   6   7   0.0458   0.0265   0.0492  -0.0258  -0.0204   0.0324   0.00    0.0
2016/06/27 01:36:30.000  -4387890.9589    733420.8187  -4555176.0715   -453747.6386         0.0000         0.0000         0.0000     2.3541     2.2775   6   7   0.0457   0.0264   0.0492  -0.0257  -0.0202   0.0324   0.00    0.0
2016/06/27 01:37:00.000  -4387890.9705    733420.8175  -4555176.0803   -458657.8046         0.0000         0.0000         0.0000     2.3543     2.2642   6   7   0.0456   0.0264   0.0491  -0.0256  -0.0201   0.0323   0.00    0.0
2016/06/27 01:37:30.000  -4387890.9831    733420.8177  -4555176.0747   -463567.8233         0.0000         0.0000         0.0000     2.3544     2.2511   6   7   0.0454   0.0263   0.0490  -0.0254  -0.0198   0.0322   0.00    0.0
2016/06/27 01:38:00.000  -4387890.9635    733420.8151  -4555176.0845   -468477.5777         0.0000         0.0000         0.0000     2.3550     2.2381   6   7   0.0453   0.0262   0.0489  -0.0255  -0.0197   0.0321   0.00    0.0
2016/06/27 01:38:30.000  -4387890.9779    733420.8137  -4555176.0845   -473388.1481         0.0000         0.0000         0.0000     2.3551     2.2252   6   7   0.0452   0.0264   0.0490  -0.0255  -0.0193   0.0321   0.00    0.0
2016/06/27 01:39:00.000  -4387890.9623    733420.8198  -4555176.0793   -478296.8234         0.0000         0.0000         0.0000     2.3555     2.2125   6   7   0.0450   0.0262   0.0489  -0.0254  -0.0192   0.0320   0.00    0.0
2016/06/27 01:39:30.000  -4387890.9653    733420.8198  -4555176.0674   -483205.8196         0.0000         0.0000         0.0000     2.3557     2.2000   6   7   0.0449   0.0261   0.0489  -0.0252  -0.0189   0.0320   0.00    0.0
2016/06/27 01:40:00.000  -4387890.9557    733420.8156  -4555176.0826   -488115.2546         0.0000         0.0000         0.0000     2.3562     2.1876   6   7   0.0448   0.0261   0.0489  -0.0251  -0.0188   0.0320   0.00    0.0
2016/06/27 01:40:30.000  -4387890.9709    733420.8150  -4555176.0712   -493026.2587         0.0000         0.0000         0.0000     2.3563     2.1753   6   7   0.0447   0.0260   0.0488  -0.0250  -0.0185   0.0318   0.00    0.0
2016/06/27 01:41:00.000  -4387890.9724    733420.8154  -4555176.0741   -497934.9310         0.0000         0.0000         0.0000     2.3563     2.1632   6   7   0.0445   0.0260   0.0488  -0.0250  -0.0183   0.0318   0.00    0.0
2016/06/27 01:41:30.000  -4387890.9735    733420.8182  -4555176.0713    497157.0271         0.0000         0.0000         0.0000     2.3563     2.0653   6   8   0.0444   0.0260   0.0487  -0.0250  -0.0181   0.0316   0.00    0.0
2016/06/27 01:42:00.000  -4387890.9646    733420.8214  -4555176.0852    492248.1146         0.0000         0.0000         0.0000     2.3565     2.0529   6   8   0.0436   0.0259   0.0487  -0.0249  -0.0178   0.0316   0.00    0.0
2016/06/27 01:42:30.000  -4387890.9618    733420.8158  -4555176.0759    487338.4175         0.0000         0.0000         0.0000     2.3566     2.0407   6   8   0.0433   0.0259   0.0487  -0.0250  -0.0176   0.0317   0.00    0.0
2016/06/27 01:43:00.000  -4387890.9572    733420.8127  -4555176.0752    482426.0698         0.0000         0.0000         0.0000     2.3568     2.0286   6   8   0.0430   0.0258   0.0487  -0.0248  -0.0174   0.0316   0.00    0.0
2016/06/27 01:43:30.000  -4387890.9729    733420.8180  -4555176.0741    477513.7187         0.0000         0.0000         0.0000     2.3567     2.0168   6   8   0.0427   0.0258   0.0486  -0.0248  -0.0172   0.0315   0.00    0.0
2016/06/27 01:44:00.000  -4387890.9696    733420.8150  -4555176.0711    472600.3315         0.0000         0.0000         0.0000     2.3570     2.0051   6   8   0.0425   0.0257   0.0485  -0.0248  -0.0168   0.0313   0.00    0.0
2016/06/27 01:44:30.000  -4387890.9623    733420.8183  -4555176.0690    467693.1995         0.0000         0.0000         0.0000     2.3571     1.9935   6   8   0.0424   0.0257   0.0486  -0.0246  -0.0166   0.0313   0.00    0.0
2016/06/27 01:45:00.000  -4387890.9539    733420.8127  -4555176.0788    462785.4846         0.0000         0.0000         0.0000     2.3577     1.9822   6   8   0.0422   0.0257   0.0486  -0.0246  -0.0163   0.0313   0.00    0.0
2016/06/27 01:45:30.000  -4387890.9628    733420.8222  -4555176.0617    457873.9595         0.0000         0.0000         0.0000     2.3577     2.8113   6   7   0.0425   0.0264   0.0551  -0.0238  -0.0102   0.0336   0.00    0.0
2016/06/27 01:46:00.000  -4387890.9646    733420.8195  -4555176.0562    452963.8048         0.0000         0.0000         0.0000     2.3577     2.8029   6   7   0.0423   0.0264   0.0551  -0.0237  -0.0097   0.0335   0.00    0.0
2016/06/27 01:46:30.000  -4387890.9656    733420.8184  -4555176.0595    448054.1882         0.0000         0.0000         0.0000     2.3577     1.5576   6   8   0.0421   0.0263   0.0551  -0.0236  -0.0092   0.0333   0.00    0.0
2016/06/27 01:47:00.000  -4387890.9711    733420.8239  -4555176.0641    443145.3668         0.0000         0.0000         0.0000     2.3577     1.5597   6   8   0.0419   0.0261   0.0473  -0.0239  -0.0133   0.0322   0.00    0.0
2016/06/27 01:47:30.000  -4387890.9602    733420.8267  -4555176.0539    438238.6817         0.0000         0.0000         0.0000     2.3576     1.5617   6   8   0.0418   0.0260   0.0442  -0.0238  -0.0140   0.0317   0.00    0.0
2016/06/27 01:48:00.000  -4387890.9727    733420.8208  -4555176.0658    433335.5124         0.0000         0.0000         0.0000     2.3576     1.5638   6   8   0.0416   0.0258   0.0424  -0.0238  -0.0146   0.0313   0.00    0.0
2016/06/27 01:48:30.000  -4387890.9712    733420.8207  -4555176.0720    428434.3247         0.0000         0.0000         0.0000     2.3577     1.5659   6   8   0.0415   0.0259   0.0415  -0.0239  -0.0152   0.0313   0.00    0.0
2016/06/27 01:49:00.000  -4387890.9645    733420.8181  -4555176.0672    423536.1502         0.0000         0.0000         0.0000     2.3577     1.5679   6   8   0.0414   0.0258   0.0406  -0.0237  -0.0151   0.0311   0.00    0.0
2016/06/27 01:49:30.000  -4387890.9603    733420.8153  -4555176.0702    418643.1947         0.0000         0.0000         0.0000     2.3577     1.5700   6   8   0.0413   0.0258   0.0400  -0.0237  -0.0152   0.0309   0.00    0.0
2016/06/27 01:50:00.000  -4387890.9663    733420.8187  -4555176.0713    413744.2057         0.0000         0.0000         0.0000     2.3577     1.5720   6   8   0.0411   0.0257   0.0396  -0.0236  -0.0153   0.0309   0.00    0.0
2016/06/27 01:50:30.000  -4387890.9615    733420.8168  -4555176.0758    408849.6005         0.0000         0.0000         0.0000     2.3578     1.5740   6   8   0.0411   0.0257   0.0391  -0.0236  -0.0152   0.0307   0.00    0.0
2016/06/27 01:51:00.000  -4387890.9623    733420.8167  -4555176.0724    403956.5306         0.0000         0.0000         0.0000     2.3578     1.5760   6   8   0.0409   0.0257   0.0387  -0.0237  -0.0152   0.0307   0.00    0.0
2016/06/27 01:51:30.000  -4387890.9647    733420.8213  -4555176.0649    399063.7062         0.0000         0.0000         0.0000     2.3578     1.5780   6   8   0.0409   0.0256   0.0384  -0.0236  -0.0152   0.0306   0.00    0.0
2016/06/27 01:52:00.000  -4387890.9679    733420.8239  -4555176.0658    394169.7087         0.0000         0.0000         0.0000     2.3578     1.5800   6   8   0.0408   0.0255   0.0380  -0.0235  -0.0152   0.0305   0.00    0.0
2016/06/27 01:52:30.000  -4387890.9706    733420.8239  -4555176.0708    389277.3432         0.0000         0.0000         0.0000     2.3579     1.5819   6   8   0.0407   0.0256   0.0379  -0.0235  -0.0151   0.0305   0.00    0.0
2016/06/27 01:53:00.000  -4387890.9645    733420.8278  -4555176.0668    384391.8613         0.0000         0.0000         0.0000     2.3578     1.5839   6   8   0.0406   0.0255   0.0377  -0.0235  -0.0152   0.0305   0.00    0.0
2016/06/27 01:53:30.000  -4387890.9704    733420.8272  -4555176.0719    379510.8248         0.0000         0.0000         0.0000     2.3578     1.5858   6   8   0.0405   0.0254   0.0375  -0.0235  -0.0152   0.0305   0.00    0.0
2016/06/27 01:54:00.000  -4387890.9626    733420.8202  -4555176.0679    374629.3179         0.0000         0.0000         0.0000     2.3578     1.5877   6   8   0.0404   0.0255   0.0371  -0.0234  -0.0150   0.0302   0.00    0.0
2016/06/27 01:54:30.000  -4387890.9729    733420.8270  -4555176.0598    369749.1249         0.0000         0.0000         0.0000     2.3578     1.5896   6   8   0.0403   0.0254   0.0371  -0.0234  -0.0152   0.0303   0.00    0.0
2016/06/27 01:55:00.000  -4387890.9667    733420.8283  -4555176.0596    364868.4165         0.0000         0.0000         0.0000     2.3577     1.5915   6   8   0.0403   0.0253   0.0368  -0.0233  -0.0151   0.0302   0.00    0.0
2016/06/27 01:55:30.000  -4387890.9751    733420.8192  -4555176.0600    359987.7585         0.0000         0.0000         0.0000     2.3578     1.5933   6   8   0.0402   0.0254   0.0367  -0.0233  -0.0151   0.0302   0.00    0.0
2016/06/27 01:56:00.000  -4387890.9778    733420.8246  -4555176.0624    355106.8237         0.0000         0.0000         0.0000     2.3580     1.5952   6   8   0.0401   0.0253   0.0365  -0.0232  -0.0151   0.0301   0.00    0.0
2016/06/27 01:56:30.000  -4387890.9689    733420.8257  -4555176.0649    350232.4257         0.0000         0.0000         0.0000     2.3581     1.5970   6   8   0.0401   0.0253   0.0364  -0.0232  -0.0151   0.0301   0.00    0.0
2016/06/27 01:57:00.000  -4387890.9685    733420.8297  -4555176.0774    345359.9901         0.0000         0.0000         0.0000     2.3581     1.5988   6   8   0.0400   0.0253   0.0362  -0.0233  -0.0149   0.0300   0.00    0.0
2016/06/27 01:57:30.000  -4387890.9676    733420.8179  -4555176.0799    340492.4940         0.0000         0.0000         0.0000     2.3582     1.6006   6   8   0.0400   0.0251   0.0360  -0.0231  -0.0150   0.0299   0.00    0.0
2016/06/27 01:58:00.000  -4387890.9816    733420.8263  -4555176.0780    335625.1112         0.0000         0.0000         0.0000     2.3581     1.6023   6   8   0.0399   0.0252   0.0360  -0.0230  -0.0151   0.0300   0.00    0.0
2016/06/27 01:58:30.000  -4387890.9706    733420.8281  -4555176.0674    330763.7521         0.0000         0.0000         0.0000     2.3581     1.6040   6   8   0.0398   0.0252   0.0357  -0.0232  -0.0149   0.0299   0.00    0.0
2016/06/27 01:59:00.000  -4387890.9863    733420.8216  -4555176.0864    325906.3537         0.0000         0.0000         0.0000     2.3582     1.6057   6   8   0.0398   0.0252   0.0357  -0.0233  -0.0148   0.0299   0.00    0.0
2016/06/27 01:59:30.000  -4387890.9785    733420.8320  -4555176.0772    321048.9354         0.0000         0.0000         0.0000     2.3584     1.6074   6   8   0.0398   0.0251   0.0355  -0.0231  -0.0148   0.0298   0.00    0.0
2016/06/27 02:00:00.000  -4387890.9716    733420.8356  -4555176.0671    316195.2927         0.0000         0.0000         0.0000     2.3584     1.6091   6   8   0.0398   0.0252   0.0355  -0.0232  -0.0148   0.0299   0.00    0.0
2016/06/27 02:00:30.000  -4387890.9812    733420.8263  -4555176.0672    311341.0406         0.0000         0.0000         0.0000     2.3585     1.6107   6   8   0.0397   0.0251   0.0353  -0.0231  -0.0148   0.0298   0.00    0.0
2016/06/27 02:01:00.000  -4387890.9739    733420.8289  -4555176.0722    306492.6688         0.0000         0.0000         0.0000     2.3586     1.6123   6   8   0.0396   0.0251   0.0353  -0.0232  -0.0148   0.0298   0.00    0.0
2016/06/27 02:01:30.000  -4387890.9783    733420.8255  -4555176.0809    301639.9772         0.0000         0.0000         0.0000     2.3585     1.6138   6   8   0.0396   0.0251   0.0352  -0.0231  -0.0149   0.0299   0.00    0.0
2016/06/27 02:02:00.000  -4387890.9769    733420.8321  -4555176.0662    296789.3725         0.0000         0.0000         0.0000     2.3585     1.6154   6   8   0.0396   0.0251   0.0352  -0.0231  -0.0148   0.0300   0.00    0.0
2016/06/27 02:02:30.000  -4387890.9706    733420.8205  -4555176.0758    291940.8145         0.0000         0.0000         0.0000     2.3584     1.6169   6   8   0.0396   0.0250   0.0350  -0.0231  -0.0148   0.0299   0.00    0.0
2016/06/27 02:03:00.000  -4387890.9614    733420.8262  -4555176.0747    287093.6726         0.0000         0.0000         0.0000     2.3584     1.6184   6   8   0.0394   0.0251   0.0349  -0.0232  -0.0148   0.0298   0.00    0.0
2016/06/27 02:03:30.000  -4387890.9647    733420.8239  -4555176.0830    282244.1556         0.0000         0.0000         0.0000     2.3584     1.6198   6   8   0.0397   0.0250   0.0348  -0.0232  -0.0148   0.0298   0.00    0.0
2016/06/27 02:04:00.000  -4387890.9769    733420.8270  -4555176.0672    277398.6156         0.0000         0.0000         0.0000     2.3585     1.6212   6   8   0.0395   0.0250   0.0348  -0.0232  -0.0148   0.0298   0.00    0.0
2016/06/27 02:04:30.000  -4387890.9705    733420.8249  -4555176.0693    272551.8123         0.0000         0.0000         0.0000     2.3585     1.5318   6   9   0.0395   0.0250   0.0349  -0.0232  -0.0149   0.0299   0.00    0.0
2016/06/27 02:05:00.000  -4387890.9740    733420.8238  -4555176.0840    267704.8108         0.0000         0.0000         0.0000     2.3582     1.5344   6   9   0.0393   0.0245   0.0345  -0.0226  -0.0144   0.0295   0.00    0.0
2016/06/27 02:05:30.000  -4387890.9650    733420.8346  -4555176.0665    262859.7885         0.0000         0.0000         0.0000     2.3583     1.5369   6   9   0.0391   0.0244   0.0345  -0.0227  -0.0144   0.0297   0.00    0.0
2016/06/27 02:06:00.000  -4387890.9741    733420.8271  -4555176.0719    258016.9850         0.0000         0.0000         0.0000     2.3583     1.5395   6   9   0.0390   0.0242   0.0345  -0.0226  -0.0144   0.0297   0.00    0.0
2016/06/27 02:06:30.000  -4387890.9615    733420.8400  -4555176.0627    253171.8714         0.0000         0.0000         0.0000     2.3586     1.5419   6   9   0.0392   0.0242   0.0344  -0.0223  -0.0143   0.0296   0.00    0.0
2016/06/27 02:07:00.000  -4387890.9556    733420.8404  -4555176.0573    248328.1866         0.0000         0.0000         0.0000     2.3587     1.5443   6   9   0.0391   0.0241   0.0343  -0.0224  -0.0143   0.0296   0.00    0.0
2016/06/27 02:07:30.000  -4387890.9731    733420.8343  -4555176.0654    243487.3117         0.0000         0.0000         0.0000     2.3588     1.5467   6   9   0.0391   0.0241   0.0343  -0.0224  -0.0144   0.0296   0.00    0.0
2016/06/27 02:08:00.000  -4387890.9683    733420.8299  -4555176.0720    238645.7975         0.0000         0.0000         0.0000     2.3590     1.5490   6   9   0.0391   0.0240   0.0343  -0.0223  -0.0143   0.0297   0.00    0.0
2016/06/27 02:08:30.000  -4387890.9668    733420.8278  -4555176.0676    233805.1204         0.0000         0.0000         0.0000     2.3590     1.5513   6   9   0.0390   0.0241   0.0343  -0.0224  -0.0143   0.0297   0.00    0.0
2016/06/27 02:09:00.000  -4387890.9802    733420.8341  -4555176.0765    228965.3690         0.0000         0.0000         0.0000     2.3592     1.5535   6   9   0.0391   0.0239   0.0341  -0.0222  -0.0142   0.0297   0.00    0.0
2016/06/27 02:09:30.000  -4387890.9826    733420.8278  -4555176.0715    224126.9282         0.0000         0.0000         0.0000     2.3595     1.5556   6   9   0.0391   0.0240   0.0342  -0.0223  -0.0144   0.0298   0.00    0.0
2016/06/27 02:10:00.000  -4387890.9747    733420.8269  -4555176.0714    219291.4934         0.0000         0.0000         0.0000     2.3597     1.5577   6   9   0.0391   0.0239   0.0341  -0.0223  -0.0144   0.0297   0.00    0.0
2016/06/27 02:10:30.000  -4387890.9667    733420.8342  -4555176.0604    214454.6603         0.0000         0.0000         0.0000     2.3597     1.5597   6   9   0.0391   0.0238   0.0341  -0.0223  -0.0142   0.0298   0.00    0.0
2016/06/27 02:11:00.000  -4387890.9672    733420.8294  -4555176.0703    209618.3508         0.0000         0.0000         0.0000     2.3599     1.5617   6   9   0.0392   0.0238   0.0340  -0.0222  -0.0142   0.0298   0.00    0.0
