%  GPST                      x-ecef(m)      y-ecef(m)      z-ecef(m)   Q  ns   sdx(m)   sdy(m)   sdz(m)  sdxy(m)  sdyz(m)  sdzx(m) age(s)  ratio
2016/06/27 00:00:00.000   5633710.4048   1732019.1701  -2433986.4196   -402637.3952         0.0000         0.0000         0.0000     1.9826     1.5487   6   9   2.3532   1.3999   2.0021   0.9825  -0.7184  -1.3127   0.00    0.0
2016/06/27 00:00:30.000   5633708.8923   1732018.5739  -2433986.1644   -401599.6566         0.0000         0.0000         0.0000     1.9855     1.5507   6   9   1.6570   0.9890   1.3312   0.6937  -0.5126  -0.9340   0.00    0.0
2016/06/27 00:01:00.000   5633708.6431   1732017.9130  -2433985.7591   -400568.5144         0.0000         0.0000         0.0000     1.9818     1.5529   6   9   1.3362   0.8049   0.9979   0.5587  -0.4196  -0.7590   0.00    0.0
2016/06/27 00:01:30.000   5633708.6751   1732018.1344  -2433985.8472   -399541.9251         0.0000         0.0000         0.0000     1.9751     1.5551   6   9   1.1358   0.6938   0.7879   0.4729  -0.3625  -0.6496   0.00    0.0
2016/06/27 00:02:00.000   5633708.5584   1732017.9832  -2433985.8697   -398523.8001         0.0000         0.0000         0.0000     1.9720     1.5573   6   9   0.9925   0.6170   0.6445   0.4109  -0.3223  -0.5716   0.00    0.0
2016/06/27 00:02:30.000   5633707.9356   1732017.7666  -2433985.7383   -397509.6520         0.0000         0.0000         0.0000     1.9779     1.5597   6   9   0.8823   0.5598   0.5421   0.3631  -0.2921  -0.5117   0.00    0.0
2016/06/27 00:03:00.000   5633708.0497   1732017.8632  -2433985.7006   -396491.3165         0.0000         0.0000         0.0000     1.9760     1.5621   6   9   0.7936   0.5151   0.4663   0.3250  -0.2683  -0.4637   0.00    0.0
2016/06/27 00:03:30.000   5633708.1403   1732017.8056  -2433985.6501   -395482.5187         0.0000         0.0000         0.0000     1.9698     1.5646   6   9   0.7199   0.4789   0.4084   0.2938  -0.2491  -0.4237   0.00    0.0
2016/06/27 00:04:00.000   5633708.3014   1732017.8891  -2433985.6498   -394479.8076         0.0000         0.0000         0.0000     1.9670     1.5671   6   9   0.6574   0.4490   0.3630   0.2679  -0.2331  -0.3895   0.00    0.0
2016/06/27 00:04:30.000   5633708.2148   1732017.7977  -2433985.5744   -393476.0653         0.0000         0.0000         0.0000     1.9820     1.5698   6   9   0.6033   0.4237   0.3264   0.2460  -0.2196  -0.3598   0.00    0.0
2016/06/27 00:05:00.000   5633708.2654   1732017.9452  -2433985.5824   -392469.0721         0.0000         0.0000         0.0000     1.9757     1.5725   6   9   0.5559   0.4020   0.2962   0.2272  -0.2078  -0.3334   0.00    0.0
2016/06/27 00:05:30.000   5633708.3392   1732017.9708  -2433985.6029   -391459.0537         0.0000         0.0000         0.0000     1.9713     1.5753   6   9   0.5139   0.3831   0.2708   0.2108  -0.1974  -0.3098   0.00    0.0
2016/06/27 00:06:00.000   5633708.3792   1732017.9685  -2433985.5655   -390443.8444         0.0000         0.0000         0.0000     1.9689     1.5781   6   9   0.4764   0.3664   0.2491   0.1964  -0.1882  -0.2886   0.00    0.0
2016/06/27 00:06:30.000   5633708.4209   1732018.0502  -2433985.5675   -389428.6600         0.0000         0.0000         0.0000     1.9630     1.5811   6   9   0.4428   0.3516   0.2303   0.1834  -0.1798  -0.2693   0.00    0.0
2016/06/27 00:07:00.000   5633708.5583   1732018.0661  -2433985.5834   -388407.3556         0.0000         0.0000         0.0000     1.9486     1.5841   6   9   0.4126   0.3382   0.2138   0.1719  -0.1722  -0.2518   0.00    0.0
2016/06/27 00:07:30.000   5633708.6146   1732018.0248  -2433985.5791   -387386.2752         0.0000         0.0000         0.0000     1.9460     1.5872   6   9   0.3853   0.3261   0.1993   0.1615  -0.1653  -0.2359   0.00    0.0
2016/06/27 00:08:00.000   5633708.6635   1732018.0551  -2433985.5830   -386361.5400         0.0000         0.0000         0.0000     1.9451     1.5904   6   9   0.3606   0.3150   0.1864   0.1520  -0.1589  -0.2214   0.00    0.0
2016/06/27 00:08:30.000   5633708.6800   1732018.0319  -2433985.5834   -385329.3230         0.0000         0.0000         0.0000     1.9505     1.5936   6   9   0.3381   0.3048   0.1749   0.1434  -0.1530  -0.2082   0.00    0.0
2016/06/27 00:09:00.000   5633708.7258   1732018.0764  -2433985.5932   -384294.2722         0.0000         0.0000         0.0000     1.9439     1.5970   6   9   0.3178   0.2954   0.1646   0.1356  -0.1476  -0.1961   0.00    0.0
2016/06/27 00:09:30.000   5633708.7910   1732018.1266  -2433985.6126   -383255.6596         0.0000         0.0000         0.0000     1.9343     1.6004   6   9   0.2992   0.2867   0.1553   0.1285  -0.1425  -0.1850   0.00    0.0
2016/06/27 00:10:00.000   5633708.8091   1732018.1389  -2433985.6087   -382210.9992         0.0000         0.0000         0.0000     1.9346     1.6039   6   9   0.2823   0.2785   0.1469   0.1220  -0.1378  -0.1749   0.00    0.0
2016/06/27 00:10:30.000   5633708.8234   1732018.1662  -2433985.6206   -381158.8369         0.0000         0.0000         0.0000     1.9282     1.6075   6   9   0.2668   0.2709   0.1393   0.1160  -0.1334  -0.1656   0.00    0.0
2016/06/27 00:11:00.000   5633708.8160   1732018.1915  -2433985.6190   -380099.9886         0.0000         0.0000         0.0000     1.9253     1.6112   6   9   0.2527   0.2638   0.1324   0.1106  -0.1293  -0.1571   0.00    0.0
2016/06/27 00:11:30.000   5633708.8176   1732018.2089  -2433985.6240   -379034.6325         0.0000         0.0000         0.0000     1.9232     1.6150   6   9   0.2397   0.2570   0.1261   0.1056  -0.1255  -0.1493   0.00    0.0
2016/06/27 00:12:00.000   5633708.8343   1732018.2030  -2433985.6289   -377963.9619         0.0000         0.0000         0.0000     1.9234     1.6188   6   9   0.2278   0.2507   0.1203   0.1010  -0.1220  -0.1421   0.00    0.0
2016/06/27 00:12:30.000   5633708.8367   1732018.1888  -2433985.6209   -376886.6184         0.0000         0.0000         0.0000     1.9256     1.6227   6   9   0.2168   0.2446   0.1150   0.0968  -0.1186  -0.1355   0.00    0.0
2016/06/27 00:13:00.000   5633708.8476   1732018.1602  -2433985.6142   -375802.4794         0.0000         0.0000         0.0000     1.9319     1.6268   6   9   0.2066   0.2389   0.1102   0.0930  -0.1154  -0.1294   0.00    0.0
2016/06/27 00:13:30.000   5633708.8444   1732018.1194  -2433985.6098   -374723.9120         0.0000         0.0000         0.0000     1.9368     1.6309   6   9   0.1973   0.2335   0.1056   0.0895  -0.1124  -0.1237   0.00    0.0
2016/06/27 00:14:00.000   5633708.8499   1732018.1099  -2433985.6115   -373651.0625         0.0000         0.0000         0.0000     1.9406     1.6351   6   9   0.1886   0.2283   0.1015   0.0862  -0.1096  -0.1185   0.00    0.0
2016/06/27 00:14:30.000   5633708.8415   1732018.0982  -2433985.6122   -372577.7759         0.0000         0.0000         0.0000     1.9421     1.6393   6   9   0.1806   0.2233   0.0977   0.0832  -0.1069  -0.1136   0.00    0.0
2016/06/27 00:15:00.000   5633708.8471   1732018.1000  -2433985.6234   -371511.1785         0.0000         0.0000         0.0000     1.9380     1.6437   6   9   0.1731   0.2186   0.0941   0.0805  -0.1044  -0.1091   0.00    0.0
2016/06/27 00:15:30.000   5633708.8520   1732018.0890  -2433985.6234   -370446.3940         0.0000         0.0000         0.0000     1.9352     1.6482   6   9   0.1662   0.2140   0.0908   0.0779  -0.1020  -0.1049   0.00    0.0
2016/06/27 00:16:00.000   5633708.8522   1732018.1075  -2433985.6292   -369385.2536         0.0000         0.0000         0.0000     1.9299     1.6527   6   9   0.1597   0.2097   0.0878   0.0756  -0.0997  -0.1010   0.00    0.0
2016/06/27 00:16:30.000   5633708.8454   1732018.0847  -2433985.6206   -368330.3426         0.0000         0.0000         0.0000     1.9292     1.6574   6   9   0.1536   0.2055   0.0849   0.0733  -0.0975  -0.0973   0.00    0.0
2016/06/27 00:17:00.000   5633708.8312   1732018.0635  -2433985.6164   -367274.9468         0.0000         0.0000         0.0000     1.9287     1.6621   6   9   0.1480   0.2014   0.0822   0.0713  -0.0954  -0.0939   0.00    0.0
2016/06/27 00:17:30.000   5633708.8280   1732018.0701  -2433985.6120   -366226.0827         0.0000         0.0000         0.0000     1.9242     1.6670   6   9   0.1428   0.1975   0.0797   0.0695  -0.0934  -0.0908   0.00    0.0
2016/06/27 00:18:00.000   5633708.8257   1732018.0542  -2433985.6079   -365186.1014         0.0000         0.0000         0.0000     1.9234     1.6719   6   9   0.1378   0.1937   0.0774   0.0677  -0.0915  -0.0878   0.00    0.0
2016/06/27 00:18:30.000   5633708.8025   1732018.0570  -2433985.5952   -364154.1370         0.0000         0.0000         0.0000     1.9217     1.6769   6   9   0.1332   0.1901   0.0752   0.0661  -0.0897  -0.0850   0.00    0.0
2016/06/27 00:19:00.000   5633708.7914   1732018.0538  -2433985.5924   -363133.9891         0.0000         0.0000         0.0000     1.9221     1.6820   6   9   0.1289   0.1866   0.0731   0.0646  -0.0879  -0.0823   0.00    0.0
2016/06/27 00:19:30.000   5633708.7708   1732018.0458  -2433985.5829   -362123.5503         0.0000         0.0000         0.0000     1.9236     1.6873   6   9   0.1247   0.1832   0.0711   0.0632  -0.0862  -0.0799   0.00    0.0
2016/06/27 00:20:00.000   5633708.7683   1732018.0443  -2433985.5796   -361112.3091         0.0000         0.0000         0.0000     1.9221     1.6926   6   9   0.1209   0.1799   0.0693   0.0620  -0.0846  -0.0775   0.00    0.0
2016/06/27 00:20:30.000   5633708.7667   1732018.0613  -2433985.5832   -360116.1573         0.0000         0.0000         0.0000     1.9220     1.6980   6   9   0.1173   0.1766   0.0675   0.0607  -0.0830  -0.0753   0.00    0.0
2016/06/27 00:21:00.000   5633708.7599   1732018.0759  -2433985.5783   -359116.3161         0.0000         0.0000         0.0000     1.9220     1.7035   6   9   0.1138   0.1736   0.0659   0.0596  -0.0815  -0.0732   0.00    0.0
2016/06/27 00:21:30.000   5633708.7481   1732018.0843  -2433985.5758   -358126.6014         0.0000         0.0000         0.0000     1.9234     1.7091   6   9   0.1106   0.1705   0.0644   0.0585  -0.0801  -0.0713   0.00    0.0
2016/06/27 00:22:00.000   5633708.7496   1732018.0839  -2433985.5790   -357137.0687         0.0000         0.0000         0.0000     1.9244     1.7148   6   9   0.1076   0.1676   0.0629   0.0575  -0.0786  -0.0695   0.00    0.0
2016/06/27 00:22:30.000   5633708.7546   1732018.0795  -2433985.5765   -356144.0228         0.0000         0.0000         0.0000     1.9273     1.7206   6   9   0.1047   0.1647   0.0615   0.0565  -0.0773  -0.0678   0.00    0.0
2016/06/27 00:23:00.000   5633708.7502   1732018.0832  -2433985.5783   -355154.9832         0.0000         0.0000         0.0000     1.9278     1.7265   6   9   0.1019   0.1619   0.0601   0.0556  -0.0759  -0.0661   0.00    0.0
2016/06/27 00:23:30.000   5633708.7380   1732018.0766  -2433985.5723   -354158.4435         0.0000         0.0000         0.0000     1.9290     1.7324   6   9   0.0993   0.1592   0.0589   0.0548  -0.0747  -0.0645   0.00    0.0
2016/06/27 00:24:00.000   5633708.7399   1732018.0760  -2433985.5646   -353162.8582         0.0000         0.0000         0.0000     1.9303     1.7385   6   9   0.0969   0.1566   0.0577   0.0540  -0.0734  -0.0631   0.00    0.0
2016/06/27 00:24:30.000   5633708.7543   1732018.0802  -2433985.5739   -352163.2598         0.0000         0.0000         0.0000     1.9308     1.7447   6   9   0.0945   0.1540   0.0566   0.0532  -0.0722  -0.0617   0.00    0.0
2016/06/27 00:25:00.000   5633708.7551   1732018.0811  -2433985.5788   -351163.8490         0.0000         0.0000         0.0000     1.9301     1.4860   6  10   0.0923   0.1514   0.0554   0.0525  -0.0710  -0.0603   0.00    0.0
2016/06/27 00:25:30.000   5633708.7595   1732018.0783  -2433985.5811   -350156.6971         0.0000         0.0000         0.0000     1.9307     1.4887   6  10   0.0900   0.1487   0.0541   0.0513  -0.0695  -0.0587   0.00    0.0
2016/06/27 00:26:00.000   5633708.7559   1732018.0790  -2433985.5728   -349138.7421         0.0000         0.0000         0.0000     1.9301     1.4915   6  10   0.0880   0.1461   0.0530   0.0504  -0.0683  -0.0573   0.00    0.0
2016/06/27 00:26:30.000   5633708.7653   1732018.1021  -2433985.5777   -348117.9526         0.0000         0.0000         0.0000     1.9281     1.4943   6  10   0.0860   0.1436   0.0519   0.0496  -0.0670  -0.0561   0.00    0.0
2016/06/27 00:27:00.000   5633708.7828   1732018.0794  -2433985.5804   -347096.2762         0.0000         0.0000         0.0000     1.9293     1.4972   6  10   0.0841   0.1411   0.0509   0.0488  -0.0658  -0.0549   0.00    0.0
2016/06/27 00:27:30.000   5633708.7826   1732018.0761  -2433985.5769   -346067.4369         0.0000         0.0000         0.0000     1.9302     1.5002   6  10   0.0822   0.1386   0.0499   0.0478  -0.0645  -0.0537   0.00    0.0
2016/06/27 00:28:00.000   5633708.7848   1732018.0844  -2433985.5810   -345032.3085         0.0000         0.0000         0.0000     1.9282     1.5032   6  10   0.0804   0.1362   0.0490   0.0471  -0.0633  -0.0526   0.00    0.0
2016/06/27 00:28:30.000   5633708.7877   1732018.0861  -2433985.5791   -343991.2523         0.0000         0.0000         0.0000     1.9270     1.5062   6  10   0.0788   0.1338   0.0480   0.0462  -0.0621  -0.0516   0.00    0.0
2016/06/27 00:29:00.000   5633708.7961   1732018.0790  -2433985.5872   -342937.1308         0.0000         0.0000         0.0000     1.9260     1.5093   6  10   0.0772   0.1314   0.0472   0.0454  -0.0610  -0.0506   0.00    0.0
2016/06/27 00:29:30.000   5633708.8016   1732018.0758  -2433985.5899   -341879.2377         0.0000         0.0000         0.0000     1.9252     1.5124   6  10   0.0757   0.1290   0.0463   0.0446  -0.0598  -0.0496   0.00    0.0
2016/06/27 00:30:00.000   5633708.8080   1732018.0887  -2433985.5945   -340819.9388         0.0000         0.0000         0.0000     1.9236     1.5156   6  10   0.0743   0.1267   0.0454   0.0438  -0.0586  -0.0486   0.00    0.0
2016/06/27 00:30:30.000   5633708.8215   1732018.1064  -2433985.5997   -339746.7678         0.0000         0.0000         0.0000     1.9226     1.5189   6  10   0.0729   0.1243   0.0446   0.0429  -0.0575  -0.0477   0.00    0.0
2016/06/27 00:31:00.000   5633708.8203   1732018.1024  -2433985.5975   -338665.5368         0.0000         0.0000         0.0000     1.9230     1.5221   6  10   0.0716   0.1220   0.0439   0.0422  -0.0563  -0.0469   0.00    0.0
2016/06/27 00:31:30.000   5633708.8211   1732018.0880  -2433985.5946   -337583.3757         0.0000         0.0000         0.0000     1.9237     1.5255   6  10   0.0703   0.1197   0.0431   0.0413  -0.0552  -0.0460   0.00    0.0
2016/06/27 00:32:00.000   5633708.8255   1732018.0949  -2433985.5967   -336508.0636         0.0000         0.0000         0.0000     1.9234     1.5289   6  10   0.0691   0.1174   0.0424   0.0405  -0.0541  -0.0452   0.00    0.0
2016/06/27 00:32:30.000   5633708.8276   1732018.1021  -2433985.5984   -335427.7924         0.0000         0.0000         0.0000     1.9235     1.5323   6  10   0.0678   0.1152   0.0416   0.0396  -0.0530  -0.0443   0.00    0.0
2016/06/27 00:33:00.000   5633708.8259   1732018.1069  -2433985.5993   -334353.4491         0.0000         0.0000         0.0000     1.9231     1.5358   6  10   0.0667   0.1130   0.0409   0.0389  -0.0519  -0.0436   0.00    0.0
2016/06/27 00:33:30.000   5633708.8211   1732018.0964  -2433985.5914   -333280.1557         0.0000         0.0000         0.0000     1.9245     1.5393   6  10   0.0657   0.1108   0.0403   0.0381  -0.0508  -0.0429   0.00    0.0
2016/06/27 00:34:00.000   5633708.8258   1732018.0943  -2433985.5914   -332208.3715         0.0000         0.0000         0.0000     1.9253     1.5429   6  10   0.0646   0.1086   0.0397   0.0373  -0.0498  -0.0422   0.00    0.0
2016/06/27 00:34:30.000   5633708.8274   1732018.0863  -2433985.5910   -331147.3357         0.0000         0.0000         0.0000     1.9266     1.5465   6  10   0.0636   0.1065   0.0390   0.0366  -0.0487  -0.0414   0.00    0.0
2016/06/27 00:35:00.000   5633708.8188   1732018.0708  -2433985.5823   -330092.5916         0.0000         0.0000         0.0000     1.9285     1.5502   6  10   0.0626   0.1044   0.0384   0.0357  -0.0477  -0.0408   0.00    0.0
2016/06/27 00:35:30.000   5633708.8226   1732018.0623  -2433985.5875   -329035.6891         0.0000         0.0000         0.0000     1.9298     1.5539   6  10   0.0618   0.1024   0.0378   0.0350  -0.0467  -0.0402   0.00    0.0
2016/06/27 00:36:00.000   5633708.8204   1732018.0630  -2433985.5862   -327984.6937         0.0000         0.0000         0.0000     1.9303     1.5577   6  10   0.0609   0.1003   0.0372   0.0344  -0.0457  -0.0396   0.00    0.0
2016/06/27 00:36:30.000   5633708.8171   1732018.0496  -2433985.5814   -326934.6332         0.0000         0.0000         0.0000     1.9310     1.5615   6  10   0.0599   0.0983   0.0367   0.0336  -0.0447  -0.0390   0.00    0.0
2016/06/27 00:37:00.000   5633708.8083   1732018.0389  -2433985.5795   -325895.7208         0.0000         0.0000         0.0000     1.9312     1.5653   6  10   0.0592   0.0964   0.0361   0.0329  -0.0437  -0.0384   0.00    0.0
2016/06/27 00:37:30.000   5633708.8199   1732018.0390  -2433985.5804   -324862.8301         0.0000         0.0000         0.0000     1.9323     1.5692   6  10   0.0584   0.0945   0.0356   0.0322  -0.0428  -0.0379   0.00    0.0
2016/06/27 00:38:00.000   5633708.8075   1732018.0383  -2433985.5768   -323840.9440         0.0000         0.0000         0.0000     1.9324     1.5731   6  10   0.0576   0.0926   0.0350   0.0316  -0.0419  -0.0374   0.00    0.0
2016/06/27 00:38:30.000   5633708.7968   1732018.0298  -2433985.5687   -322823.9923         0.0000         0.0000         0.0000     1.9331     1.5771   6  10   0.0568   0.0908   0.0346   0.0310  -0.0410  -0.0368   0.00    0.0
2016/06/27 00:39:00.000   5633708.8030   1732018.0284  -2433985.5677   -321805.6797         0.0000         0.0000         0.0000     1.9334     1.5811   6  10   0.0562   0.0890   0.0341   0.0303  -0.0401  -0.0363   0.00    0.0
2016/06/27 00:39:30.000   5633708.8033   1732018.0271  -2433985.5650   -320794.3703         0.0000         0.0000         0.0000     1.9333     1.5852   6  10   0.0555   0.0872   0.0337   0.0298  -0.0393  -0.0359   0.00    0.0
2016/06/27 00:40:00.000   5633708.8087   1732018.0170  -2433985.5721   -319782.8630         0.0000         0.0000         0.0000     1.9343     1.5893   6  10   0.0549   0.0855   0.0332   0.0292  -0.0385  -0.0354   0.00    0.0
2016/06/27 00:40:30.000   5633708.7988   1732018.0110  -2433985.5675   -318765.8619         0.0000         0.0000         0.0000     1.9349     1.5934   6  10   0.0543   0.0839   0.0329   0.0286  -0.0378  -0.0350   0.00    0.0
2016/06/27 00:41:00.000   5633708.7937   1732018.0123  -2433985.5649   -317743.1215         0.0000         0.0000         0.0000     1.9347     1.5975   6  10   0.0537   0.0822   0.0324   0.0282  -0.0369  -0.0346   0.00    0.0
2016/06/27 00:41:30.000   5633708.7967   1732018.0096  -2433985.5672   -316718.6179         0.0000         0.0000         0.0000     1.9347     1.6017   6  10   0.0531   0.0806   0.0319   0.0275  -0.0361  -0.0342   0.00    0.0
2016/06/27 00:42:00.000   5633708.7894   1732018.0117  -2433985.5668   -315695.8878         0.0000         0.0000         0.0000     1.9345     1.8521   6   9   0.0534   0.0791   0.0318   0.0267  -0.0354  -0.0340   0.00    0.0
2016/06/27 00:42:30.000   5633708.7824   1732018.0108  -2433985.5666   -314669.9333         0.0000         0.0000         0.0000     1.9347     1.8578   6   9   0.0530   0.0778   0.0315   0.0265  -0.0348  -0.0337   0.00    0.0
2016/06/27 00:43:00.000   5633708.7852   1732018.0141  -2433985.5676   -313643.6056         0.0000         0.0000         0.0000     1.9350     1.8636   6   9   0.0526   0.0763   0.0311   0.0261  -0.0341  -0.0334   0.00    0.0
2016/06/27 00:43:30.000   5633708.7875   1732018.0113  -2433985.5590   -312609.9237         0.0000         0.0000         0.0000     1.9348     1.8696   6   9   0.0522   0.0750   0.0307   0.0258  -0.0335  -0.0331   0.00    0.0
2016/06/27 00:44:00.000   5633708.7969   1732018.0164  -2433985.5656   -311571.9486         0.0000         0.0000         0.0000     1.9342     1.8757   6   9   0.0518   0.0736   0.0304   0.0255  -0.0328  -0.0328   0.00    0.0
2016/06/27 00:44:30.000   5633708.7883   1732018.0140  -2433985.5660   -310532.7704         0.0000         0.0000         0.0000     1.9343     1.8819   6   9   0.0514   0.0723   0.0302   0.0253  -0.0323  -0.0326   0.00    0.0
2016/06/27 00:45:00.000   5633708.7753   1732018.0050  -2433985.5618   -309482.6097         0.0000         0.0000         0.0000     1.9348     1.8883   6   9   0.0511   0.0711   0.0300   0.0251  -0.0318  -0.0325   0.00    0.0
2016/06/27 00:45:30.000   5633708.7747   1732018.0040  -2433985.5593   -308421.6187         0.0000         0.0000         0.0000     1.9348     1.8948   6   9   0.0507   0.0699   0.0297   0.0249  -0.0312  -0.0322   0.00    0.0
2016/06/27 00:46:00.000   5633708.7770   1732018.0081  -2433985.5583   -307353.4672         0.0000         0.0000         0.0000     1.9345     1.9014   6   9   0.0504   0.0687   0.0294   0.0245  -0.0306  -0.0319   0.00    0.0
2016/06/27 00:46:30.000   5633708.7745   1732018.0075  -2433985.5637   -306280.9058         0.0000         0.0000         0.0000     1.9345     1.9081   6   9   0.0502   0.0675   0.0291   0.0244  -0.0301  -0.0317   0.00    0.0
2016/06/27 00:47:00.000   5633708.7727   1732018.0163  -2433985.5653   -305200.2337         0.0000         0.0000         0.0000     1.9339     1.9150   6   9   0.0498   0.0664   0.0289   0.0242  -0.0296  -0.0314   0.00    0.0
2016/06/27 00:47:30.000   5633708.7739   1732018.0121  -2433985.5620   -304118.9545         0.0000         0.0000         0.0000     1.9342     1.9220   6   9   0.0495   0.0653   0.0287   0.0241  -0.0292  -0.0314   0.00    0.0
2016/06/27 00:48:00.000   5633708.7816   1732018.0164  -2433985.5650   -303032.6274         0.0000         0.0000         0.0000     1.9344     1.9291   6   9   0.0492   0.0641   0.0284   0.0240  -0.0286  -0.0312   0.00    0.0
2016/06/27 00:48:30.000   5633708.7827   1732018.0182  -2433985.5674   -301936.3986         0.0000         0.0000         0.0000     1.9343     1.9363   6   9   0.0490   0.0631   0.0282   0.0238  -0.0283  -0.0311   0.00    0.0
2016/06/27 00:49:00.000   5633708.7754   1732018.0065  -2433985.5632   -300838.7631         0.0000         0.0000         0.0000     1.9348     1.7830   6  10   0.0487   0.0621   0.0281   0.0236  -0.0278  -0.0310   0.00    0.0
2016/06/27 00:49:30.000   5633708.7844   1732018.0076  -2433985.5680   -299742.5985         0.0000         0.0000         0.0000     1.9350     1.7887   6  10   0.0480   0.0610   0.0271   0.0227  -0.0270  -0.0300   0.00    0.0
2016/06/27 00:50:00.000   5633708.7748   1732018.0067  -2433985.5629   -298648.9467         0.0000         0.0000         0.0000     1.9351     1.7945   6  10   0.0476   0.0600   0.0268   0.0225  -0.0262  -0.0295   0.00    0.0
2016/06/27 00:50:30.000   5633708.7783   1732018.0060  -2433985.5684   -297556.1149         0.0000         0.0000         0.0000     1.9349     1.8004   6  10   0.0473   0.0590   0.0265   0.0220  -0.0259  -0.0294   0.00    0.0
2016/06/27 00:51:00.000   5633708.7664   1732018.0004  -2433985.5624   -296458.1057         0.0000         0.0000         0.0000     1.9352     1.8065   6  10   0.0470   0.0580   0.0262   0.0216  -0.0253  -0.0289   0.00    0.0
2016/06/27 00:51:30.000   5633708.7686   1732018.0085  -2433985.5662   -295372.4623         0.0000         0.0000         0.0000     1.9350     1.8127   6  10   0.0466   0.0570   0.0259   0.0217  -0.0248  -0.0289   0.00    0.0
2016/06/27 00:52:00.000   5633708.7705   1732018.0156  -2433985.5641   -294288.4745         0.0000         0.0000         0.0000     1.9345     1.8190   6  10   0.0465   0.0562   0.0256   0.0217  -0.0244  -0.0287   0.00    0.0
2016/06/27 00:52:30.000   5633708.7787   1732018.0258  -2433985.5629   -293209.3652         0.0000         0.0000         0.0000     1.9340     1.8254   6  10   0.0462   0.0552   0.0254   0.0212  -0.0238  -0.0283   0.00    0.0
2016/06/27 00:53:00.000   5633708.7731   1732018.0165  -2433985.5548   -292143.6350         0.0000         0.0000         0.0000     1.9342     1.8319   6  10   0.0460   0.0544   0.0250   0.0210  -0.0236  -0.0282   0.00    0.0
2016/06/27 00:53:30.000   5633708.7594   1732018.0181  -2433985.5554   -291078.6624         0.0000         0.0000         0.0000     1.9341     1.8385   6  10   0.0459   0.0536   0.0251   0.0208  -0.0231  -0.0281   0.00    0.0
2016/06/27 00:54:00.000   5633708.7773   1732018.0270  -2433985.5687   -290022.6308         0.0000         0.0000         0.0000     1.9340     1.8453   6  10   0.0457   0.0528   0.0248   0.0211  -0.0227  -0.0281   0.00    0.0
2016/06/27 00:54:30.000   5633708.7670   1732018.0181  -2433985.5654   -288967.9430         0.0000         0.0000         0.0000     1.9338     1.8522   6  10   0.0455   0.0519   0.0247   0.0205  -0.0224  -0.0278   0.00    0.0
2016/06/27 00:55:00.000   5633708.7613   1732018.0128  -2433985.5663   -287920.2773         0.0000         0.0000         0.0000     1.9338     1.8592   6  10   0.0454   0.0512   0.0246   0.0207  -0.0220  -0.0278   0.00    0.0
2016/06/27 00:55:30.000   5633708.7673   1732018.0201  -2433985.5658   -286875.0567         0.0000         0.0000         0.0000     1.9336     1.8662   6  10   0.0452   0.0505   0.0243   0.0205  -0.0216  -0.0276   0.00    0.0
2016/06/27 00:56:00.000   5633708.7652   1732018.0185  -2433985.5652   -285837.7053         0.0000         0.0000         0.0000     1.9338     1.8734   6  10   0.0451   0.0497   0.0242   0.0205  -0.0213  -0.0276   0.00    0.0
2016/06/27 00:56:30.000   5633708.7688   1732018.0227  -2433985.5665   -284805.6334         0.0000         0.0000         0.0000     1.9338     1.8808   6  10   0.0450   0.0490   0.0241   0.0204  -0.0210  -0.0274   0.00    0.0
2016/06/27 00:57:00.000   5633708.7556   1732018.0126  -2433985.5531   -283774.4802         0.0000         0.0000         0.0000     1.9342     1.8882   6  10   0.0448   0.0483   0.0238   0.0202  -0.0207  -0.0272   0.00    0.0
2016/06/27 00:57:30.000   5633708.7629   1732018.0119  -2433985.5573   -282744.1238         0.0000         0.0000         0.0000     1.9345     1.8957   6  10   0.0448   0.0477   0.0239   0.0202  -0.0205  -0.0272   0.00    0.0
2016/06/27 00:58:00.000   5633708.7759   1732018.0207  -2433985.5675   -281717.4899         0.0000         0.0000         0.0000     1.9344     1.9034   6  10   0.0447   0.0471   0.0236   0.0202  -0.0202  -0.0271   0.00    0.0
2016/06/27 00:58:30.000   5633708.7753   1732018.0109  -2433985.5706   -280686.9826         0.0000         0.0000         0.0000     1.9345     1.9111   6  10   0.0446   0.0463   0.0235   0.0203  -0.0198  -0.0271   0.00    0.0
2016/06/27 00:59:00.000   5633708.7647   1732018.0049  -2433985.5611   -279654.6340         0.0000         0.0000         0.0000     1.9346     1.9189   6  10   0.0445   0.0458   0.0234   0.0198  -0.0196  -0.0270   0.00    0.0
2016/06/27 00:59:30.000   5633708.7735   1732018.0138  -2433985.5655   -278619.1279         0.0000         0.0000         0.0000     1.9343     1.9269   6  10   0.0444   0.0452   0.0232   0.0201  -0.0195  -0.0268   0.00    0.0
2016/06/27 01:00:00.000   5633708.7721   1732018.0115  -2433985.5578   -277572.5555         0.0000         0.0000         0.0000     1.9344     1.9349   6  10   0.0444   0.0445   0.0232   0.0198  -0.0192  -0.0268   0.00    0.0
2016/06/27 01:00:30.000   5633708.7712   1732018.0008  -2433985.5603   -276515.0303         0.0000         0.0000         0.0000     1.9345     1.9430   6  10   0.0443   0.0441   0.0232   0.0201  -0.0190  -0.0268   0.00    0.0
2016/06/27 01:01:00.000   5633708.7710   1732018.0008  -2433985.5656   -275459.6023         0.0000         0.0000         0.0000     1.9344     1.9513   6  10   0.0443   0.0434   0.0229   0.0199  -0.0186  -0.0269   0.00    0.0
2016/06/27 01:01:30.000   5633708.7747   1732017.9990  -2433985.5646   -274402.3839         0.0000         0.0000         0.0000     1.9345     1.9596   6  10   0.0442   0.0429   0.0228   0.0200  -0.0184  -0.0266   0.00    0.0
2016/06/27 01:02:00.000   5633708.7689   1732017.9967  -2433985.5604   -273334.2034         0.0000         0.0000         0.0000     1.9345     1.9680   6  10   0.0441   0.0424   0.0228   0.0200  -0.0181  -0.0267   0.00    0.0
2016/06/27 01:02:30.000   5633708.7739   1732017.9977  -2433985.5585   -272266.2558         0.0000         0.0000         0.0000     1.9345     1.9765   6  10   0.0440   0.0419   0.0230   0.0200  -0.0182  -0.0267   0.00    0.0
2016/06/27 01:03:00.000   5633708.7606   1732017.9905  -2433985.5524   -271189.9728         0.0000         0.0000         0.0000     1.9348     1.9850   6  10   0.0440   0.0413   0.0227   0.0199  -0.0178  -0.0267   0.00    0.0
2016/06/27 01:03:30.000   5633708.7638   1732017.9908  -2433985.5543   -270113.1345         0.0000         0.0000         0.0000     1.9349     1.9937   6  10   0.0441   0.0409   0.0227   0.0199  -0.0178  -0.0266   0.00    0.0
2016/06/27 01:04:00.000   5633708.7669   1732017.9956  -2433985.5573   -269035.4741         0.0000         0.0000         0.0000     1.9348     2.0024   6  10   0.0441   0.0404   0.0227   0.0199  -0.0175  -0.0266   0.00    0.0
2016/06/27 01:04:30.000   5633708.7723   1732018.0012  -2433985.5588   -267947.5239         0.0000         0.0000         0.0000     1.9346     2.0111   6  10   0.0440   0.0401   0.0227   0.0201  -0.0175  -0.0268   0.00    0.0
2016/06/27 01:05:00.000   5633708.7546   1732017.9916  -2433985.5538   -266854.1696         0.0000         0.0000         0.0000     1.9346     2.0200   6  10   0.0441   0.0396   0.0226   0.0200  -0.0172  -0.0266   0.00    0.0
2016/06/27 01:05:30.000   5633708.7701   1732018.0015  -2433985.5558   -265745.3610         0.0000         0.0000         0.0000     1.9348     2.0289   6  10   0.0440   0.0392   0.0224   0.0202  -0.0170  -0.0265   0.00    0.0
2016/06/27 01:06:00.000   5633708.7827   1732018.0047  -2433985.5610   -264630.7077         0.0000         0.0000         0.0000     1.9347     2.0378   6  10   0.0441   0.0388   0.0223   0.0202  -0.0170  -0.0266   0.00    0.0
2016/06/27 01:06:30.000   5633708.7736   1732018.0040  -2433985.5649   -263511.4473         0.0000         0.0000         0.0000     1.9346     2.0468   6  10   0.0441   0.0384   0.0222   0.0202  -0.0166  -0.0264   0.00    0.0
2016/06/27 01:07:00.000   5633708.7722   1732018.0082  -2433985.5658   -262391.5128         0.0000         0.0000         0.0000     1.9344     2.0558   6  10   0.0440   0.0379   0.0222   0.0204  -0.0167  -0.0266   0.00    0.0
2016/06/27 01:07:30.000   5633708.7770   1732018.0149  -2433985.5670   -261274.2459         0.0000         0.0000         0.0000     1.9341     2.0649   6  10   0.0442   0.0376   0.0221   0.0202  -0.0166  -0.0266   0.00    0.0
2016/06/27 01:08:00.000   5633708.7603   1732018.0082  -2433985.5592   -260158.1040         0.0000         0.0000         0.0000     1.9342     2.0740   6  10   0.0441   0.0372   0.0222   0.0202  -0.0164  -0.0267   0.00    0.0
2016/06/27 01:08:30.000   5633708.7686   1732018.0133  -2433985.5592   -259037.5335         0.0000         0.0000         0.0000     1.9344     2.0831   6  10   0.0441   0.0369   0.0219   0.0203  -0.0163  -0.0265   0.00    0.0
2016/06/27 01:09:00.000   5633708.7524   1732018.0024  -2433985.5495   -257920.7961         0.0000         0.0000         0.0000     1.9346     2.0923   6  10   0.0441   0.0366   0.0219   0.0204  -0.0162  -0.0267   0.00    0.0
2016/06/27 01:09:30.000   5633708.7749   1732018.0096  -2433985.5574   -256816.5593         0.0000         0.0000         0.0000     1.9346     2.1014   6  10   0.0442   0.0362   0.0220   0.0203  -0.0160  -0.0266   0.00    0.0
2016/06/27 01:10:00.000   5633708.7772   1732018.0105  -2433985.5626   -255715.4160         0.0000         0.0000         0.0000     1.9346     2.1106   6  10   0.0442   0.0359   0.0221   0.0205  -0.0163  -0.0268   0.00    0.0
2016/06/27 01:10:30.000   5633708.7725   1732018.0048  -2433985.5654   -254617.6355         0.0000         0.0000         0.0000     1.9347     2.1197   6  10   0.0441   0.0356   0.0219   0.0205  -0.0158  -0.0265   0.00    0.0
2016/06/27 01:11:00.000   5633708.7773   1732018.0077  -2433985.5627   -253527.5489         0.0000         0.0000         0.0000     1.9347     2.1288   6  10   0.0443   0.0352   0.0220   0.0206  -0.0159  -0.0267   0.00    0.0
2016/06/27 01:11:30.000   5633708.7661   1732018.0023  -2433985.5554   -252441.4262         0.0000         0.0000         0.0000     1.9348     2.1379   6  10   0.0443   0.0349   0.0218   0.0208  -0.0157  -0.0267   0.00    0.0
2016/06/27 01:12:00.000   5633708.7732   1732018.0021  -2433985.5633   -251357.1596         0.0000         0.0000         0.0000     1.9348     2.1470   6  10   0.0444   0.0347   0.0217   0.0208  -0.0155  -0.0266   0.00    0.0
2016/06/27 01:12:30.000   5633708.7758   1732018.0008  -2433985.5650   -250276.6139         0.0000         0.0000         0.0000     1.9349     2.1560   6  10   0.0444   0.0343   0.0218   0.0207  -0.0158  -0.0269   0.00    0.0
2016/06/27 01:13:00.000   5633708.7823   1732018.0031  -2433985.5674   -249203.0967         0.0000         0.0000         0.0000     1.9350     2.1650   6  10   0.0444   0.0341   0.0219   0.0211  -0.0155  -0.0268   0.00    0.0
2016/06/27 01:13:30.000   5633708.7841   1732018.0029  -2433985.5664   -248140.1745         0.0000         0.0000         0.0000     1.9349     2.1739   6  10   0.0445   0.0338   0.0220   0.0209  -0.0156  -0.0269   0.00    0.0
2016/06/27 01:14:00.000   5633708.7927   1732018.0061  -2433985.5698   -247077.6864         0.0000         0.0000         0.0000     1.9350     2.1828   6  10   0.0445   0.0336   0.0222   0.0211  -0.0154  -0.0270   0.00    0.0
2016/06/27 01:14:30.000   5633708.7784   1732018.0042  -2433985.5639   -246017.1104         0.0000         0.0000         0.0000     1.9349     2.1916   6  10   0.0447   0.0332   0.0219   0.0211  -0.0151  -0.0269   0.00    0.0
2016/06/27 01:15:00.000   5633708.7824   1732018.0054  -2433985.5657   -244954.3471         0.0000         0.0000         0.0000     1.9351     2.2002   6  10   0.0447   0.0330   0.0217   0.0214  -0.0152  -0.0268   0.00    0.0
2016/06/27 01:15:30.000   5633708.7704   1732017.9996  -2433985.5603   -243886.5807         0.0000         0.0000         0.0000     1.9353     2.2088   6  10   0.0446   0.0328   0.0217   0.0212  -0.0152  -0.0270   0.00    0.0
2016/06/27 01:16:00.000   5633708.7704   1732018.0005  -2433985.5593   -242820.9779         0.0000         0.0000         0.0000     1.9352     2.2173   6  10   0.0448   0.0326   0.0219   0.0214  -0.0151  -0.0269   0.00    0.0
2016/06/27 01:16:30.000   5633708.7762   1732017.9995  -2433985.5631   -241762.0526         0.0000         0.0000         0.0000     1.9352     2.2257   6  10   0.0447   0.0323   0.0217   0.0213  -0.0152  -0.0269   0.00    0.0
2016/06/27 01:17:00.000   5633708.7848   1732018.0039  -2433985.5702   -240696.4259         0.0000         0.0000         0.0000     1.9354     2.2339   6  10   0.0448   0.0321   0.0215   0.0215  -0.0150  -0.0269   0.00    0.0
2016/06/27 01:17:30.000   5633708.7843   1732018.0066  -2433985.5686   -239634.6529         0.0000         0.0000         0.0000     1.9354     2.2420   6  10   0.0449   0.0319   0.0217   0.0214  -0.0152  -0.0271   0.00    0.0
2016/06/27 01:18:00.000   5633708.7790   1732018.0027  -2433985.5630   -238564.3447         0.0000         0.0000         0.0000     1.9351     2.2499   6  10   0.0449   0.0317   0.0219   0.0215  -0.0152  -0.0272   0.00    0.0
2016/06/27 01:18:30.000   5633708.7672   1732017.9918  -2433985.5596   -237491.5580         0.0000         0.0000         0.0000     1.9352     2.2577   6  10   0.0450   0.0315   0.0216   0.0217  -0.0149  -0.0271   0.00    0.0
2016/06/27 01:19:00.000   5633708.7823   1732018.0006  -2433985.5670   -236410.8948         0.0000         0.0000         0.0000     1.9351     2.2653   6  10   0.0449   0.0313   0.0218   0.0217  -0.0150  -0.0273   0.00    0.0
2016/06/27 01:19:30.000   5633708.7816   1732018.0021  -2433985.5685   -235327.4322         0.0000         0.0000         0.0000     1.9352     2.2727   6  10   0.0451   0.0311   0.0220   0.0217  -0.0148  -0.0272   0.00    0.0
2016/06/27 01:20:00.000   5633708.7763   1732017.9972  -2433985.5626   -234242.2112         0.0000         0.0000         0.0000     1.9354     2.2799   6  10   0.0451   0.0309   0.0217   0.0218  -0.0147  -0.0271   0.00    0.0
2016/06/27 01:20:30.000   5633708.7825   1732017.9992  -2433985.5652   -233151.1325         0.0000         0.0000         0.0000     1.9354     2.2869   6  10   0.0451   0.0308   0.0218   0.0219  -0.0147  -0.0273   0.00    0.0
2016/06/27 01:21:00.000   5633708.7834   1732018.0026  -2433985.5648   -232056.9554         0.0000         0.0000         0.0000     1.9353     2.2937   6  10   0.0451   0.0305   0.0215   0.0218  -0.0146  -0.0273   0.00    0.0
2016/06/27 01:21:30.000   5633708.7746   1732017.9962  -2433985.5610   -230959.1366         0.0000         0.0000         0.0000     1.9353     2.3002   6  10   0.0452   0.0304   0.0216   0.0221  -0.0147  -0.0273   0.00    0.0
2016/06/27 01:22:00.000   5633708.7748   1732017.9978  -2433985.5657   -229852.1158         0.0000         0.0000         0.0000     1.9352     2.3065   6  10   0.0453   0.0302   0.0218   0.0219  -0.0147  -0.0274   0.00    0.0
2016/06/27 01:22:30.000   5633708.7822   1732018.0012  -2433985.5660   -228735.2878         0.0000         0.0000         0.0000     1.9352     2.3126   6  10   0.0452   0.0300   0.0218   0.0221  -0.0146  -0.0273   0.00    0.0
2016/06/27 01:23:00.000   5633708.7812   1732018.0036  -2433985.5652   -227615.6018         0.0000         0.0000         0.0000     1.9350     2.3184   6  10   0.0453   0.0297   0.0218   0.0223  -0.0148  -0.0273   0.00    0.0
2016/06/27 01:23:30.000   5633708.7766   1732017.9999  -2433985.5610   -226493.9752         0.0000         0.0000         0.0000     1.9350     2.3239   6  10   0.0453   0.0296   0.0217   0.0219  -0.0144  -0.0276   0.00    0.0
2016/06/27 01:24:00.000   5633708.7902   1732018.0040  -2433985.5698   -225377.8918         0.0000         0.0000         0.0000     1.9351     2.3292   6  10   0.0454   0.0294   0.0218   0.0224  -0.0147  -0.0274   0.00    0.0
2016/06/27 01:24:30.000   5633708.7825   1732017.9989  -2433985.5725   -224252.3639         0.0000         0.0000         0.0000     1.9350     2.3341   6  10   0.0453   0.0292   0.0217   0.0222  -0.0146  -0.0276   0.00    0.0
2016/06/27 01:25:00.000   5633708.7751   1732017.9996  -2433985.5700   -223130.7442         0.0000         0.0000         0.0000     1.9348     2.3388   6  10   0.0454   0.0292   0.0217   0.0222  -0.0144  -0.0276   0.00    0.0
2016/06/27 01:25:30.000   5633708.7755   1732017.9954  -2433985.5645   -222016.1379         0.0000         0.0000         0.0000     1.9347     2.3431   6  10   0.0453   0.0292   0.0219   0.0224  -0.0146  -0.0273   0.00    0.0
2016/06/27 01:26:00.000   5633708.7647   1732017.9905  -2433985.5631   -220907.1076         0.0000         0.0000         0.0000     1.9348     2.3471   6  10   0.0453   0.0289   0.0217   0.0224  -0.0145  -0.0275   0.00    0.0
2016/06/27 01:26:30.000   5633708.7642   1732017.9945  -2433985.5623   -219803.5375         0.0000         0.0000         0.0000     1.9348     2.3508   6  10   0.0454   0.0289   0.0219   0.0222  -0.0143  -0.0276   0.00    0.0
2016/06/27 01:27:00.000   5633708.7580   1732017.9909  -2433985.5590   -218699.3364         0.0000         0.0000         0.0000     1.9346     2.3542   6  10   0.0455   0.0286   0.0216   0.0223  -0.0143  -0.0276   0.00    0.0
2016/06/27 01:27:30.000   5633708.7680   1732017.9961  -2433985.5638   -217595.5931         0.0000         0.0000         0.0000     1.9348     2.3572   6  10   0.0454   0.0285   0.0218   0.0222  -0.0145  -0.0275   0.00    0.0
2016/06/27 01:28:00.000   5633708.7597   1732017.9933  -2433985.5650   -216513.8378         0.0000         0.0000         0.0000     1.9349     2.3599   6  10   0.0455   0.0284   0.0216   0.0224  -0.0143  -0.0276   0.00    0.0
2016/06/27 01:28:30.000   5633708.7664   1732017.9900  -2433985.5627   -215438.4796         0.0000         0.0000         0.0000     1.9351     2.3622   6  10   0.0454   0.0282   0.0217   0.0224  -0.0142  -0.0275   0.00    0.0
2016/06/27 01:29:00.000   5633708.7756   1732017.9938  -2433985.5613   -214374.0628         0.0000         0.0000         0.0000     1.9352     2.3642   6  10   0.0455   0.0282   0.0217   0.0224  -0.0141  -0.0274   0.00    0.0
2016/06/27 01:29:30.000   5633708.7791   1732017.9947  -2433985.5631   -213308.9852         0.0000         0.0000         0.0000     1.9352     2.3659   6  10   0.0454   0.0281   0.0217   0.0223  -0.0141  -0.0276   0.00    0.0
2016/06/27 01:30:00.000   5633708.7714   1732017.9906  -2433985.5637   -212245.2317         0.0000         0.0000         0.0000     1.9352     2.3671   6  10   0.0455   0.0279   0.0217   0.0224  -0.0144  -0.0275   0.00    0.0
2016/06/27 01:30:30.000   5633708.7758   1732017.9913  -2433985.5631   -211189.3263         0.0000         0.0000         0.0000     1.9353     2.3680   6  10   0.0454   0.0278   0.0218   0.0224  -0.0141  -0.0276   0.00    0.0
2016/06/27 01:31:00.000   5633708.7780   1732017.9892  -2433985.5603   -210137.0389         0.0000         0.0000         0.0000     1.9355     2.3686   6  10   0.0454   0.0277   0.0217   0.0225  -0.0140  -0.0275   0.00    0.0
2016/06/27 01:31:30.000   5633708.7794   1732017.9939  -2433985.5615   -209083.9443         0.0000         0.0000         0.0000     1.9353     2.3688   6  10   0.0453   0.0276   0.0217   0.0224  -0.0141  -0.0275   0.00    0.0
2016/06/27 01:32:00.000   5633708.7689   1732017.9906  -2433985.5590   -208023.7485         0.0000         0.0000         0.0000     1.9353     2.3686   6  10   0.0453   0.0275   0.0216   0.0223  -0.0140  -0.0276   0.00    0.0
2016/06/27 01:32:30.000   5633708.7678   1732017.9928  -2433985.5614   -206968.2679         0.0000         0.0000         0.0000     1.9351     2.3680   6  10   0.0453   0.0275   0.0215   0.0220  -0.0137  -0.0276   0.00    0.0
2016/06/27 01:33:00.000   5633708.7576   1732017.9887  -2433985.5547   -205912.5990         0.0000         0.0000         0.0000     1.9349     2.3671   6  10   0.0453   0.0272   0.0217   0.0224  -0.0138  -0.0275   0.00    0.0
2016/06/27 01:33:30.000   5633708.7643   1732017.9882  -2433985.5559   -204847.2798         0.0000         0.0000         0.0000     1.9348     2.3659   6  10   0.0452   0.0271   0.0216   0.0222  -0.0139  -0.0275   0.00    0.0
2016/06/27 01:34:00.000   5633708.7669   1732017.9873  -2433985.5580   -203781.1043         0.0000         0.0000         0.0000     1.9349     2.3643   6  10   0.0451   0.0269   0.0215   0.0220  -0.0138  -0.0276   0.00    0.0
2016/06/27 01:34:30.000   5633708.7816   1732017.9906  -2433985.5625   -202718.9819         0.0000         0.0000         0.0000     1.9351     2.3623   6  10   0.0451   0.0271   0.0215   0.0221  -0.0136  -0.0275   0.00    0.0
2016/06/27 01:35:00.000   5633708.7761   1732017.9916  -2433985.5650   -201652.0028         0.0000         0.0000         0.0000     1.9351     2.3600   6  10   0.0451   0.0268   0.0217   0.0221  -0.0138  -0.0274   0.00    0.0
2016/06/27 01:35:30.000   5633708.7654   1732017.9867  -2433985.5640   -200576.3533         0.0000         0.0000         0.0000     1.9352     2.3573   6  10   0.0451   0.0267   0.0216   0.0221  -0.0134  -0.0272   0.00    0.0
2016/06/27 01:36:00.000   5633708.7560   1732017.9804  -2433985.5606   -199501.1286         0.0000         0.0000         0.0000     1.9353     2.3543   6  10   0.0451   0.0267   0.0216   0.0221  -0.0133  -0.0274   0.00    0.0
2016/06/27 01:36:30.000   5633708.7704   1732017.9841  -2433985.5593   -198418.6589         0.0000         0.0000         0.0000     1.9353     2.3510   6  10   0.0450   0.0264   0.0214   0.0220  -0.0135  -0.0273   0.00    0.0
2016/06/27 01:37:00.000   5633708.7860   1732017.9875  -2433985.5644   -197329.1357         0.0000         0.0000         0.0000     1.9355     2.3474   6  10   0.0449   0.0264   0.0214   0.0218  -0.0134  -0.0274   0.00    0.0
2016/06/27 01:37:30.000   5633708.7677   1732017.9821  -2433985.5604   -196238.2115         0.0000         0.0000         0.0000     1.9355     2.3434   6  10   0.0449   0.0263   0.0216   0.0220  -0.0135  -0.0272   0.00    0.0
2016/06/27 01:38:00.000   5633708.7694   1732017.9853  -2433985.5590   -195143.0705         0.0000         0.0000         0.0000     1.9353     2.3391   6  10   0.0449   0.0264   0.0214   0.0216  -0.0131  -0.0273   0.00    0.0
2016/06/27 01:38:30.000   5633708.7712   1732017.9857  -2433985.5556   -194038.4459         0.0000         0.0000         0.0000     1.9352     2.3345   6  10   0.0448   0.0263   0.0212   0.0218  -0.0127  -0.0272   0.00    0.0
2016/06/27 01:39:00.000   5633708.7674   1732017.9848  -2433985.5536   -192931.9086         0.0000         0.0000         0.0000     1.9352     2.3297   6  10   0.0447   0.0259   0.0216   0.0218  -0.0132  -0.0272   0.00    0.0
2016/06/27 01:39:30.000   5633708.7777   1732017.9896  -2433985.5579   -191815.6929         0.0000         0.0000         0.0000     1.9354     2.3245   6  10   0.0446   0.0259   0.0214   0.0218  -0.0133  -0.0270   0.00    0.0
2016/06/27 01:40:00.000   5633708.7593   1732017.9839  -2433985.5536   -190703.9701         0.0000         0.0000         0.0000     1.9354     2.3191   6  10   0.0446   0.0259   0.0213   0.0216  -0.0124  -0.0271   0.00    0.0
2016/06/27 01:40:30.000   5633708.7702   1732017.9948  -2433985.5582   -189592.0891         0.0000         0.0000         0.0000     1.9353     2.3134   6  10   0.0445   0.0257   0.0215   0.0219  -0.0129  -0.0269   0.00    0.0
2016/06/27 01:41:00.000   5633708.7760   1732017.9931  -2433985.5602   -188477.8885         0.0000         0.0000         0.0000     1.9355     2.3075   6  10   0.0444   0.0256   0.0213   0.0216  -0.0128  -0.0268   0.00    0.0
2016/06/27 01:41:30.000   5633708.7653   1732017.9890  -2433985.5564   -187367.6292         0.0000         0.0000         0.0000     1.9354     2.3013   6  10   0.0443   0.0254   0.0214   0.0213  -0.0128  -0.0270   0.00    0.0
2016/06/27 01:42:00.000   5633708.7759   1732017.9927  -2433985.5609   -186255.6152         0.0000         0.0000         0.0000     1.9354     2.2949   6  10   0.0443   0.0255   0.0216   0.0213  -0.0129  -0.0269   0.00    0.0
2016/06/27 01:42:30.000   5633708.7656   1732017.9932  -2433985.5592   -185153.2697         0.0000         0.0000         0.0000     1.9351     2.2882   6  10   0.0441   0.0254   0.0213   0.0214  -0.0125  -0.0270   0.00    0.0
2016/06/27 01:43:00.000   5633708.7749   1732017.9959  -2433985.5614   -184047.7154         0.0000         0.0000         0.0000     1.9350     2.2814   6  10   0.0442   0.0253   0.0214   0.0212  -0.0128  -0.0268   0.00    0.0
2016/06/27 01:43:30.000   5633708.7795   1732017.9903  -2433985.5641   -182955.4328         0.0000         0.0000         0.0000     1.9350     2.2743   6  10   0.0441   0.0253   0.0214   0.0215  -0.0126  -0.0266   0.00    0.0
2016/06/27 01:44:00.000   5633708.7752   1732017.9893  -2433985.5597   -181864.8970         0.0000         0.0000         0.0000     1.9349     2.2671   6  10   0.0440   0.0253   0.0212   0.0211  -0.0123  -0.0266   0.00    0.0
2016/06/27 01:44:30.000   5633708.7789   1732017.9888  -2433985.5589   -180780.5411         0.0000         0.0000         0.0000     1.9348     2.2597   6  10   0.0439   0.0250   0.0213   0.0209  -0.0124  -0.0268   0.00    0.0
2016/06/27 01:45:00.000   5633708.7786   1732017.9873  -2433985.5628   -179700.3273         0.0000         0.0000         0.0000     1.9347     2.2521   6  10   0.0438   0.0251   0.0211   0.0210  -0.0121  -0.0265   0.00    0.0
2016/06/27 01:45:30.000   5633708.7771   1732017.9872  -2433985.5663   -178633.8273         0.0000         0.0000         0.0000     1.9350     2.2444   6  10   0.0437   0.0249   0.0214   0.0210  -0.0119  -0.0266   0.00    0.0
2016/06/27 01:46:00.000   5633708.7657   1732017.9818  -2433985.5632   -177574.9774         0.0000         0.0000         0.0000     1.9351     2.2365   6  10   0.0436   0.0249   0.0212   0.0206  -0.0117  -0.0266   0.00    0.0
2016/06/27 01:46:30.000   5633708.7690   1732017.9849  -2433985.5627   -176519.6122         0.0000         0.0000         0.0000     1.9352     2.2285   6  10   0.0434   0.0246   0.0210   0.0205  -0.0118  -0.0264   0.00    0.0
2016/06/27 01:47:00.000   5633708.7721   1732017.9853  -2433985.5606   -175468.4365         0.0000         0.0000         0.0000     1.9352     2.2204   6  10   0.0433   0.0245   0.0212   0.0205  -0.0117  -0.0263   0.00    0.0
2016/06/27 01:47:30.000   5633708.7608   1732017.9849  -2433985.5560   -174430.1688         0.0000         0.0000         0.0000     1.9350     2.2121   6  10   0.0433   0.0246   0.0214   0.0208  -0.0119  -0.0262   0.00    0.0
2016/06/27 01:48:00.000   5633708.7723   1732017.9862  -2433985.5595   -173394.6627         0.0000         0.0000         0.0000     1.9348     2.2038   6  10   0.0432   0.0245   0.0210   0.0203  -0.0115  -0.0262   0.00    0.0
2016/06/27 01:48:30.000   5633708.7762   1732017.9874  -2433985.5603   -172362.2463         0.0000         0.0000         0.0000     1.9346     2.1953   6  10   0.0431   0.0246   0.0210   0.0202  -0.0112  -0.0262   0.00    0.0
2016/06/27 01:49:00.000   5633708.7667   1732017.9791  -2433985.5616   -171320.0160         0.0000         0.0000         0.0000     1.9343     2.1868   6  10   0.0430   0.0245   0.0212   0.0201  -0.0116  -0.0262   0.00    0.0
2016/06/27 01:49:30.000   5633708.7683   1732017.9789  -2433985.5579   -170284.8863         0.0000         0.0000         0.0000     1.9342     2.1782   6  10   0.0430   0.0243   0.0212   0.0202  -0.0117  -0.0262   0.00    0.0
2016/06/27 01:50:00.000   5633708.7754   1732017.9823  -2433985.5595   -169247.7624         0.0000         0.0000         0.0000     1.9341     2.1695   6  10   0.0429   0.0243   0.0209   0.0201  -0.0108  -0.0260   0.00    0.0
2016/06/27 01:50:30.000   5633708.7698   1732017.9758  -2433985.5607   -168215.0404         0.0000         0.0000         0.0000     1.9344     2.1608   6  10   0.0429   0.0241   0.0211   0.0201  -0.0111  -0.0257   0.00    0.0
2016/06/27 01:51:00.000   5633708.7728   1732017.9773  -2433985.5587   -167166.2443         0.0000         0.0000         0.0000     1.9344     2.1520   6  10   0.0427   0.0243   0.0210   0.0196  -0.0109  -0.0259   0.00    0.0
2016/06/27 01:51:30.000   5633708.7643   1732017.9752  -2433985.5541   -166116.6647         0.0000         0.0000         0.0000     1.9344     2.1432   6  10   0.0424   0.0242   0.0210   0.0195  -0.0113  -0.0260   0.00    0.0
2016/06/27 01:52:00.000   5633708.7568   1732017.9729  -2433985.5493   -165066.3832         0.0000         0.0000         0.0000     1.9345     2.1344   6  10   0.0423   0.0239   0.0209   0.0194  -0.0109  -0.0260   0.00    0.0
2016/06/27 01:52:30.000   5633708.7662   1732017.9742  -2433985.5549   -164004.6293         0.0000         0.0000         0.0000     1.9345     2.1256   6  10   0.0424   0.0238   0.0211   0.0198  -0.0109  -0.0254   0.00    0.0
2016/06/27 01:53:00.000   5633708.7740   1732017.9736  -2433985.5603   -162948.9015         0.0000         0.0000         0.0000     1.9348     2.1167   6  10   0.0422   0.0240   0.0211   0.0193  -0.0110  -0.0258   0.00    0.0
2016/06/27 01:53:30.000   5633708.7660   1732017.9733  -2433985.5594   -161890.2710         0.0000         0.0000         0.0000     1.9351     2.1078   6  10   0.0422   0.0239   0.0208   0.0191  -0.0109  -0.0259   0.00    0.0
2016/06/27 01:54:00.000   5633708.7665   1732017.9731  -2433985.5558   -160823.0057         0.0000         0.0000         0.0000     1.9353     2.0990   6  10   0.0420   0.0237   0.0210   0.0194  -0.0104  -0.0255   0.00    0.0
2016/06/27 01:54:30.000   5633708.7621   1732017.9679  -2433985.5565   -159753.3941         0.0000         0.0000         0.0000     1.9355     2.0901   6  10   0.0417   0.0239   0.0211   0.0192  -0.0107  -0.0255   0.00    0.0
2016/06/27 01:55:00.000   5633708.7583   1732017.9662  -2433985.5572   -158674.8851         0.0000         0.0000         0.0000     1.9356     2.0813   6  10   0.0417   0.0236   0.0209   0.0189  -0.0106  -0.0255   0.00    0.0
2016/06/27 01:55:30.000   5633708.7632   1732017.9718  -2433985.5634   -157596.4358         0.0000         0.0000         0.0000     1.9357     2.0725   6  10   0.0416   0.0233   0.0208   0.0190  -0.0104  -0.0254   0.00    0.0
2016/06/27 01:56:00.000   5633708.7632   1732017.9726  -2433985.5629   -156506.0299         0.0000         0.0000         0.0000     1.9359     2.0637   6  10   0.0415   0.0234   0.0209   0.0190  -0.0099  -0.0253   0.00    0.0
2016/06/27 01:56:30.000   5633708.7647   1732017.9715  -2433985.5604   -155406.8293         0.0000         0.0000         0.0000     1.9359     2.0549   6  10   0.0415   0.0236   0.0209   0.0187  -0.0100  -0.0253   0.00    0.0
2016/06/27 01:57:00.000   5633708.7642   1732017.9708  -2433985.5591   -154301.2178         0.0000         0.0000         0.0000     1.9355     2.0462   6  10   0.0413   0.0236   0.0209   0.0187  -0.0101  -0.0251   0.00    0.0
2016/06/27 01:57:30.000   5633708.7646   1732017.9750  -2433985.5536   -153192.8063         0.0000         0.0000         0.0000     1.9353     2.0375   6  10   0.0412   0.0234   0.0207   0.0186  -0.0100  -0.0250   0.00    0.0
2016/06/27 01:58:00.000   5633708.7671   1732017.9737  -2433985.5525   -152078.2636         0.0000         0.0000         0.0000     1.9351     2.0289   6  10   0.0411   0.0234   0.0207   0.0185  -0.0094  -0.0250   0.00    0.0
2016/06/27 01:58:30.000   5633708.7603   1732017.9689  -2433985.5535   -150960.7581         0.0000         0.0000         0.0000     1.9346     2.0203   6  10   0.0411   0.0233   0.0208   0.0181  -0.0096  -0.0250   0.00    0.0
2016/06/27 01:59:00.000   5633708.7543   1732017.9668  -2433985.5543   -149842.5695         0.0000         0.0000         0.0000     1.9343     2.0118   6  10   0.0409   0.0231   0.0207   0.0183  -0.0094  -0.0248   0.00    0.0
2016/06/27 01:59:30.000   5633708.7620   1732017.9672  -2433985.5553   -148726.5681         0.0000         0.0000         0.0000     1.9340     2.0034   6  10   0.0406   0.0233   0.0207   0.0183  -0.0093  -0.0249   0.00    0.0
2016/06/27 02:00:00.000   5633708.7654   1732017.9687  -2433985.5591   -147605.7616         0.0000         0.0000         0.0000     1.9339     1.9950   6  10   0.0405   0.0231   0.0210   0.0178  -0.0093  -0.0248   0.00    0.0
2016/06/27 02:00:30.000   5633708.7682   1732017.9711  -2433985.5584   -146491.8833         0.0000         0.0000         0.0000     1.9338     1.9867   6  10   0.0404   0.0230   0.0206   0.0180  -0.0095  -0.0248   0.00    0.0
2016/06/27 02:01:00.000   5633708.7568   1732017.9701  -2433985.5538   -145376.4480         0.0000         0.0000         0.0000     1.9338     1.9784   6  10   0.0403   0.0230   0.0210   0.0180  -0.0092  -0.0247   0.00    0.0
2016/06/27 02:01:30.000   5633708.7684   1732017.9766  -2433985.5608   -144267.7160         0.0000         0.0000         0.0000     1.9338     1.9703   6  10   0.0403   0.0230   0.0208   0.0179  -0.0090  -0.0246   0.00    0.0
2016/06/27 02:02:00.000   5633708.7640   1732017.9715  -2433985.5615   -143167.5881         0.0000         0.0000         0.0000     1.9337     1.9622   6  10   0.0400   0.0231   0.0207   0.0176  -0.0088  -0.0247   0.00    0.0
2016/06/27 02:02:30.000   5633708.7679   1732017.9693  -2433985.5613   -142069.5828         0.0000         0.0000         0.0000     1.9337     1.9542   6  10   0.0401   0.0229   0.0207   0.0175  -0.0091  -0.0244   0.00    0.0
2016/06/27 02:03:00.000   5633708.7629   1732017.9675  -2433985.5606   -140975.7958         0.0000         0.0000         0.0000     1.9334     1.9463   6  10   0.0398   0.0228   0.0206   0.0175  -0.0087  -0.0243   0.00    0.0
2016/06/27 02:03:30.000   5633708.7725   1732017.9772  -2433985.5630   -139892.9419         0.0000         0.0000         0.0000     1.9334     1.9384   6  10   0.0396   0.0228   0.0207   0.0175  -0.0086  -0.0242   0.00    0.0
2016/06/27 02:04:00.000   5633708.7614   1732017.9783  -2433985.5548   -138815.7846         0.0000         0.0000         0.0000     1.9334     1.9307   6  10   0.0395   0.0226   0.0206   0.0176  -0.0089  -0.0240   0.00    0.0
2016/06/27 02:04:30.000   5633708.7614   1732017.9731  -2433985.5550   -137750.9192         0.0000         0.0000         0.0000     1.9338     1.9230   6  10   0.0395   0.0228   0.0207   0.0173  -0.0087  -0.0241   0.00    0.0
2016/06/27 02:05:00.000   5633708.7646   1732017.9725  -2433985.5526   -136686.3724         0.0000         0.0000         0.0000     1.9337     1.9155   6  10   0.0393   0.0228   0.0207   0.0172  -0.0087  -0.0240   0.00    0.0
2016/06/27 02:05:30.000   5633708.7601   1732017.9701  -2433985.5495   -135631.7825         0.0000         0.0000         0.0000     1.9335     1.9080   6  10   0.0392   0.0227   0.0207   0.0176  -0.0089  -0.0238   0.00    0.0
2016/06/27 02:06:00.000   5633708.7615   1732017.9712  -2433985.5574   -134577.8757         0.0000         0.0000         0.0000     1.9333     1.9007   6  10   0.0391   0.0226   0.0206   0.0172  -0.0086  -0.0238   0.00    0.0
2016/06/27 02:06:30.000   5633708.7739   1732017.9762  -2433985.5595   -133529.8035         0.0000         0.0000         0.0000     1.9332     1.8934   6  10   0.0388   0.0226   0.0207   0.0172  -0.0079  -0.0236   0.00    0.0
2016/06/27 02:07:00.000   5633708.7743   1732017.9702  -2433985.5576   -132486.9206         0.0000         0.0000         0.0000     1.9330     1.8862   6  10   0.0388   0.0226   0.0207   0.0171  -0.0087  -0.0235   0.00    0.0
2016/06/27 02:07:30.000   5633708.7755   1732017.9753  -2433985.5528   -131449.5517         0.0000         0.0000         0.0000     1.9332     1.8791   6  10   0.0385   0.0225   0.0205   0.0170  -0.0084  -0.0236   0.00    0.0
2016/06/27 02:08:00.000   5633708.7730   1732017.9741  -2433985.5555   -130418.1669         0.0000         0.0000         0.0000     1.9330     1.8722   6  10   0.0385   0.0225   0.0205   0.0173  -0.0082  -0.0233   0.00    0.0
2016/06/27 02:08:30.000   5633708.7796   1732017.9746  -2433985.5590   -129386.2853         0.0000         0.0000         0.0000     1.9331     1.8653   6  10   0.0383   0.0225   0.0206   0.0167  -0.0083  -0.0235   0.00    0.0
2016/06/27 02:09:00.000   5633708.7721   1732017.9715  -2433985.5611   -128347.1914         0.0000         0.0000         0.0000     1.9330     1.8585   6  10   0.0382   0.0226   0.0204   0.0168  -0.0082  -0.0235   0.00    0.0
2016/06/27 02:09:30.000   5633708.7673   1732017.9716  -2433985.5611   -127307.8030         0.0000         0.0000         0.0000     1.9328     1.8519   6  10   0.0381   0.0223   0.0207   0.0169  -0.0082  -0.0232   0.00    0.0
2016/06/27 02:10:00.000   5633708.7672   1732017.9698  -2433985.5619   -126261.3401         0.0000         0.0000         0.0000     1.9326     2.0301   6   9   0.0391   0.0225   0.0205   0.0171  -0.0084  -0.0235   0.00    0.0
2016/06/27 02:10:30.000   5633708.7820   1732017.9723  -2433985.5631   -125212.9196         0.0000         0.0000         0.0000     1.9324     2.0213   6   9   0.0390   0.0223   0.0207   0.0171  -0.0082  -0.0235   0.00    0.0
2016/06/27 02:11:00.000   5633708.7724   1732017.9672  -2433985.5574   -124155.4882         0.0000         0.0000         0.0000     1.9323     2.0127   6   9   0.0389   0.0224   0.0205   0.0172  -0.0079  -0.0233   0.00    0.0
