% ref pos   : -2414266.9228  5386768.9938  2407460.0346
%  GPST                      x-ecef(m)      y-ecef(m)      z-ecef(m)   Q  ns   sdx(m)   sdy(m)   sdz(m)  sdxy(m)  sdyz(m)  sdzx(m) age(s)  ratio
2020/06/03 03:02:27.000  -2418076.9256   5386067.4953   2405174.3840         0.0038         0.0000         0.0000         0.0000     0.0000     0.0000   1   5   0.0309   0.0919   0.0281  -0.0430   0.0481  -0.0239   0.00  999.9
2020/06/03 03:02:28.000  -2418076.9123   5386067.4447   2405174.3639         0.0038         0.0000         0.0000         0.0000     0.0000     0.0000   1   5   0.0309   0.0919   0.0281  -0.0430   0.0481  -0.0239   0.00  999.9
2020/06/03 03:02:29.000  -2418076.8913   5386067.3450   2405174.3350         0.0038         0.0000         0.0000         0.0000     0.0000     0.0000   1   5   0.0309   0.0919   0.0281  -0.0430   0.0481  -0.0239   0.00  999.9
2020/06/03 03:02:30.000  -2418076.8656   5386067.3206   2405174.3327         0.0038         0.0000         0.0000         0.0000     0.0000     0.0000   1   5   0.0309   0.0919   0.0281  -0.0430   0.0480  -0.0239   0.00  999.9
2020/06/03 03:02:31.000  -2418072.7903   5386058.3528   2405172.1820         0.0038         0.0000         0.0000         0.0000     0.0000     0.0000   2   5   0.0220   0.0656   0.0200  -0.0307   0.0343  -0.0170   0.00    8.9
2020/06/03 03:02:32.000  -2418073.6032   5386061.3436   2405172.8874         0.0038         0.0000         0.0000         0.0000     0.0000     0.0000   2   5   0.0219   0.0651   0.0199  -0.0305   0.0340  -0.0169   0.00    9.3
2020/06/03 03:02:33.000  -2418076.8660   5386067.3465   2405174.3477         0.0038         0.0000         0.0000         0.0000     0.0000     0.0000   1   5   0.0309   0.0918   0.0281  -0.0430   0.0480  -0.0239   0.00  999.9
2020/06/03 03:02:34.000  -2418074.3867   5386064.2649   2405173.5449         0.0038         0.0000         0.0000         0.0000     0.0000     0.0000   2   5   0.0219   0.0649   0.0199  -0.0304   0.0340  -0.0169   0.00    3.8
2020/06/03 03:02:35.000  -2418075.2398   5386067.5114   2405174.2880         0.0038         0.0000         0.0000         0.0000     0.0000     0.0000   2   5   0.0219   0.0649   0.0199  -0.0304   0.0340  -0.0169   0.00   18.7
2020/06/03 03:02:36.000  -2418076.0967   5386070.6025   2405175.0123         0.0038         0.0000         0.0000         0.0000     0.0000     0.0000   2   5   0.0219   0.0649   0.0199  -0.0304   0.0340  -0.0169   0.00    3.0
2020/06/03 03:02:37.000  -2418076.0587   5386070.5369   2405174.9929         0.0038         0.0000         0.0000         0.0000     0.0000     0.0000   2   5   0.0219   0.0649   0.0199  -0.0304   0.0340  -0.0169   0.00   22.6
2020/06/03 03:02:38.000  -2418076.8216   5386067.1938   2405174.3060         0.0038         0.0000         0.0000         0.0000     0.0000     0.0000   1   5   0.0309   0.0918   0.0281  -0.0430   0.0480  -0.0239   0.00  999.9
2020/06/03 03:02:39.000  -2418076.8773   5386073.6477   2405175.7253         0.0038         0.0000         0.0000         0.0000     0.0000     0.0000   2   5   0.0219   0.0649   0.0199  -0.0304   0.0339  -0.0169   0.00  233.8
2020/06/03 03:02:40.000  -2418076.8453   5386067.1410   2405174.3011         0.0038         0.0000         0.0000         0.0000     0.0000     0.0000   1   5   0.0309   0.0918   0.0281  -0.0430   0.0480  -0.0239   0.00  999.9
2020/06/03 03:02:41.000  -2418076.8180   5386067.1091   2405174.2868         0.0038         0.0000         0.0000         0.0000     0.0000     0.0000   1   5   0.0309   0.0917   0.0281  -0.0430   0.0480  -0.0239   0.00  999.9
2020/06/03 03:02:42.000  -2418076.8038   5386067.0826   2405174.2802         0.0038         0.0000         0.0000         0.0000     0.0000     0.0000   1   5   0.0309   0.0917   0.0281  -0.0430   0.0480  -0.0239   0.00  999.9
2020/06/03 03:02:43.000  -2418076.8228   5386067.0891   2405174.2823         0.0038         0.0000         0.0000         0.0000     0.0000     0.0000   1   5   0.0309   0.0917   0.0281  -0.0430   0.0480  -0.0239   0.00  999.9
2020/06/03 03:02:44.000  -2418076.7859   5386067.0137   2405174.2524         0.0038         0.0000         0.0000         0.0000     0.0000     0.0000   1   5   0.0309   0.0917   0.0281  -0.0430   0.0480  -0.0239   0.00  999.9
2020/06/03 03:02:45.000  -2418076.7807   5386067.1242   2405174.2881         0.0038         0.0000         0.0000         0.0000     0.0000     0.0000   1   5   0.0309   0.0917   0.0281  -0.0430   0.0480  -0.0239   0.00  999.9
2020/06/03 03:02:46.000  -2418076.8172   5386067.1724   2405174.2997         0.0038         0.0000         0.0000         0.0000     0.0000     0.0000   1   5   0.0309   0.0917   0.0281  -0.0430   0.0480  -0.0239   0.00  999.9
2020/06/03 03:02:47.000  -2418076.8013   5386067.1262   2405174.2980         0.0038         0.0000         0.0000         0.0000     0.0000     0.0000   1   5   0.0309   0.0917   0.0281  -0.0430   0.0480  -0.0239   0.00  999.9
2020/06/03 03:02:48.000  -2418076.8066   5386067.0855   2405174.2737         0.0038         0.0000         0.0000         0.0000     0.0000     0.0000   1   5   0.0309   0.0917   0.0281  -0.0430   0.0480  -0.0239   0.00  999.9
2020/06/03 03:02:49.000  -2418076.8125   5386067.0834   2405174.2708         0.0038         0.0000         0.0000         0.0000     0.0000     0.0000   1   5   0.0309   0.0917   0.0281  -0.0430   0.0480  -0.0239   0.00  999.9
2020/06/03 03:02:50.000  -2418076.7942   5386067.0066   2405174.2516         0.0038         0.0000         0.0000         0.0000     0.0000     0.0000   1   5   0.0309   0.0916   0.0281  -0.0430   0.0480  -0.0239   0.00  999.9
2020/06/03 03:02:51.000  -2418076.8125   5386067.0412   2405174.2612         0.0038         0.0000         0.0000         0.0000     0.0000     0.0000   1   5   0.0309   0.0916   0.0281  -0.0430   0.0480  -0.0239   0.00  999.9
2020/06/03 03:02:52.000  -2418076.7808   5386067.0470   2405174.2634         0.0038         0.0000         0.0000         0.0000     0.0000     0.0000   1   5   0.0309   0.0916   0.0281  -0.0430   0.0480  -0.0239   0.00  999.7
2020/06/03 03:02:53.000  -2418076.8082   5386067.0828   2405174.2745         0.0038         0.0000         0.0000         0.0000     0.0000     0.0000   1   5   0.0309   0.0916   0.0281  -0.0430   0.0480  -0.0239   0.00  990.4
2020/06/03 03:02:54.000  -2418076.7852   5386067.0418   2405174.2556         0.0038         0.0000         0.0000         0.0000     0.0000     0.0000   1   5   0.0309   0.0916   0.0281  -0.0430   0.0479  -0.0239   0.00  981.2
2020/06/03 03:02:55.000  -2418076.7965   5386067.0630   2405174.2580         0.0038         0.0000         0.0000         0.0000     0.0000     0.0000   1   5   0.0309   0.0916   0.0281  -0.0430   0.0479  -0.0239   0.00  972.0
2020/06/03 03:02:56.000  -2418076.8556   5386067.1827   2405174.3037         0.0038         0.0000         0.0000         0.0000     0.0000     0.0000   1   5   0.0309   0.0916   0.0281  -0.0430   0.0479  -0.0239   0.00  962.6
2020/06/03 03:02:57.000  -2418076.7944   5386067.0994   2405174.2783         0.0038         0.0000         0.0000         0.0000     0.0000     0.0000   1   5   0.0309   0.0916   0.0281  -0.0430   0.0479  -0.0239   0.00  953.1
2020/06/03 03:02:58.000  -2418076.8090   5386067.1044   2405174.2748         0.0038         0.0000         0.0000         0.0000     0.0000     0.0000   1   5   0.0309   0.0915   0.0281  -0.0430   0.0479  -0.0239   0.00  943.7
2020/06/03 03:02:59.000  -2418076.8064   5386067.0744   2405174.2652         0.0038         0.0000         0.0000         0.0000     0.0000     0.0000   1   5   0.0309   0.0915   0.0281  -0.0430   0.0479  -0.0239   0.00  934.2
2020/06/03 03:03:00.000  -2418076.8398   5386067.1738   2405174.2936         0.0038         0.0000         0.0000         0.0000     0.0000     0.0000   1   5   0.0309   0.0915   0.0281  -0.0430   0.0479  -0.0238   0.00  924.8
2020/06/03 03:03:01.000  -2418076.8226   5386067.1312   2405174.2775         0.0038         0.0000         0.0000         0.0000     0.0000     0.0000   1   5   0.0309   0.0915   0.0281  -0.0430   0.0479  -0.0238   0.00  915.2
2020/06/03 03:03:02.000  -2418076.8479   5386067.1754   2405174.2936         0.0038         0.0000         0.0000         0.0000     0.0000     0.0000   1   5   0.0309   0.0915   0.0281  -0.0430   0.0479  -0.0238   0.00  905.6
2020/06/03 03:03:03.000  -2418076.8320   5386067.1431   2405174.2826         0.0038         0.0000         0.0000         0.0000     0.0000     0.0000   1   5   0.0309   0.0915   0.0281  -0.0430   0.0479  -0.0238   0.00  895.9
2020/06/03 03:03:04.000  -2418076.8415   5386067.2281   2405174.3138         0.0038         0.0000         0.0000         0.0000     0.0000     0.0000   1   5   0.0309   0.0915   0.0281  -0.0430   0.0479  -0.0238   0.00  886.2
2020/06/03 03:03:05.000  -2418076.8404   5386067.1375   2405174.2789         0.0038         0.0000         0.0000         0.0000     0.0000     0.0000   1   5   0.0309   0.0915   0.0281  -0.0430   0.0479  -0.0238   0.00  876.7
2020/06/03 03:03:06.000  -2418076.8554   5386067.1651   2405174.2907         0.0038         0.0000         0.0000         0.0000     0.0000     0.0000   1   5   0.0310   0.0914   0.0281  -0.0430   0.0479  -0.0238   0.00  867.2
2020/06/03 03:03:07.000  -2418076.8397   5386067.1728   2405174.2846         0.0038         0.0000         0.0000         0.0000     0.0000     0.0000   1   5   0.0310   0.0914   0.0281  -0.0430   0.0479  -0.0238   0.00  857.6
2020/06/03 03:03:08.000  -2418076.8383   5386067.1578   2405174.2752         0.0038         0.0000         0.0000         0.0000     0.0000     0.0000   1   5   0.0310   0.0914   0.0281  -0.0430   0.0479  -0.0238   0.00  848.1
2020/06/03 03:03:09.000  -2418076.8267   5386067.1580   2405174.2688         0.0038         0.0000         0.0000         0.0000     0.0000     0.0000   1   5   0.0310   0.0914   0.0281  -0.0430   0.0479  -0.0238   0.00  838.7
2020/06/03 03:03:10.000  -2418076.8913   5386067.2847   2405174.3192         0.0038         0.0000         0.0000         0.0000     0.0000     0.0000   1   5   0.0310   0.0914   0.0281  -0.0430   0.0479  -0.0238   0.00  829.5
2020/06/03 03:03:11.000  -2418076.8758   5386067.2045   2405174.3018         0.0038         0.0000         0.0000         0.0000     0.0000     0.0000   1   5   0.0309   0.0914   0.0281  -0.0430   0.0479  -0.0238   0.00  820.1
2020/06/03 03:03:12.000  -2418076.8819   5386067.2732   2405174.3118         0.0038         0.0000         0.0000         0.0000     0.0000     0.0000   1   5   0.0310   0.0914   0.0281  -0.0430   0.0479  -0.0238   0.00  811.3
2020/06/03 03:03:13.000  -2418076.5161   5386064.3588   2405173.1502         0.0038         0.0000         0.0000         0.0000     0.0000     0.0000   2   5   0.0219   0.0646   0.0198  -0.0304   0.0338  -0.0168   0.00    4.3
2020/06/03 03:03:14.004  -2418076.8618   5386067.1805   2405174.2891         0.0038         0.0000         0.0000         0.0000     0.0000     0.0000   1   5   0.0308   0.0908   0.0279  -0.0427   0.0476  -0.0237   0.00  793.4
2020/06/03 03:03:15.000  -2418076.8703   5386067.2714   2405174.3174         0.0038         0.0000         0.0000         0.0000     0.0000     0.0000   1   5   0.0309   0.0912   0.0281  -0.0429   0.0478  -0.0238   0.00  783.7
2020/06/03 03:03:16.000  -2418076.8504   5386067.2278   2405174.3122         0.0038         0.0000         0.0000         0.0000     0.0000     0.0000   1   5   0.0300   0.0860   0.0267  -0.0402   0.0450  -0.0224   0.00  775.1
2020/06/03 03:03:17.000  -2418074.0131   5386055.1671   2405171.0275         0.0038         0.0000         0.0000         0.0000     0.0000     0.0000   2   6   0.0186   0.0239   0.0130  -0.0154   0.0157  -0.0106   0.00   22.9
2020/06/03 03:03:18.000  -2418073.9977   5386055.1388   2405171.0247         0.0038         0.0000         0.0000         0.0000     0.0000     0.0000   2   5   0.0219   0.0644   0.0198  -0.0303   0.0337  -0.0168   0.00   13.4
2020/06/03 03:03:19.000  -2418076.8760   5386067.2878   2405174.3308         0.0038         0.0000         0.0000         0.0000     0.0000     0.0000   1   5   0.0295   0.0832   0.0260  -0.0387   0.0434  -0.0216   0.00  746.4
2020/06/03 03:03:20.000  -2418076.9213   5386067.4483   2405174.3644         0.0038         0.0000         0.0000         0.0000     0.0000     0.0000   1   6   0.0261   0.0332   0.0182  -0.0212   0.0217  -0.0146   0.00  194.2
2020/06/03 03:03:21.000  -2418076.9198   5386067.4327   2405174.3633         0.0038         0.0000         0.0000         0.0000     0.0000     0.0000   1   6   0.0261   0.0332   0.0182  -0.0212   0.0217  -0.0146   0.00  188.9
2020/06/03 03:03:22.000  -2418076.9450   5386067.4663   2405174.3806         0.0038         0.0000         0.0000         0.0000     0.0000     0.0000   1   6   0.0261   0.0332   0.0182  -0.0212   0.0217  -0.0146   0.00  188.4
2020/06/03 03:03:23.000  -2418076.9264   5386067.4386   2405174.3710         0.0038         0.0000         0.0000         0.0000     0.0000     0.0000   1   6   0.0261   0.0332   0.0182  -0.0212   0.0217  -0.0146   0.00  181.0
2020/06/03 03:03:24.000  -2418076.9151   5386067.4497   2405174.3768         0.0038         0.0000         0.0000         0.0000     0.0000     0.0000   1   6   0.0261   0.0332   0.0182  -0.0212   0.0217  -0.0146   0.00  174.9
2020/06/03 03:03:25.000  -2418076.9316   5386067.4849   2405174.3822         0.0038         0.0000         0.0000         0.0000     0.0000     0.0000   1   6   0.0261   0.0332   0.0182  -0.0212   0.0217  -0.0146   0.00  170.2
2020/06/03 03:03:26.000  -2418076.9434   5386067.5277   2405174.3973         0.0038         0.0000         0.0000         0.0000     0.0000     0.0000   1   6   0.0261   0.0332   0.0182  -0.0212   0.0217  -0.0146   0.00  167.7
2020/06/03 03:03:27.000  -2418076.9307   5386067.4660   2405174.3744         0.0038         0.0000         0.0000         0.0000     0.0000     0.0000   1   6   0.0261   0.0332   0.0182  -0.0212   0.0217  -0.0146   0.00  164.2
2020/06/03 03:03:28.000  -2418076.9332   5386067.5095   2405174.3880         0.0038         0.0000         0.0000         0.0000     0.0000     0.0000   1   6   0.0261   0.0332   0.0182  -0.0212   0.0217  -0.0146   0.00  156.2
2020/06/03 03:03:29.000  -2418071.8800   5386050.0215   2405169.9669         0.0038         0.0000         0.0000         0.0000     0.0000     0.0000   2   6   0.0185   0.0235   0.0129  -0.0150   0.0154  -0.0103   0.00    4.2
2020/06/03 03:03:30.000  -2418071.8869   5386050.0100   2405169.9548         0.0038         0.0000         0.0000         0.0000     0.0000     0.0000   2   6   0.0185   0.0235   0.0129  -0.0150   0.0154  -0.0103   0.00    7.1
2020/06/03 03:03:31.004  -2418071.8380   5386049.9376   2405169.9281         0.0038         0.0000         0.0000         0.0000     0.0000     0.0000   2   6   0.0185   0.0235   0.0129  -0.0150   0.0154  -0.0104   0.00    5.4
2020/06/03 03:03:32.000  -2418076.9312   5386067.4923   2405174.3893         0.0038         0.0000         0.0000         0.0000     0.0000     0.0000   1   6   0.0263   0.0337   0.0184  -0.0217   0.0221  -0.0149   0.00  133.1
2020/06/03 03:03:33.000  -2418076.9130   5386067.3725   2405174.3624         0.0038         0.0000         0.0000         0.0000     0.0000     0.0000   1   5   0.0309   0.0906   0.0279  -0.0427   0.0475  -0.0237   0.00  614.5
2020/06/03 03:03:34.000  -2418076.9489   5386067.5096   2405174.3942         0.0038         0.0000         0.0000         0.0000     0.0000     0.0000   1   5   0.0295   0.0831   0.0260  -0.0387   0.0434  -0.0216   0.00  605.7
2020/06/03 03:03:35.000  -2418076.9211   5386067.4332   2405174.3679         0.0038         0.0000         0.0000         0.0000     0.0000     0.0000   1   6   0.0261   0.0332   0.0182  -0.0212   0.0217  -0.0146   0.00  124.3
2020/06/03 03:03:36.000  -2418076.9087   5386067.3994   2405174.3602         0.0038         0.0000         0.0000         0.0000     0.0000     0.0000   1   6   0.0261   0.0332   0.0182  -0.0212   0.0217  -0.0146   0.00  118.1
2020/06/03 03:03:37.000  -2418076.9401   5386067.3752   2405174.3663         0.0038         0.0000         0.0000         0.0000     0.0000     0.0000   1   6   0.0262   0.0333   0.0182  -0.0213   0.0218  -0.0146   0.00  112.0
2020/06/03 03:03:38.000  -2418076.9260   5386067.3768   2405174.3611         0.0038         0.0000         0.0000         0.0000     0.0000     0.0000   1   6   0.0263   0.0337   0.0184  -0.0216   0.0221  -0.0149   0.00   98.4
2020/06/03 03:03:39.000  -2418073.1053   5386051.9451   2405170.2617         0.0038         0.0000         0.0000         0.0000     0.0000     0.0000   2   5   0.0209   0.0588   0.0184  -0.0274   0.0308  -0.0153   0.00   15.0
2020/06/03 03:03:40.000  -2418073.6615   5386051.1920   2405170.0122         0.0038         0.0000         0.0000         0.0000     0.0000     0.0000   2   6   0.0186   0.0237   0.0129  -0.0152   0.0155  -0.0104   0.00    3.8
2020/06/03 03:03:41.000  -2418073.4338   5386050.7730   2405169.8129         0.0038         0.0000         0.0000         0.0000     0.0000     0.0000   2   6   0.0186   0.0236   0.0129  -0.0152   0.0155  -0.0104   0.00    7.4
2020/06/03 03:03:42.000  -2418076.9048   5386067.3251   2405174.3422         0.0038         0.0000         0.0000         0.0000     0.0000     0.0000   1   5   0.0295   0.0829   0.0260  -0.0387   0.0434  -0.0216   0.00  436.6
2020/06/03 03:03:43.000  -2418073.6587   5386051.2153   2405170.0087         0.0038         0.0000         0.0000         0.0000     0.0000     0.0000   2   6   0.0185   0.0236   0.0129  -0.0151   0.0155  -0.0104   0.00    9.9
2020/06/03 03:03:44.000  -2418073.5691   5386051.0786   2405169.9382         0.0038         0.0000         0.0000         0.0000     0.0000     0.0000   2   6   0.0185   0.0234   0.0129  -0.0150   0.0154  -0.0103   0.00    4.9
2020/06/03 03:03:45.000  -2418076.9294   5386067.3600   2405174.3514         0.0038         0.0000         0.0000         0.0000     0.0000     0.0000   1   6   0.0261   0.0331   0.0182  -0.0211   0.0217  -0.0145   0.00   64.8
2020/06/03 03:03:46.000  -2418076.9036   5386067.3637   2405174.3430         0.0038         0.0000         0.0000         0.0000     0.0000     0.0000   1   6   0.0261   0.0331   0.0182  -0.0211   0.0217  -0.0145   0.00   61.7
2020/06/03 03:03:47.000  -2418076.9216   5386067.3994   2405174.3587         0.0038         0.0000         0.0000         0.0000     0.0000     0.0000   1   6   0.0261   0.0331   0.0182  -0.0211   0.0217  -0.0145   0.00   59.0
2020/06/03 03:03:48.000  -2418076.9102   5386067.3985   2405174.3756         0.0038         0.0000         0.0000         0.0000     0.0000     0.0000   1   6   0.0261   0.0331   0.0182  -0.0211   0.0217  -0.0145   0.00   56.7
2020/06/03 03:03:49.000  -2418076.8876   5386067.3509   2405174.3395         0.0038         0.0000         0.0000         0.0000     0.0000     0.0000   1   6   0.0261   0.0331   0.0182  -0.0211   0.0217  -0.0145   0.00   55.4
2020/06/03 03:03:50.000  -2418076.9052   5386067.4158   2405174.3612         0.0038         0.0000         0.0000         0.0000     0.0000     0.0000   1   6   0.0261   0.0331   0.0182  -0.0211   0.0217  -0.0145   0.00   54.4
2020/06/03 03:03:51.000  -2418076.9010   5386067.3996   2405174.3604         0.0038         0.0000         0.0000         0.0000     0.0000     0.0000   1   6   0.0261   0.0331   0.0182  -0.0211   0.0217  -0.0145   0.00   54.4
2020/06/03 03:03:52.000  -2418076.8759   5386067.4066   2405174.3641         0.0038         0.0000         0.0000         0.0000     0.0000     0.0000   1   6   0.0261   0.0330   0.0182  -0.0211   0.0217  -0.0145   0.00   52.2
2020/06/03 03:03:53.000  -2418076.8852   5386067.3767   2405174.3558         0.0038         0.0000         0.0000         0.0000     0.0000     0.0000   1   6   0.0261   0.0330   0.0182  -0.0211   0.0216  -0.0145   0.00   51.2
2020/06/03 03:03:54.000  -2418076.8986   5386067.4180   2405174.3680         0.0038         0.0000         0.0000         0.0000     0.0000     0.0000   1   6   0.0261   0.0330   0.0182  -0.0211   0.0216  -0.0145   0.00   51.5
2020/06/03 03:03:55.000  -2418076.8677   5386067.3986   2405174.3492         0.0038         0.0000         0.0000         0.0000     0.0000     0.0000   1   6   0.0261   0.0330   0.0182  -0.0211   0.0216  -0.0145   0.00   51.1
2020/06/03 03:03:56.000  -2418076.8657   5386067.3892   2405174.3618         0.0038         0.0000         0.0000         0.0000     0.0000     0.0000   1   6   0.0261   0.0330   0.0182  -0.0211   0.0216  -0.0145   0.00   49.6
2020/06/03 03:03:57.000  -2418076.8796   5386067.3843   2405174.3624         0.0038         0.0000         0.0000         0.0000     0.0000     0.0000   1   6   0.0261   0.0330   0.0182  -0.0211   0.0216  -0.0145   0.00   50.2
2020/06/03 03:03:58.000  -2418076.8617   5386067.3669   2405174.3481         0.0038         0.0000         0.0000         0.0000     0.0000     0.0000   1   6   0.0261   0.0330   0.0182  -0.0211   0.0216  -0.0145   0.00   49.4
2020/06/03 03:03:59.000  -2418076.8507   5386067.3830   2405174.3489         0.0038         0.0000         0.0000         0.0000     0.0000     0.0000   1   6   0.0261   0.0330   0.0182  -0.0211   0.0216  -0.0145   0.00   49.6
2020/06/03 03:04:00.000  -2418076.8317   5386067.3542   2405174.3426         0.0038         0.0000         0.0000         0.0000     0.0000     0.0000   1   6   0.0261   0.0330   0.0182  -0.0211   0.0216  -0.0145   0.00   50.7
2020/06/03 03:04:01.000  -2418076.8677   5386067.3727   2405174.3525         0.0038         0.0000         0.0000         0.0000     0.0000     0.0000   1   6   0.0261   0.0330   0.0182  -0.0211   0.0216  -0.0145   0.00   51.2
2020/06/03 03:04:02.000  -2418076.8471   5386067.3658   2405174.3470         0.0038         0.0000         0.0000         0.0000     0.0000     0.0000   1   6   0.0261   0.0330   0.0182  -0.0211   0.0216  -0.0145   0.00   51.4
2020/06/03 03:04:03.000  -2418076.8478   5386067.3489   2405174.3432         0.0038         0.0000         0.0000         0.0000     0.0000     0.0000   1   6   0.0261   0.0330   0.0182  -0.0211   0.0216  -0.0145   0.00   50.8
2020/06/03 03:04:04.000  -2418076.8488   5386067.3750   2405174.3515         0.0038         0.0000         0.0000         0.0000     0.0000     0.0000   1   6   0.0261   0.0330   0.0182  -0.0211   0.0216  -0.0145   0.00   50.0
2020/06/03 03:04:05.000  -2418076.8307   5386067.3427   2405174.3473         0.0038         0.0000         0.0000         0.0000     0.0000     0.0000   1   6   0.0261   0.0330   0.0182  -0.0211   0.0216  -0.0145   0.00   51.3
2020/06/03 03:04:06.000  -2418076.8321   5386067.3086   2405174.3208         0.0038         0.0000         0.0000         0.0000     0.0000     0.0000   1   6   0.0261   0.0330   0.0182  -0.0211   0.0216  -0.0145   0.00   49.4
2020/06/03 03:04:07.000  -2418076.8380   5386067.2755   2405174.3167         0.0038         0.0000         0.0000         0.0000     0.0000     0.0000   1   6   0.0261   0.0330   0.0182  -0.0211   0.0216  -0.0144   0.00   48.8
2020/06/03 03:04:08.000  -2418076.9424   5386064.6137   2405172.7114         0.0038         0.0000         0.0000         0.0000     0.0000     0.0000   2   6   0.0185   0.0233   0.0128  -0.0149   0.0153  -0.0102   0.00    3.1
2020/06/03 03:04:09.000  -2418076.9383   5386064.6245   2405172.7132         0.0038         0.0000         0.0000         0.0000     0.0000     0.0000   2   6   0.0184   0.0233   0.0128  -0.0149   0.0153  -0.0102   0.00    5.0
2020/06/03 03:04:10.000  -2418076.9307   5386064.6118   2405172.7117         0.0038         0.0000         0.0000         0.0000     0.0000     0.0000   2   6   0.0184   0.0233   0.0128  -0.0149   0.0153  -0.0102   0.00    8.2
2020/06/03 03:04:11.000  -2418076.9489   5386064.5924   2405172.6955         0.0039         0.0000         0.0000         0.0000     0.0000     0.0000   2   6   0.0184   0.0233   0.0128  -0.0149   0.0153  -0.0102   0.00   13.1
2020/06/03 03:04:12.000  -2418076.9567   5386064.6481   2405172.7279         0.0039         0.0000         0.0000         0.0000     0.0000     0.0000   2   6   0.0184   0.0233   0.0128  -0.0149   0.0153  -0.0102   0.00   22.5
2020/06/03 03:04:13.000  -2418076.9529   5386064.6228   2405172.7097         0.0039         0.0000         0.0000         0.0000     0.0000     0.0000   2   6   0.0184   0.0233   0.0128  -0.0149   0.0153  -0.0102   0.00   24.2
2020/06/03 03:04:14.000  -2418076.9506   5386064.6361   2405172.7286         0.0039         0.0000         0.0000         0.0000     0.0000     0.0000   2   6   0.0185   0.0233   0.0129  -0.0149   0.0153  -0.0102   0.00   14.5
2020/06/03 03:04:15.000  -2418076.9510   5386064.6784   2405172.7353         0.0039         0.0000         0.0000         0.0000     0.0000     0.0000   2   6   0.0185   0.0234   0.0129  -0.0149   0.0153  -0.0102   0.00    7.7
2020/06/03 03:04:16.000  -2418076.9514   5386064.6381   2405172.7148         0.0039         0.0000         0.0000         0.0000     0.0000     0.0000   2   6   0.0185   0.0235   0.0129  -0.0150   0.0154  -0.0103   0.00    3.9
2020/06/03 03:04:17.000  -2418076.7948   5386067.0659   2405174.2569         0.0039         0.0000         0.0000         0.0000     0.0000     0.0000   1   5   0.0310   0.0904   0.0280  -0.0428   0.0475  -0.0237   0.00  500.1
2020/06/03 03:04:18.000  -2418076.8037   5386067.1189   2405174.2717         0.0039         0.0000         0.0000         0.0000     0.0000     0.0000   1   5   0.0298   0.0841   0.0264  -0.0395   0.0441  -0.0220   0.00  495.4
2020/06/03 03:04:19.000  -2418076.8632   5386067.3503   2405174.3280         0.0039         0.0000         0.0000         0.0000     0.0000     0.0000   1   6   0.0263   0.0334   0.0184  -0.0215   0.0220  -0.0147   0.00   29.4
2020/06/03 03:04:20.000  -2418076.8310   5386067.1496   2405174.2784         0.0039         0.0000         0.0000         0.0000     0.0000     0.0000   1   5   0.0296   0.0826   0.0260  -0.0387   0.0433  -0.0216   0.00  494.5
2020/06/03 03:04:21.000  -2418075.3289   5386063.7196   2405172.7874         0.0039         0.0000         0.0000         0.0000     0.0000     0.0000   2   6   0.0185   0.0234   0.0129  -0.0150   0.0154  -0.0103   0.00    5.9
2020/06/03 03:04:22.000  -2418075.3153   5386063.6824   2405172.7707         0.0039         0.0000         0.0000         0.0000     0.0000     0.0000   2   6   0.0185   0.0233   0.0129  -0.0149   0.0153  -0.0102   0.00   11.7
2020/06/03 03:04:23.000  -2418075.2948   5386063.6560   2405172.7581         0.0039         0.0000         0.0000         0.0000     0.0000     0.0000   2   6   0.0184   0.0233   0.0129  -0.0149   0.0153  -0.0102   0.00   18.8
2020/06/03 03:04:24.000  -2418075.3002   5386063.6642   2405172.7587         0.0039         0.0000         0.0000         0.0000     0.0000     0.0000   2   6   0.0184   0.0232   0.0128  -0.0149   0.0152  -0.0102   0.00   22.1
2020/06/03 03:04:25.000  -2418075.3074   5386063.6591   2405172.7632         0.0039         0.0000         0.0000         0.0000     0.0000     0.0000   2   6   0.0184   0.0232   0.0128  -0.0149   0.0152  -0.0102   0.00   18.7
2020/06/03 03:04:26.000  -2418075.3147   5386063.6912   2405172.7718         0.0039         0.0000         0.0000         0.0000     0.0000     0.0000   2   6   0.0184   0.0232   0.0128  -0.0149   0.0152  -0.0102   0.00   13.5
2020/06/03 03:04:27.000  -2418075.3133   5386063.6784   2405172.7722         0.0039         0.0000         0.0000         0.0000     0.0000     0.0000   2   6   0.0184   0.0232   0.0128  -0.0148   0.0152  -0.0102   0.00    9.7
2020/06/03 03:04:28.000  -2418075.3145   5386063.7040   2405172.7753         0.0039         0.0000         0.0000         0.0000     0.0000     0.0000   2   6   0.0184   0.0232   0.0128  -0.0148   0.0152  -0.0102   0.00    7.5
2020/06/03 03:04:29.000  -2418075.3312   5386063.7039   2405172.7728         0.0039         0.0000         0.0000         0.0000     0.0000     0.0000   2   6   0.0184   0.0232   0.0128  -0.0148   0.0152  -0.0102   0.00    5.5
2020/06/03 03:04:30.000  -2418075.3085   5386063.6907   2405172.7754         0.0039         0.0000         0.0000         0.0000     0.0000     0.0000   2   6   0.0184   0.0232   0.0129  -0.0148   0.0152  -0.0102   0.00    4.3
2020/06/03 03:04:31.000  -2418075.3082   5386063.6697   2405172.7536         0.0039         0.0000         0.0000         0.0000     0.0000     0.0000   2   6   0.0185   0.0233   0.0129  -0.0149   0.0153  -0.0102   0.00  999.9
2020/06/03 03:04:32.000  -2418075.2833   5386063.5776   2405172.7241         0.0039         0.0000         0.0000         0.0000     0.0000     0.0000   2   6   0.0185   0.0234   0.0129  -0.0150   0.0154  -0.0103   0.00  999.9
2020/06/03 03:04:33.000  -2418075.2097   5386063.2062   2405172.6447         0.0039         0.0000         0.0000         0.0000     0.0000     0.0000   2   5   0.0214   0.0608   0.0190  -0.0287   0.0319  -0.0159   0.00  999.9
2020/06/03 03:04:34.000  -2418075.3849   5386063.8917   2405172.8284         0.0039         0.0000         0.0000         0.0000     0.0000     0.0000   2   5   0.0214   0.0609   0.0190  -0.0287   0.0319  -0.0160   0.00  999.9
2020/06/03 03:04:35.000  -2418075.3436   5386063.6553   2405172.7696         0.0039         0.0000         0.0000         0.0000     0.0000     0.0000   2   6   0.0185   0.0234   0.0129  -0.0150   0.0154  -0.0103   0.00  999.9
2020/06/03 03:04:36.000  -2418075.3369   5386063.6638   2405172.7754         0.0039         0.0000         0.0000         0.0000     0.0000     0.0000   2   6   0.0185   0.0233   0.0129  -0.0149   0.0153  -0.0102   0.00  999.9
2020/06/03 03:04:37.000  -2418075.3204   5386063.6175   2405172.7604         0.0039         0.0000         0.0000         0.0000     0.0000     0.0000   2   6   0.0184   0.0232   0.0129  -0.0148   0.0152  -0.0101   0.00  999.9
2020/06/03 03:04:38.000  -2418075.2877   5386063.5824   2405172.7374         0.0039         0.0000         0.0000         0.0000     0.0000     0.0000   2   6   0.0184   0.0232   0.0128  -0.0148   0.0152  -0.0101   0.00  999.9
2020/06/03 03:04:39.000  -2418075.2964   5386063.6038   2405172.7479         0.0039         0.0000         0.0000         0.0000     0.0000     0.0000   2   6   0.0184   0.0231   0.0128  -0.0148   0.0152  -0.0101   0.00  999.9
2020/06/03 03:04:40.000  -2418075.7325   5386063.9426   2405172.9689         0.0039         0.0000         0.0000         0.0000     0.0000     0.0000   2   7   0.0159   0.0222   0.0120  -0.0125   0.0142  -0.0078   0.00  999.9
2020/06/03 03:04:41.000  -2418075.4996   5386063.7640   2405172.8600         0.0039         0.0000         0.0000         0.0000     0.0000     0.0000   2   7   0.0153   0.0220   0.0119  -0.0121   0.0140  -0.0072   0.00  999.9
2020/06/03 03:04:42.000  -2418075.3147   5386063.6105   2405172.7638         0.0039         0.0000         0.0000         0.0000     0.0000     0.0000   2   7   0.0150   0.0218   0.0118  -0.0117   0.0138  -0.0069   0.00  999.9
2020/06/03 03:04:43.000  -2418075.2027   5386063.4791   2405172.6970         0.0039         0.0000         0.0000         0.0000     0.0000     0.0000   2   7   0.0150   0.0218   0.0118  -0.0117   0.0138  -0.0069   0.00  999.9
2020/06/03 03:04:44.000  -2418073.6773   5386059.8292   2405171.1513         0.0039         0.0000         0.0000         0.0000     0.0000     0.0000   1   7   0.0206   0.0305   0.0164  -0.0159   0.0192  -0.0089   0.00  999.9
2020/06/03 03:04:45.000  -2418073.6876   5386059.8856   2405171.1789         0.0039         0.0000         0.0000         0.0000     0.0000     0.0000   1   7   0.0203   0.0304   0.0163  -0.0156   0.0191  -0.0086   0.00  812.4
2020/06/03 03:04:46.000  -2418075.0715   5386063.0615   2405172.5843         0.0039         0.0000         0.0000         0.0000     0.0000     0.0000   2   6   0.0152   0.0558   0.0164  -0.0218   0.0281  -0.0105   0.00    9.1
2020/06/03 03:04:47.000  -2418075.1279   5386063.3351   2405172.6538         0.0039         0.0000         0.0000         0.0000     0.0000     0.0000   2   6   0.0155   0.0581   0.0169  -0.0228   0.0293  -0.0111   0.00   15.8
2020/06/03 03:04:48.000  -2418075.1368   5386063.3629   2405172.6657         0.0039         0.0000         0.0000         0.0000     0.0000     0.0000   2   6   0.0155   0.0581   0.0169  -0.0228   0.0293  -0.0110   0.00   16.3
2020/06/03 03:04:49.000  -2418075.1144   5386063.3335   2405172.6595         0.0039         0.0000         0.0000         0.0000     0.0000     0.0000   2   6   0.0155   0.0582   0.0169  -0.0229   0.0293  -0.0111   0.00   18.0
2020/06/03 03:04:50.000  -2418075.1170   5386063.3145   2405172.6601         0.0039         0.0000         0.0000         0.0000     0.0000     0.0000   2   6   0.0155   0.0582   0.0170  -0.0229   0.0293  -0.0111   0.00   20.3
2020/06/03 03:04:51.000  -2418075.1223   5386063.3686   2405172.6600         0.0039         0.0000         0.0000         0.0000     0.0000     0.0000   2   6   0.0155   0.0582   0.0169  -0.0229   0.0293  -0.0111   0.00   22.7
2020/06/03 03:04:52.000  -2418075.1264   5386063.3862   2405172.6717         0.0039         0.0000         0.0000         0.0000     0.0000     0.0000   2   6   0.0155   0.0582   0.0169  -0.0229   0.0293  -0.0111   0.00   23.9
2020/06/03 03:04:53.000  -2418075.1366   5386063.4156   2405172.6813         0.0039         0.0000         0.0000         0.0000     0.0000     0.0000   2   6   0.0155   0.0582   0.0169  -0.0229   0.0293  -0.0111   0.00   24.1
2020/06/03 03:04:54.000  -2418075.1020   5386063.3546   2405172.6658         0.0039         0.0000         0.0000         0.0000     0.0000     0.0000   2   6   0.0155   0.0582   0.0169  -0.0228   0.0293  -0.0111   0.00   23.5
2020/06/03 03:04:55.000  -2418075.1137   5386063.3729   2405172.6709         0.0039         0.0000         0.0000         0.0000     0.0000     0.0000   2   6   0.0155   0.0581   0.0169  -0.0228   0.0293  -0.0110   0.00   24.1
2020/06/03 03:04:56.000  -2418075.1130   5386063.3353   2405172.6654         0.0039         0.0000         0.0000         0.0000     0.0000     0.0000   2   6   0.0155   0.0581   0.0169  -0.0228   0.0293  -0.0110   0.00   24.8
2020/06/03 03:04:57.000  -2418075.0993   5386063.2611   2405172.6369         0.0039         0.0000         0.0000         0.0000     0.0000     0.0000   2   6   0.0155   0.0581   0.0169  -0.0228   0.0293  -0.0110   0.00   26.3
2020/06/03 03:04:58.000  -2418075.1083   5386063.2864   2405172.6490         0.0039         0.0000         0.0000         0.0000     0.0000     0.0000   2   6   0.0155   0.0581   0.0169  -0.0228   0.0293  -0.0110   0.00   27.1
2020/06/03 03:04:59.000  -2418075.1023   5386063.2352   2405172.6386         0.0039         0.0000         0.0000         0.0000     0.0000     0.0000   2   6   0.0155   0.0581   0.0169  -0.0228   0.0293  -0.0110   0.00   29.0
2020/06/03 03:05:00.000  -2418075.1220   5386063.2807   2405172.6447         0.0039         0.0000         0.0000         0.0000     0.0000     0.0000   2   6   0.0155   0.0581   0.0169  -0.0228   0.0292  -0.0110   0.00   30.6
2020/06/03 03:05:01.000  -2418075.1109   5386063.2921   2405172.6489         0.0039         0.0000         0.0000         0.0000     0.0000     0.0000   2   6   0.0155   0.0580   0.0169  -0.0228   0.0292  -0.0110   0.00   31.6
2020/06/03 03:05:02.000  -2418075.1249   5386063.3284   2405172.6625         0.0039         0.0000         0.0000         0.0000     0.0000     0.0000   2   6   0.0155   0.0580   0.0169  -0.0228   0.0292  -0.0110   0.00   32.2
2020/06/03 03:05:03.000  -2418075.1345   5386063.3478   2405172.6527         0.0039         0.0000         0.0000         0.0000     0.0000     0.0000   2   6   0.0155   0.0580   0.0169  -0.0228   0.0292  -0.0110   0.00   32.7
2020/06/03 03:05:04.000  -2418075.1186   5386063.2779   2405172.6411         0.0039         0.0000         0.0000         0.0000     0.0000     0.0000   2   6   0.0154   0.0580   0.0169  -0.0228   0.0292  -0.0110   0.00   33.8
2020/06/03 03:05:05.000  -2418075.1296   5386063.3058   2405172.6485         0.0039         0.0000         0.0000         0.0000     0.0000     0.0000   2   6   0.0154   0.0580   0.0169  -0.0228   0.0292  -0.0110   0.00   34.7
2020/06/03 03:05:06.000  -2418075.1227   5386063.3099   2405172.6552         0.0039         0.0000         0.0000         0.0000     0.0000     0.0000   2   6   0.0154   0.0580   0.0169  -0.0228   0.0292  -0.0110   0.00   35.4
2020/06/03 03:05:07.000  -2418075.1285   5386063.2867   2405172.6459         0.0039         0.0000         0.0000         0.0000     0.0000     0.0000   2   6   0.0154   0.0579   0.0169  -0.0227   0.0292  -0.0110   0.00   36.6
2020/06/03 03:05:08.000  -2418075.1214   5386063.3164   2405172.6516         0.0039         0.0000         0.0000         0.0000     0.0000     0.0000   2   6   0.0154   0.0579   0.0169  -0.0227   0.0292  -0.0110   0.00   38.2
2020/06/03 03:05:09.000  -2418075.1302   5386063.2818   2405172.6419         0.0039         0.0000         0.0000         0.0000     0.0000     0.0000   2   6   0.0154   0.0579   0.0169  -0.0227   0.0292  -0.0110   0.00   39.5
2020/06/03 03:05:10.000  -2418075.1413   5386063.3336   2405172.6558         0.0039         0.0000         0.0000         0.0000     0.0000     0.0000   2   6   0.0154   0.0577   0.0169  -0.0227   0.0291  -0.0109   0.00   40.7
2020/06/03 03:05:11.000  -2418075.1322   5386063.3307   2405172.6556         0.0039         0.0000         0.0000         0.0000     0.0000     0.0000   2   6   0.0154   0.0577   0.0169  -0.0226   0.0291  -0.0109   0.00   41.7
2020/06/03 03:05:12.000  -2418075.2032   5386063.7312   2405172.7620         0.0039         0.0000         0.0000         0.0000     0.0000     0.0000   2   6   0.0152   0.0554   0.0163  -0.0216   0.0279  -0.0104   0.00   43.2
2020/06/03 03:05:13.000  -2418075.4780   5386065.7493   2405173.2146         0.0039         0.0000         0.0000         0.0000     0.0000     0.0000   2   6   0.0136   0.0271   0.0119  -0.0119   0.0155  -0.0057   0.00   45.2
2020/06/03 03:05:14.000  -2418075.4852   5386065.7267   2405173.2167         0.0039         0.0000         0.0000         0.0000     0.0000     0.0000   2   6   0.0136   0.0271   0.0119  -0.0119   0.0155  -0.0057   0.00   46.3
2020/06/03 03:05:15.000  -2418075.4973   5386065.7576   2405173.2315         0.0039         0.0000         0.0000         0.0000     0.0000     0.0000   2   6   0.0136   0.0271   0.0119  -0.0119   0.0155  -0.0057   0.00   46.3
2020/06/03 03:05:16.000  -2418075.4946   5386065.7600   2405173.2262         0.0039         0.0000         0.0000         0.0000     0.0000     0.0000   2   6   0.0136   0.0271   0.0119  -0.0119   0.0155  -0.0057   0.00   48.1
2020/06/03 03:05:17.000  -2418075.4841   5386065.7471   2405173.2239         0.0039         0.0000         0.0000         0.0000     0.0000     0.0000   2   6   0.0136   0.0270   0.0119  -0.0119   0.0155  -0.0057   0.00   50.4
2020/06/03 03:05:18.000  -2418075.4859   5386065.7507   2405173.2252         0.0039         0.0000         0.0000         0.0000     0.0000     0.0000   2   6   0.0136   0.0270   0.0119  -0.0119   0.0155  -0.0057   0.00   53.4
2020/06/03 03:05:19.000  -2418075.4958   5386065.7353   2405173.2296         0.0039         0.0000         0.0000         0.0000     0.0000     0.0000   2   6   0.0136   0.0270   0.0119  -0.0119   0.0155  -0.0057   0.00   53.9
2020/06/03 03:05:20.000  -2418075.4983   5386065.7666   2405173.2324         0.0039         0.0000         0.0000         0.0000     0.0000     0.0000   2   6   0.0136   0.0270   0.0119  -0.0118   0.0155  -0.0057   0.00   52.5
2020/06/03 03:05:21.000  -2418075.4975   5386065.7506   2405173.2308         0.0039         0.0000         0.0000         0.0000     0.0000     0.0000   2   6   0.0136   0.0270   0.0119  -0.0118   0.0154  -0.0057   0.00   52.2
2020/06/03 03:05:22.000  -2418075.4964   5386065.7404   2405173.2245         0.0039         0.0000         0.0000         0.0000     0.0000     0.0000   2   6   0.0136   0.0270   0.0119  -0.0118   0.0154  -0.0056   0.00   53.4
2020/06/03 03:05:23.000  -2418075.4935   5386065.7485   2405173.2298         0.0039         0.0000         0.0000         0.0000     0.0000     0.0000   2   6   0.0136   0.0270   0.0119  -0.0118   0.0154  -0.0056   0.00   54.9
2020/06/03 03:05:24.000  -2418075.4974   5386065.7628   2405173.2364         0.0039         0.0000         0.0000         0.0000     0.0000     0.0000   2   6   0.0136   0.0270   0.0119  -0.0118   0.0154  -0.0056   0.00   53.3
2020/06/03 03:05:25.000  -2418075.5053   5386065.7689   2405173.2341         0.0039         0.0000         0.0000         0.0000     0.0000     0.0000   2   6   0.0136   0.0270   0.0119  -0.0118   0.0154  -0.0056   0.00   52.9
2020/06/03 03:05:26.000  -2418075.4972   5386065.7549   2405173.2340         0.0039         0.0000         0.0000         0.0000     0.0000     0.0000   2   6   0.0136   0.0270   0.0119  -0.0118   0.0154  -0.0056   0.00   52.7
2020/06/03 03:05:27.000  -2418075.4975   5386065.7517   2405173.2308         0.0039         0.0000         0.0000         0.0000     0.0000     0.0000   2   6   0.0136   0.0270   0.0119  -0.0118   0.0154  -0.0056   0.00   53.6
2020/06/03 03:05:28.000  -2418075.5079   5386065.7589   2405173.2271         0.0039         0.0000         0.0000         0.0000     0.0000     0.0000   2   6   0.0136   0.0270   0.0119  -0.0118   0.0154  -0.0056   0.00   53.2
2020/06/03 03:05:29.000  -2418075.4934   5386065.7429   2405173.2288         0.0039         0.0000         0.0000         0.0000     0.0000     0.0000   2   6   0.0136   0.0270   0.0119  -0.0118   0.0154  -0.0056   0.00   52.6
2020/06/03 03:05:30.000  -2418075.4958   5386065.7581   2405173.2335         0.0039         0.0000         0.0000         0.0000     0.0000     0.0000   2   6   0.0136   0.0270   0.0119  -0.0118   0.0154  -0.0056   0.00   52.5
2020/06/03 03:05:31.000  -2418075.4932   5386065.7382   2405173.2221         0.0039         0.0000         0.0000         0.0000     0.0000     0.0000   2   6   0.0136   0.0270   0.0119  -0.0118   0.0154  -0.0056   0.00   50.8
2020/06/03 03:05:32.000  -2418075.5101   5386065.7537   2405173.2288         0.0039         0.0000         0.0000         0.0000     0.0000     0.0000   2   6   0.0136   0.0270   0.0119  -0.0118   0.0154  -0.0056   0.00   50.1
2020/06/03 03:05:33.000  -2418075.4985   5386065.7598   2405173.2347         0.0039         0.0000         0.0000         0.0000     0.0000     0.0000   2   6   0.0136   0.0271   0.0120  -0.0119   0.0155  -0.0057   0.00   50.4
2020/06/03 03:05:34.000  -2418075.4802   5386065.6780   2405173.2008         0.0039         0.0000         0.0000         0.0000     0.0000     0.0000   2   6   0.0136   0.0272   0.0120  -0.0120   0.0156  -0.0057   0.00   49.8
2020/06/03 03:05:35.000  -2418075.1697   5386063.4943   2405172.7010         0.0039         0.0000         0.0000         0.0000     0.0000     0.0000   2   6   0.0154   0.0575   0.0168  -0.0225   0.0290  -0.0108   0.00   49.4
2020/06/03 03:05:36.000  -2418075.1678   5386063.5106   2405172.7100         0.0039         0.0000         0.0000         0.0000     0.0000     0.0000   2   6   0.0154   0.0573   0.0168  -0.0225   0.0289  -0.0108   0.00   47.5
2020/06/03 03:05:37.000  -2418075.1582   5386063.5058   2405172.7131         0.0039         0.0000         0.0000         0.0000     0.0000     0.0000   2   6   0.0154   0.0574   0.0168  -0.0225   0.0289  -0.0108   0.00   46.3
2020/06/03 03:05:38.000  -2418075.1974   5386063.6881   2405172.7565         0.0039         0.0000         0.0000         0.0000     0.0000     0.0000   2   6   0.0153   0.0561   0.0165  -0.0219   0.0282  -0.0105   0.00   43.7
2020/06/03 03:05:39.000  -2418075.4763   5386065.7401   2405173.2351         0.0039         0.0000         0.0000         0.0000     0.0000     0.0000   2   6   0.0136   0.0272   0.0120  -0.0120   0.0156  -0.0057   0.00   42.5
2020/06/03 03:05:40.000  -2418075.1545   5386063.4619   2405172.6915         0.0039         0.0000         0.0000         0.0000     0.0000     0.0000   2   6   0.0154   0.0574   0.0168  -0.0225   0.0289  -0.0108   0.00   41.5
2020/06/03 03:05:41.000  -2418075.1763   5386063.5423   2405172.7237         0.0039         0.0000         0.0000         0.0000     0.0000     0.0000   2   6   0.0154   0.0572   0.0168  -0.0224   0.0288  -0.0108   0.00   39.6
2020/06/03 03:05:42.000  -2418075.1592   5386063.4682   2405172.6967         0.0039         0.0000         0.0000         0.0000     0.0000     0.0000   2   6   0.0154   0.0573   0.0168  -0.0224   0.0289  -0.0108   0.00   39.3
2020/06/03 03:05:43.000  -2418075.2044   5386063.7434   2405172.7681         0.0039         0.0000         0.0000         0.0000     0.0000     0.0000   2   6   0.0152   0.0556   0.0164  -0.0217   0.0280  -0.0104   0.00   39.3
2020/06/03 03:05:44.000  -2418075.4816   5386065.7422   2405173.2313         0.0039         0.0000         0.0000         0.0000     0.0000     0.0000   2   6   0.0136   0.0272   0.0120  -0.0119   0.0156  -0.0057   0.00   39.0
2020/06/03 03:05:45.000  -2418075.2104   5386063.8251   2405172.8009         0.0039         0.0000         0.0000         0.0000     0.0000     0.0000   2   6   0.0151   0.0549   0.0162  -0.0214   0.0277  -0.0102   0.00   38.4
2020/06/03 03:05:46.000  -2418075.4745   5386065.7850   2405173.2556         0.0039         0.0000         0.0000         0.0000     0.0000     0.0000   2   6   0.0136   0.0269   0.0119  -0.0118   0.0154  -0.0055   0.00   37.7
2020/06/03 03:05:47.000  -2418075.4909   5386065.8333   2405173.2701         0.0039         0.0000         0.0000         0.0000     0.0000     0.0000   2   6   0.0136   0.0269   0.0119  -0.0118   0.0154  -0.0055   0.00   38.0
2020/06/03 03:05:48.000  -2418075.4741   5386065.8018   2405173.2507         0.0039         0.0000         0.0000         0.0000     0.0000     0.0000   2   6   0.0136   0.0269   0.0119  -0.0118   0.0154  -0.0055   0.00   38.4
2020/06/03 03:05:49.000  -2418075.4797   5386065.8289   2405173.2760         0.0039         0.0000         0.0000         0.0000     0.0000     0.0000   2   6   0.0136   0.0269   0.0119  -0.0118   0.0154  -0.0055   0.00   38.2
2020/06/03 03:05:50.000  -2418075.4740   5386065.8186   2405173.2614         0.0039         0.0000         0.0000         0.0000     0.0000     0.0000   2   6   0.0136   0.0269   0.0119  -0.0117   0.0154  -0.0055   0.00   38.9
2020/06/03 03:05:51.000  -2418075.4781   5386065.8506   2405173.2701         0.0039         0.0000         0.0000         0.0000     0.0000     0.0000   2   6   0.0136   0.0269   0.0119  -0.0117   0.0154  -0.0055   0.00   39.6
2020/06/03 03:05:52.000  -2418075.4812   5386065.8015   2405173.2649         0.0039         0.0000         0.0000         0.0000     0.0000     0.0000   2   6   0.0136   0.0269   0.0119  -0.0117   0.0154  -0.0055   0.00   39.7
2020/06/03 03:05:53.000  -2418076.7596   5386067.3784   2405174.3402         0.0039         0.0000         0.0000         0.0000     0.0000     0.0000   1   7   0.0189   0.0295   0.0159  -0.0139   0.0184  -0.0064   0.00   18.4
2020/06/03 03:05:54.000  -2418076.7634   5386067.3400   2405174.3273         0.0039         0.0000         0.0000         0.0000     0.0000     0.0000   1   7   0.0189   0.0295   0.0159  -0.0139   0.0184  -0.0064   0.00   17.5
2020/06/03 03:05:55.000  -2418076.7657   5386067.3149   2405174.3130         0.0039         0.0000         0.0000         0.0000     0.0000     0.0000   1   7   0.0189   0.0295   0.0159  -0.0139   0.0184  -0.0064   0.00   16.3
2020/06/03 03:05:56.000  -2418076.7650   5386067.3204   2405174.3169         0.0039         0.0000         0.0000         0.0000     0.0000     0.0000   1   7   0.0189   0.0295   0.0159  -0.0139   0.0184  -0.0064   0.00   14.4
2020/06/03 03:05:57.000  -2418076.7662   5386067.3199   2405174.3130         0.0039         0.0000         0.0000         0.0000     0.0000     0.0000   1   7   0.0189   0.0295   0.0159  -0.0139   0.0184  -0.0064   0.00   12.9
2020/06/03 03:05:58.000  -2418076.7510   5386067.2933   2405174.3077         0.0039         0.0000         0.0000         0.0000     0.0000     0.0000   1   7   0.0189   0.0295   0.0159  -0.0139   0.0184  -0.0064   0.00   10.9
2020/06/03 03:05:59.000  -2418076.7661   5386067.3270   2405174.3233         0.0039         0.0000         0.0000         0.0000     0.0000     0.0000   1   7   0.0189   0.0295   0.0159  -0.0139   0.0184  -0.0064   0.00    8.9
2020/06/03 03:06:00.000  -2418076.7729   5386067.3489   2405174.3257         0.0039         0.0000         0.0000         0.0000     0.0000     0.0000   1   7   0.0189   0.0294   0.0159  -0.0139   0.0184  -0.0064   0.00    7.0
2020/06/03 03:06:01.000  -2418076.7585   5386067.3161   2405174.3158         0.0039         0.0000         0.0000         0.0000     0.0000     0.0000   1   7   0.0189   0.0294   0.0159  -0.0139   0.0184  -0.0064   0.00    6.2
2020/06/03 03:06:02.000  -2418076.7509   5386067.3069   2405174.3225         0.0039         0.0000         0.0000         0.0000     0.0000     0.0000   1   7   0.0189   0.0294   0.0159  -0.0139   0.0184  -0.0063   0.00    6.4
2020/06/03 03:06:03.000  -2418076.7568   5386067.3077   2405174.3155         0.0039         0.0000         0.0000         0.0000     0.0000     0.0000   1   7   0.0189   0.0294   0.0159  -0.0139   0.0184  -0.0063   0.00    5.8
2020/06/03 03:06:04.000  -2418076.7477   5386067.2938   2405174.3243         0.0039         0.0000         0.0000         0.0000     0.0000     0.0000   1   7   0.0189   0.0294   0.0159  -0.0139   0.0184  -0.0063   0.00    5.3
2020/06/03 03:06:05.000  -2418076.7561   5386067.2911   2405174.3106         0.0039         0.0000         0.0000         0.0000     0.0000     0.0000   1   7   0.0189   0.0294   0.0159  -0.0139   0.0184  -0.0063   0.00    4.7
2020/06/03 03:06:06.000  -2418075.1714   5386063.6345   2405172.7447         0.0039         0.0000         0.0000         0.0000     0.0000     0.0000   2   7   0.0134   0.0208   0.0112  -0.0098   0.0130  -0.0045   0.00    3.0
2020/06/03 03:06:07.000  -2418075.1677   5386063.6108   2405172.7256         0.0039         0.0000         0.0000         0.0000     0.0000     0.0000   2   7   0.0134   0.0208   0.0113  -0.0098   0.0130  -0.0045   0.00    3.2
2020/06/03 03:06:08.000  -2418075.1603   5386063.5397   2405172.7082         0.0039         0.0000         0.0000         0.0000     0.0000     0.0000   2   7   0.0134   0.0209   0.0113  -0.0099   0.0131  -0.0046   0.00    3.5
2020/06/03 03:06:09.000  -2418075.0931   5386063.1360   2405172.6159         0.0039         0.0000         0.0000         0.0000     0.0000     0.0000   2   6   0.0151   0.0546   0.0162  -0.0213   0.0275  -0.0101   0.00   49.4
2020/06/03 03:06:10.000  -2418073.5994   5386059.9873   2405171.1650         0.0039         0.0000         0.0000         0.0000     0.0000     0.0000   1   7   0.0190   0.0298   0.0160  -0.0141   0.0186  -0.0065   0.00    3.7
2020/06/03 03:06:11.000  -2418075.1073   5386063.1559   2405172.6234         0.0039         0.0000         0.0000         0.0000     0.0000     0.0000   2   6   0.0152   0.0552   0.0163  -0.0215   0.0278  -0.0102   0.00   52.3
2020/06/03 03:06:12.000  -2418075.1520   5386063.4100   2405172.6881         0.0039         0.0000         0.0000         0.0000     0.0000     0.0000   2   6   0.0153   0.0568   0.0167  -0.0222   0.0286  -0.0106   0.00   52.1
2020/06/03 03:06:13.000  -2418075.1674   5386063.4634   2405172.6983         0.0039         0.0000         0.0000         0.0000     0.0000     0.0000   2   6   0.0153   0.0567   0.0167  -0.0222   0.0286  -0.0106   0.00   53.6
2020/06/03 03:06:14.000  -2418075.1671   5386063.5079   2405172.7158         0.0039         0.0000         0.0000         0.0000     0.0000     0.0000   2   6   0.0153   0.0568   0.0167  -0.0222   0.0287  -0.0106   0.00   54.5
2020/06/03 03:06:15.000  -2418075.1691   5386063.5465   2405172.7230         0.0039         0.0000         0.0000         0.0000     0.0000     0.0000   2   6   0.0154   0.0568   0.0167  -0.0222   0.0287  -0.0106   0.00   56.4
2020/06/03 03:06:16.000  -2418075.1805   5386063.5620   2405172.7278         0.0039         0.0000         0.0000         0.0000     0.0000     0.0000   2   6   0.0153   0.0568   0.0167  -0.0222   0.0286  -0.0106   0.00   59.3
2020/06/03 03:06:17.000  -2418075.1759   5386063.5948   2405172.7378         0.0039         0.0000         0.0000         0.0000     0.0000     0.0000   2   6   0.0153   0.0568   0.0167  -0.0222   0.0286  -0.0106   0.00   59.7
2020/06/03 03:06:18.000  -2418075.1779   5386063.5348   2405172.7184         0.0039         0.0000         0.0000         0.0000     0.0000     0.0000   2   6   0.0153   0.0568   0.0167  -0.0222   0.0286  -0.0106   0.00   64.2
2020/06/03 03:06:19.000  -2418075.1865   5386063.6075   2405172.7453         0.0039         0.0000         0.0000         0.0000     0.0000     0.0000   2   6   0.0153   0.0568   0.0167  -0.0222   0.0286  -0.0106   0.00   66.4
2020/06/03 03:06:20.000  -2418075.1728   5386063.5789   2405172.7282         0.0039         0.0000         0.0000         0.0000     0.0000     0.0000   2   6   0.0153   0.0568   0.0167  -0.0222   0.0286  -0.0106   0.00   68.4
2020/06/03 03:06:21.000  -2418075.1667   5386063.5681   2405172.7305         0.0039         0.0000         0.0000         0.0000     0.0000     0.0000   2   6   0.0153   0.0567   0.0167  -0.0222   0.0286  -0.0106   0.00   71.6
2020/06/03 03:06:22.000  -2418075.1764   5386063.5910   2405172.7327         0.0039         0.0000         0.0000         0.0000     0.0000     0.0000   2   6   0.0153   0.0567   0.0167  -0.0222   0.0286  -0.0106   0.00   73.2
2020/06/03 03:06:23.000  -2418075.1752   5386063.6101   2405172.7454         0.0039         0.0000         0.0000         0.0000     0.0000     0.0000   2   6   0.0153   0.0567   0.0167  -0.0222   0.0286  -0.0106   0.00   74.8
2020/06/03 03:06:24.000  -2418075.1863   5386063.5985   2405172.7245         0.0039         0.0000         0.0000         0.0000     0.0000     0.0000   2   6   0.0153   0.0567   0.0167  -0.0222   0.0286  -0.0106   0.00   76.5
2020/06/03 03:06:25.000  -2418075.1651   5386063.5396   2405172.7175         0.0039         0.0000         0.0000         0.0000     0.0000     0.0000   2   6   0.0153   0.0567   0.0167  -0.0221   0.0286  -0.0106   0.00   79.2
2020/06/03 03:06:26.000  -2418075.1742   5386063.6200   2405172.7384         0.0039         0.0000         0.0000         0.0000     0.0000     0.0000   2   6   0.0153   0.0567   0.0167  -0.0221   0.0286  -0.0106   0.00   81.7
2020/06/03 03:06:27.000  -2418075.1796   5386063.6071   2405172.7444         0.0039         0.0000         0.0000         0.0000     0.0000     0.0000   2   6   0.0153   0.0566   0.0167  -0.0221   0.0286  -0.0106   0.00   83.8
2020/06/03 03:06:28.000  -2418075.2136   5386063.7752   2405172.7833         0.0039         0.0000         0.0000         0.0000     0.0000     0.0000   2   7   0.0156   0.0574   0.0169  -0.0225   0.0290  -0.0107   0.00    1.3
2020/06/03 03:06:29.000  -2418075.1693   5386063.6820   2405172.7639         0.0039         0.0000         0.0000         0.0000     0.0000     0.0000   2   6   0.0153   0.0566   0.0167  -0.0221   0.0286  -0.0106   0.00   88.2
2020/06/03 03:06:30.000  -2418076.7358   5386067.2618   2405174.3216         0.0040         0.0000         0.0000        -0.0000     0.0000     0.0000   1   6   0.0217   0.0800   0.0236  -0.0313   0.0404  -0.0149   0.00  754.2
2020/06/03 03:06:31.000  -2418075.1301   5386063.4572   2405172.7038         0.0040         0.0000         0.0000        -0.0000     0.0000     0.0000   2   6   0.0152   0.0552   0.0163  -0.0215   0.0278  -0.0102   0.00   92.9
2020/06/03 03:06:32.000  -2418076.7438   5386067.3131   2405174.3261         0.0040         0.0000         0.0000        -0.0000     0.0000     0.0000   1   6   0.0217   0.0800   0.0236  -0.0312   0.0403  -0.0149   0.00  744.5
2020/06/03 03:06:33.000  -2418076.7535   5386067.2964   2405174.3290         0.0040         0.0000         0.0000        -0.0000     0.0000     0.0000   1   6   0.0217   0.0800   0.0236  -0.0312   0.0403  -0.0149   0.00  744.0
2020/06/03 03:06:34.000  -2418076.7575   5386067.3362   2405174.3410         0.0040         0.0000         0.0000        -0.0000     0.0000     0.0000   1   6   0.0217   0.0800   0.0236  -0.0312   0.0403  -0.0149   0.00  741.5
2020/06/03 03:06:35.000  -2418074.8910   5386061.7048   2405172.2992         0.0040         0.0000         0.0000        -0.0000     0.0000     0.0000   2   7   0.0136   0.0266   0.0119  -0.0116   0.0153  -0.0053   0.00    3.5
2020/06/03 03:06:36.000  -2418074.8832   5386061.6765   2405172.2840         0.0040         0.0000         0.0000        -0.0000     0.0000     0.0000   2   7   0.0136   0.0266   0.0119  -0.0116   0.0152  -0.0053   0.00    4.0
2020/06/03 03:06:37.000  -2418074.8986   5386061.7386   2405172.3057         0.0040         0.0000         0.0000        -0.0000     0.0000     0.0000   2   7   0.0136   0.0266   0.0119  -0.0116   0.0152  -0.0053   0.00    4.3
2020/06/03 03:06:38.000  -2418074.8928   5386061.6940   2405172.2864         0.0040         0.0000         0.0000        -0.0000     0.0000     0.0000   2   7   0.0136   0.0266   0.0119  -0.0116   0.0152  -0.0053   0.00    4.8
2020/06/03 03:06:39.000  -2418074.8904   5386061.7208   2405172.2999         0.0040         0.0000         0.0000        -0.0000     0.0000     0.0000   2   7   0.0136   0.0266   0.0119  -0.0116   0.0152  -0.0053   0.00    5.3
2020/06/03 03:06:40.000  -2418074.8865   5386061.7140   2405172.2998         0.0040         0.0000         0.0000        -0.0000     0.0000     0.0000   2   7   0.0136   0.0266   0.0119  -0.0116   0.0152  -0.0053   0.00    5.7
2020/06/03 03:06:41.000  -2418074.8914   5386061.7151   2405172.3009         0.0040         0.0000         0.0000        -0.0000     0.0000     0.0000   2   7   0.0136   0.0266   0.0119  -0.0116   0.0152  -0.0053   0.00    6.1
2020/06/03 03:06:42.000  -2418074.8877   5386061.7011   2405172.2940         0.0040         0.0000         0.0000        -0.0000     0.0000     0.0000   2   7   0.0136   0.0266   0.0119  -0.0116   0.0152  -0.0053   0.00    6.5
2020/06/03 03:06:43.000  -2418074.8824   5386061.7039   2405172.2981         0.0040         0.0000         0.0000        -0.0000     0.0000     0.0000   2   7   0.0136   0.0266   0.0119  -0.0116   0.0152  -0.0053   0.00    6.9
2020/06/03 03:06:44.000  -2418074.8906   5386061.7240   2405172.3000         0.0040         0.0000         0.0000        -0.0000     0.0000     0.0000   2   7   0.0136   0.0266   0.0119  -0.0116   0.0152  -0.0053   0.00    7.3
2020/06/03 03:06:45.000  -2418074.8873   5386061.6900   2405172.2974         0.0040         0.0000         0.0000        -0.0000     0.0000     0.0000   2   7   0.0136   0.0266   0.0119  -0.0116   0.0152  -0.0053   0.00    8.8
2020/06/03 03:06:46.000  -2418074.8750   5386061.6687   2405172.2875         0.0040         0.0000         0.0000        -0.0000     0.0000     0.0000   2   7   0.0136   0.0266   0.0119  -0.0116   0.0152  -0.0053   0.00   10.5
2020/06/03 03:06:47.000  -2418075.1151   5386063.3703   2405172.6830         0.0040         0.0000         0.0000        -0.0000     0.0000     0.0000   2   6   0.0151   0.0541   0.0161  -0.0210   0.0272  -0.0099   0.00  128.4
2020/06/03 03:06:48.000  -2418075.1684   5386063.7025   2405172.7585         0.0040         0.0000         0.0000        -0.0000     0.0000     0.0000   2   6   0.0153   0.0562   0.0166  -0.0219   0.0283  -0.0104   0.00  136.0
2020/06/03 03:06:49.000  -2418075.1506   5386063.6319   2405172.7509         0.0040         0.0000         0.0000        -0.0000     0.0000     0.0000   2   6   0.0153   0.0562   0.0166  -0.0219   0.0283  -0.0104   0.00  141.3
