% ref pos   : -2414266.9228  5386768.9938  2407460.0346
%  GPST                      x-ecef(m)      y-ecef(m)      z-ecef(m)   Q  ns   sdx(m)   sdy(m)   sdz(m)  sdxy(m)  sdyz(m)  sdzx(m) age(s)  ratio
2020/06/03 03:02:27.000  -2418076.1429   5386065.1785   2405172.8676         0.0038         0.0000         0.0000         0.0000     0.0000     0.0000   2   5   0.0643   0.1178   0.0517  -0.0470   0.0651  -0.0250   0.00    0.0
2020/06/03 03:02:28.000  -2418076.1391   5386065.1270   2405172.8413         0.0038         0.0000         0.0000         0.0000     0.0000     0.0000   2   5   0.0643   0.1178   0.0517  -0.0470   0.0651  -0.0250   0.00    0.0
2020/06/03 03:02:29.000  -2418076.1292   5386065.0251   2405172.8052         0.0038         0.0000         0.0000         0.0000     0.0000     0.0000   2   5   0.0643   0.1178   0.0517  -0.0470   0.0651  -0.0250   0.00    0.0
2020/06/03 03:02:30.000  -2418076.1134   5386064.9997   2405172.7960         0.0038         0.0000         0.0000         0.0000     0.0000     0.0000   2   5   0.0643   0.1177   0.0517  -0.0470   0.0650  -0.0250   0.00    0.0
2020/06/03 03:02:31.000  -2418076.1596   5386065.0570   2405172.8068         0.0038         0.0000         0.0000         0.0000     0.0000     0.0000   2   5   0.0643   0.1177   0.0517  -0.0470   0.0650  -0.0250   0.00    0.0
2020/06/03 03:02:32.000  -2418076.1772   5386065.0571   2405172.8171         0.0038         0.0000         0.0000         0.0000     0.0000     0.0000   2   5   0.0643   0.1177   0.0517  -0.0470   0.0650  -0.0250   0.00    0.0
2020/06/03 03:02:33.000  -2418076.1461   5386065.0259   2405172.7889         0.0038         0.0000         0.0000         0.0000     0.0000     0.0000   2   5   0.0643   0.1177   0.0517  -0.0470   0.0650  -0.0250   0.00    0.0
2020/06/03 03:02:34.000  -2418076.1436   5386064.8540   2405172.7373         0.0038         0.0000         0.0000         0.0000     0.0000     0.0000   2   5   0.0643   0.1176   0.0517  -0.0470   0.0650  -0.0250   0.00    0.0
2020/06/03 03:02:35.000  -2418076.1594   5386064.9573   2405172.7464         0.0038         0.0000         0.0000         0.0000     0.0000     0.0000   2   5   0.0642   0.1176   0.0517  -0.0470   0.0650  -0.0250   0.00    0.0
2020/06/03 03:02:36.000  -2418076.1776   5386064.9034   2405172.7359         0.0038         0.0000         0.0000         0.0000     0.0000     0.0000   2   5   0.0642   0.1176   0.0517  -0.0470   0.0650  -0.0249   0.00    0.0
2020/06/03 03:02:37.000  -2418076.1469   5386064.8362   2405172.7115         0.0038         0.0000         0.0000         0.0000     0.0000     0.0000   2   5   0.0642   0.1176   0.0517  -0.0470   0.0650  -0.0249   0.00    0.0
2020/06/03 03:02:38.000  -2418076.1502   5386064.8727   2405172.7245         0.0038         0.0000         0.0000         0.0000     0.0000     0.0000   2   5   0.0642   0.1175   0.0517  -0.0470   0.0650  -0.0249   0.00    0.0
2020/06/03 03:02:39.000  -2418076.1383   5386064.7995   2405172.7053         0.0038         0.0000         0.0000         0.0000     0.0000     0.0000   2   5   0.0642   0.1175   0.0517  -0.0470   0.0650  -0.0249   0.00    0.0
2020/06/03 03:02:40.000  -2418076.1929   5386064.8176   2405172.7111         0.0038         0.0000         0.0000         0.0000     0.0000     0.0000   2   5   0.0642   0.1175   0.0517  -0.0470   0.0650  -0.0249   0.00    0.0
2020/06/03 03:02:41.000  -2418076.1744   5386064.7841   2405172.6949         0.0038         0.0000         0.0000         0.0000     0.0000     0.0000   2   5   0.0642   0.1175   0.0517  -0.0470   0.0650  -0.0249   0.00    0.0
2020/06/03 03:02:42.000  -2418076.1659   5386064.7548   2405172.6853         0.0038         0.0000         0.0000         0.0000     0.0000     0.0000   2   5   0.0642   0.1174   0.0517  -0.0470   0.0650  -0.0249   0.00    0.0
2020/06/03 03:02:43.000  -2418076.1908   5386064.7568   2405172.6838         0.0038         0.0000         0.0000         0.0000     0.0000     0.0000   2   5   0.0642   0.1174   0.0517  -0.0470   0.0650  -0.0249   0.00    0.0
2020/06/03 03:02:44.000  -2418076.1584   5386064.6794   2405172.6528         0.0038         0.0000         0.0000         0.0000     0.0000     0.0000   2   5   0.0642   0.1174   0.0517  -0.0470   0.0649  -0.0249   0.00    0.0
2020/06/03 03:02:45.000  -2418076.1552   5386064.7873   2405172.6884         0.0038         0.0000         0.0000         0.0000     0.0000     0.0000   2   5   0.0642   0.1174   0.0517  -0.0470   0.0649  -0.0248   0.00    0.0
2020/06/03 03:02:46.000  -2418076.1925   5386064.8331   2405172.7003         0.0038         0.0000         0.0000         0.0000     0.0000     0.0000   2   5   0.0642   0.1173   0.0517  -0.0470   0.0649  -0.0248   0.00    0.0
2020/06/03 03:02:47.000  -2418076.1762   5386064.7871   2405172.6984         0.0038         0.0000         0.0000         0.0000     0.0000     0.0000   2   5   0.0642   0.1173   0.0517  -0.0470   0.0649  -0.0248   0.00    0.0
2020/06/03 03:02:48.000  -2418076.1814   5386064.7467   2405172.6751         0.0038         0.0000         0.0000         0.0000     0.0000     0.0000   2   5   0.0642   0.1173   0.0517  -0.0470   0.0649  -0.0248   0.00    0.0
2020/06/03 03:02:49.000  -2418076.1885   5386064.7419   2405172.6704         0.0038         0.0000         0.0000         0.0000     0.0000     0.0000   2   5   0.0642   0.1173   0.0517  -0.0470   0.0649  -0.0248   0.00    0.0
2020/06/03 03:02:50.000  -2418076.1698   5386064.6627   2405172.6507         0.0038         0.0000         0.0000         0.0000     0.0000     0.0000   2   5   0.0642   0.1173   0.0517  -0.0470   0.0649  -0.0248   0.00    0.0
2020/06/03 03:02:51.000  -2418076.1865   5386064.6945   2405172.6616         0.0038         0.0000         0.0000         0.0000     0.0000     0.0000   2   5   0.0642   0.1172   0.0517  -0.0470   0.0649  -0.0248   0.00    0.0
2020/06/03 03:02:52.000  -2418076.1549   5386064.6971   2405172.6626         0.0038         0.0000         0.0000         0.0000     0.0000     0.0000   2   5   0.0642   0.1172   0.0517  -0.0470   0.0649  -0.0248   0.00    0.0
2020/06/03 03:02:53.000  -2418076.1809   5386064.7301   2405172.6743         0.0038         0.0000         0.0000         0.0000     0.0000     0.0000   2   5   0.0642   0.1172   0.0517  -0.0470   0.0649  -0.0248   0.00    0.0
2020/06/03 03:02:54.000  -2418076.1553   5386064.6867   2405172.6568         0.0038         0.0000         0.0000         0.0000     0.0000     0.0000   2   5   0.0642   0.1172   0.0517  -0.0470   0.0649  -0.0247   0.00    0.0
2020/06/03 03:02:55.000  -2418076.1635   5386064.7039   2405172.6612         0.0038         0.0000         0.0000         0.0000     0.0000     0.0000   2   5   0.0642   0.1171   0.0517  -0.0470   0.0649  -0.0247   0.00    0.0
2020/06/03 03:02:56.000  -2418076.2221   5386064.8194   2405172.7077         0.0038         0.0000         0.0000         0.0000     0.0000     0.0000   2   5   0.0642   0.1171   0.0517  -0.0470   0.0649  -0.0247   0.00    0.0
2020/06/03 03:02:57.000  -2418076.1563   5386064.7325   2405172.6822         0.0038         0.0000         0.0000         0.0000     0.0000     0.0000   2   5   0.0642   0.1171   0.0517  -0.0470   0.0649  -0.0247   0.00    0.0
2020/06/03 03:02:58.000  -2418076.1657   5386064.7332   2405172.6822         0.0038         0.0000         0.0000         0.0000     0.0000     0.0000   2   5   0.0642   0.1171   0.0517  -0.0470   0.0648  -0.0247   0.00    0.0
2020/06/03 03:02:59.000  -2418076.1570   5386064.6990   2405172.6727         0.0038         0.0000         0.0000         0.0000     0.0000     0.0000   2   5   0.0642   0.1170   0.0517  -0.0470   0.0648  -0.0247   0.00    0.0
2020/06/03 03:03:00.000  -2418076.1857   5386064.7918   2405172.7021         0.0038         0.0000         0.0000         0.0000     0.0000     0.0000   2   5   0.0642   0.1170   0.0517  -0.0470   0.0648  -0.0247   0.00    0.0
2020/06/03 03:03:01.000  -2418076.1610   5386064.7436   2405172.6882         0.0038         0.0000         0.0000         0.0000     0.0000     0.0000   2   5   0.0642   0.1170   0.0517  -0.0470   0.0648  -0.0247   0.00    0.0
2020/06/03 03:03:02.000  -2418076.1784   5386064.7817   2405172.7071         0.0038         0.0000         0.0000         0.0000     0.0000     0.0000   2   5   0.0642   0.1170   0.0517  -0.0470   0.0648  -0.0247   0.00    0.0
2020/06/03 03:03:03.000  -2418076.1552   5386064.7426   2405172.6968         0.0038         0.0000         0.0000         0.0000     0.0000     0.0000   2   5   0.0642   0.1169   0.0517  -0.0470   0.0648  -0.0246   0.00    0.0
2020/06/03 03:03:04.000  -2418076.1577   5386064.8205   2405172.7271         0.0038         0.0000         0.0000         0.0000     0.0000     0.0000   2   5   0.0642   0.1169   0.0517  -0.0469   0.0648  -0.0246   0.00    0.0
2020/06/03 03:03:05.000  -2418076.1477   5386064.7233   2405172.6923         0.0038         0.0000         0.0000         0.0000     0.0000     0.0000   2   5   0.0642   0.1169   0.0517  -0.0469   0.0648  -0.0246   0.00    0.0
2020/06/03 03:03:06.000  -2418076.1574   5386064.7445   2405172.7052         0.0038         0.0000         0.0000         0.0000     0.0000     0.0000   2   5   0.0642   0.1169   0.0517  -0.0469   0.0648  -0.0246   0.00    0.0
2020/06/03 03:03:07.000  -2418076.1344   5386064.7447   2405172.6971         0.0038         0.0000         0.0000         0.0000     0.0000     0.0000   2   5   0.0642   0.1168   0.0517  -0.0469   0.0648  -0.0246   0.00    0.0
2020/06/03 03:03:08.000  -2418076.1254   5386064.7214   2405172.6864         0.0038         0.0000         0.0000         0.0000     0.0000     0.0000   2   5   0.0642   0.1168   0.0517  -0.0469   0.0648  -0.0246   0.00    0.0
2020/06/03 03:03:09.000  -2418076.1034   5386064.7152   2405172.6819         0.0038         0.0000         0.0000         0.0000     0.0000     0.0000   2   5   0.0642   0.1168   0.0517  -0.0469   0.0648  -0.0246   0.00    0.0
2020/06/03 03:03:10.000  -2418076.1595   5386064.8353   2405172.7327         0.0038         0.0000         0.0000         0.0000     0.0000     0.0000   2   5   0.0642   0.1168   0.0517  -0.0469   0.0648  -0.0246   0.00    0.0
2020/06/03 03:03:11.000  -2418076.1351   5386064.7478   2405172.7146         0.0038         0.0000         0.0000         0.0000     0.0000     0.0000   2   5   0.0642   0.1167   0.0517  -0.0469   0.0648  -0.0246   0.00    0.0
2020/06/03 03:03:12.000  -2418076.1348   5386064.8085   2405172.7219         0.0038         0.0000         0.0000         0.0000     0.0000     0.0000   2   5   0.0642   0.1167   0.0517  -0.0469   0.0648  -0.0246   0.00    0.0
2020/06/03 03:03:13.000  -2418076.1249   5386064.7268   2405172.7049         0.0038         0.0000         0.0000         0.0000     0.0000     0.0000   2   5   0.0642   0.1166   0.0517  -0.0469   0.0647  -0.0245   0.00    0.0
2020/06/03 03:03:14.004  -2418076.1087   5386064.7062   2405172.6959         0.0038         0.0000         0.0000         0.0000     0.0000     0.0000   2   5   0.0641   0.1162   0.0516  -0.0466   0.0645  -0.0244   0.00    0.0
2020/06/03 03:03:15.000  -2418076.1123   5386064.7800   2405172.7165         0.0038         0.0000         0.0000         0.0000     0.0000     0.0000   2   5   0.0642   0.1166   0.0517  -0.0469   0.0647  -0.0245   0.00    0.0
2020/06/03 03:03:16.000  -2418076.0808   5386064.6940   2405172.6981         0.0038         0.0000         0.0000         0.0000     0.0000     0.0000   2   5   0.0637   0.1127   0.0511  -0.0445   0.0628  -0.0232   0.00    0.0
2020/06/03 03:03:17.000  -2418076.1468   5386064.7565   2405172.7194         0.0038         0.0000         0.0000         0.0000     0.0000     0.0000   2   6   0.0621   0.0811   0.0474  -0.0293   0.0494  -0.0163   0.00    0.0
2020/06/03 03:03:18.000  -2418076.1233   5386064.6858   2405172.7039         0.0038         0.0000         0.0000         0.0000     0.0000     0.0000   2   5   0.0641   0.1161   0.0516  -0.0466   0.0644  -0.0243   0.00    0.0
2020/06/03 03:03:19.000  -2418076.1027   5386064.6694   2405172.6936         0.0038         0.0000         0.0000         0.0000     0.0000     0.0000   2   5   0.0635   0.1104   0.0507  -0.0431   0.0616  -0.0224   0.00    0.0
2020/06/03 03:03:20.000  -2418076.1450   5386064.7687   2405172.7122         0.0038         0.0000         0.0000         0.0000     0.0000     0.0000   2   6   0.0620   0.0809   0.0473  -0.0291   0.0493  -0.0160   0.00    0.0
2020/06/03 03:03:21.000  -2418076.1464   5386064.7263   2405172.7058         0.0038         0.0000         0.0000         0.0000     0.0000     0.0000   2   6   0.0620   0.0809   0.0473  -0.0291   0.0493  -0.0160   0.00    0.0
2020/06/03 03:03:22.000  -2418076.1756   5386064.7412   2405172.7186         0.0038         0.0000         0.0000         0.0000     0.0000     0.0000   2   6   0.0620   0.0808   0.0473  -0.0291   0.0493  -0.0160   0.00    0.0
2020/06/03 03:03:23.000  -2418076.1615   5386064.6907   2405172.7016         0.0038         0.0000         0.0000         0.0000     0.0000     0.0000   2   6   0.0620   0.0808   0.0473  -0.0291   0.0493  -0.0160   0.00    0.0
2020/06/03 03:03:24.000  -2418076.1563   5386064.6743   2405172.6980         0.0038         0.0000         0.0000         0.0000     0.0000     0.0000   2   6   0.0620   0.0808   0.0473  -0.0291   0.0493  -0.0160   0.00    0.0
2020/06/03 03:03:25.000  -2418076.1796   5386064.6865   2405172.6986         0.0038         0.0000         0.0000         0.0000     0.0000     0.0000   2   6   0.0620   0.0808   0.0473  -0.0291   0.0493  -0.0159   0.00    0.0
2020/06/03 03:03:26.000  -2418076.1999   5386064.7106   2405172.7065         0.0038         0.0000         0.0000         0.0000     0.0000     0.0000   2   6   0.0620   0.0807   0.0473  -0.0291   0.0493  -0.0159   0.00    0.0
2020/06/03 03:03:27.000  -2418076.1957   5386064.6335   2405172.6788         0.0038         0.0000         0.0000         0.0000     0.0000     0.0000   2   6   0.0620   0.0807   0.0473  -0.0291   0.0492  -0.0159   0.00    0.0
2020/06/03 03:03:28.000  -2418076.2029   5386064.6598   2405172.6849         0.0038         0.0000         0.0000         0.0000     0.0000     0.0000   2   6   0.0620   0.0807   0.0473  -0.0291   0.0492  -0.0159   0.00    0.0
2020/06/03 03:03:29.000  -2418076.2092   5386064.6527   2405172.6843         0.0038         0.0000         0.0000         0.0000     0.0000     0.0000   2   6   0.0620   0.0806   0.0473  -0.0291   0.0492  -0.0159   0.00    0.0
2020/06/03 03:03:30.000  -2418076.2291   5386064.6379   2405172.6685         0.0038         0.0000         0.0000         0.0000     0.0000     0.0000   2   6   0.0620   0.0806   0.0473  -0.0291   0.0493  -0.0159   0.00    0.0
2020/06/03 03:03:31.004  -2418076.2313   5386064.6400   2405172.6726         0.0038         0.0000         0.0000         0.0000     0.0000     0.0000   2   6   0.0621   0.0807   0.0473  -0.0293   0.0493  -0.0160   0.00    0.0
2020/06/03 03:03:32.000  -2418076.2308   5386064.6298   2405172.6648         0.0038         0.0000         0.0000         0.0000     0.0000     0.0000   2   6   0.0621   0.0807   0.0474  -0.0294   0.0493  -0.0161   0.00    0.0
2020/06/03 03:03:33.000  -2418076.1674   5386064.2468   2405172.5639         0.0038         0.0000         0.0000         0.0000     0.0000     0.0000   2   5   0.0641   0.1148   0.0516  -0.0464   0.0640  -0.0241   0.00    0.0
2020/06/03 03:03:34.000  -2418076.2235   5386064.4374   2405172.6030         0.0038         0.0000         0.0000         0.0000     0.0000     0.0000   2   5   0.0635   0.1093   0.0506  -0.0430   0.0613  -0.0222   0.00    0.0
2020/06/03 03:03:35.000  -2418076.2422   5386064.5589   2405172.6213         0.0038         0.0000         0.0000         0.0000     0.0000     0.0000   2   6   0.0620   0.0805   0.0473  -0.0291   0.0492  -0.0158   0.00    0.0
2020/06/03 03:03:36.000  -2418076.2361   5386064.5056   2405172.6041         0.0038         0.0000         0.0000         0.0000     0.0000     0.0000   2   6   0.0620   0.0805   0.0473  -0.0291   0.0492  -0.0158   0.00    0.0
2020/06/03 03:03:37.000  -2418076.2750   5386064.4508   2405172.5965         0.0038         0.0000         0.0000         0.0000     0.0000     0.0000   2   6   0.0620   0.0805   0.0473  -0.0292   0.0492  -0.0158   0.00    0.0
2020/06/03 03:03:38.000  -2418076.2699   5386064.4075   2405172.5785         0.0038         0.0000         0.0000         0.0000     0.0000     0.0000   2   6   0.0621   0.0806   0.0474  -0.0294   0.0493  -0.0160   0.00    0.0
2020/06/03 03:03:39.000  -2418076.1936   5386064.0960   2405172.4807         0.0038         0.0000         0.0000         0.0000     0.0000     0.0000   2   5   0.0635   0.1092   0.0506  -0.0431   0.0613  -0.0222   0.00    0.0
2020/06/03 03:03:40.000  -2418076.2699   5386064.3349   2405172.5519         0.0038         0.0000         0.0000         0.0000     0.0000     0.0000   2   6   0.0620   0.0805   0.0473  -0.0292   0.0492  -0.0158   0.00    0.0
2020/06/03 03:03:41.000  -2418076.2574   5386064.2395   2405172.5175         0.0038         0.0000         0.0000         0.0000     0.0000     0.0000   2   6   0.0621   0.0805   0.0474  -0.0294   0.0493  -0.0159   0.00    0.0
2020/06/03 03:03:42.000  -2418076.2212   5386063.9894   2405172.4520         0.0038         0.0000         0.0000         0.0000     0.0000     0.0000   2   5   0.0635   0.1087   0.0506  -0.0429   0.0611  -0.0221   0.00    0.0
2020/06/03 03:03:43.000  -2418076.2564   5386064.2074   2405172.4937         0.0038         0.0000         0.0000         0.0000     0.0000     0.0000   2   6   0.0620   0.0803   0.0473  -0.0291   0.0492  -0.0156   0.00    0.0
2020/06/03 03:03:44.000  -2418076.2730   5386064.2207   2405172.5015         0.0038         0.0000         0.0000         0.0000     0.0000     0.0000   2   6   0.0620   0.0803   0.0473  -0.0292   0.0492  -0.0156   0.00    0.0
2020/06/03 03:03:45.000  -2418076.3095   5386064.1985   2405172.5005         0.0038         0.0000         0.0000         0.0000     0.0000     0.0000   2   6   0.0620   0.0803   0.0473  -0.0292   0.0492  -0.0156   0.00    0.0
2020/06/03 03:03:46.000  -2418076.2838   5386064.1936   2405172.4890         0.0038         0.0000         0.0000         0.0000     0.0000     0.0000   2   6   0.0620   0.0803   0.0473  -0.0292   0.0492  -0.0156   0.00    0.0
2020/06/03 03:03:47.000  -2418076.2980   5386064.2293   2405172.5027         0.0038         0.0000         0.0000         0.0000     0.0000     0.0000   2   6   0.0620   0.0802   0.0473  -0.0292   0.0491  -0.0156   0.00    0.0
2020/06/03 03:03:48.000  -2418076.2877   5386064.2299   2405172.5178         0.0038         0.0000         0.0000         0.0000     0.0000     0.0000   2   6   0.0620   0.0802   0.0473  -0.0292   0.0491  -0.0155   0.00    0.0
2020/06/03 03:03:49.000  -2418076.2567   5386064.2462   2405172.4889         0.0038         0.0000         0.0000         0.0000     0.0000     0.0000   2   6   0.0620   0.0802   0.0473  -0.0292   0.0491  -0.0155   0.00    0.0
2020/06/03 03:03:50.000  -2418076.2668   5386064.3709   2405172.5181         0.0038         0.0000         0.0000         0.0000     0.0000     0.0000   2   6   0.0620   0.0802   0.0473  -0.0292   0.0491  -0.0155   0.00    0.0
2020/06/03 03:03:51.000  -2418076.2569   5386064.4167   2405172.5268         0.0038         0.0000         0.0000         0.0000     0.0000     0.0000   2   6   0.0620   0.0802   0.0473  -0.0292   0.0491  -0.0155   0.00    0.0
2020/06/03 03:03:52.000  -2418076.2213   5386064.4706   2405172.5356         0.0038         0.0000         0.0000         0.0000     0.0000     0.0000   2   6   0.0620   0.0802   0.0473  -0.0292   0.0491  -0.0155   0.00    0.0
2020/06/03 03:03:53.000  -2418076.2207   5386064.4917   2405172.5356         0.0038         0.0000         0.0000         0.0000     0.0000     0.0000   2   6   0.0620   0.0802   0.0473  -0.0292   0.0491  -0.0155   0.00    0.0
2020/06/03 03:03:54.000  -2418076.2272   5386064.5868   2405172.5566         0.0038         0.0000         0.0000         0.0000     0.0000     0.0000   2   6   0.0620   0.0802   0.0473  -0.0292   0.0491  -0.0154   0.00    0.0
2020/06/03 03:03:55.000  -2418076.1860   5386064.6129   2405172.5467         0.0038         0.0000         0.0000         0.0000     0.0000     0.0000   2   6   0.0620   0.0802   0.0473  -0.0292   0.0491  -0.0154   0.00    0.0
2020/06/03 03:03:56.000  -2418076.1717   5386064.6457   2405172.5683         0.0038         0.0000         0.0000         0.0000     0.0000     0.0000   2   6   0.0620   0.0802   0.0473  -0.0292   0.0491  -0.0154   0.00    0.0
2020/06/03 03:03:57.000  -2418076.1749   5386064.6876   2405172.5792         0.0038         0.0000         0.0000         0.0000     0.0000     0.0000   2   6   0.0620   0.0802   0.0473  -0.0292   0.0491  -0.0154   0.00    0.0
2020/06/03 03:03:58.000  -2418076.1461   5386064.7062   2405172.5716         0.0038         0.0000         0.0000         0.0000     0.0000     0.0000   2   6   0.0620   0.0802   0.0473  -0.0292   0.0491  -0.0154   0.00    0.0
2020/06/03 03:03:59.000  -2418076.1224   5386064.7613   2405172.5838         0.0038         0.0000         0.0000         0.0000     0.0000     0.0000   2   6   0.0620   0.0802   0.0473  -0.0292   0.0491  -0.0154   0.00    0.0
2020/06/03 03:04:00.000  -2418076.0898   5386064.7732   2405172.5918         0.0038         0.0000         0.0000         0.0000     0.0000     0.0000   2   6   0.0620   0.0802   0.0473  -0.0293   0.0491  -0.0153   0.00    0.0
2020/06/03 03:04:01.000  -2418076.1118   5386064.8259   2405172.6158         0.0038         0.0000         0.0000         0.0000     0.0000     0.0000   2   6   0.0620   0.0802   0.0474  -0.0293   0.0492  -0.0153   0.00    0.0
2020/06/03 03:04:02.000  -2418076.0790   5386064.8482   2405172.6215         0.0038         0.0000         0.0000         0.0000     0.0000     0.0000   2   6   0.0620   0.0802   0.0474  -0.0293   0.0492  -0.0153   0.00    0.0
2020/06/03 03:04:03.000  -2418076.0648   5386064.8549   2405172.6271         0.0038         0.0000         0.0000         0.0000     0.0000     0.0000   2   6   0.0620   0.0802   0.0474  -0.0293   0.0492  -0.0153   0.00    0.0
2020/06/03 03:04:04.000  -2418076.0520   5386064.9017   2405172.6440         0.0038         0.0000         0.0000         0.0000     0.0000     0.0000   2   6   0.0620   0.0802   0.0474  -0.0293   0.0492  -0.0153   0.00    0.0
2020/06/03 03:04:05.000  -2418076.0214   5386064.8994   2405172.6530         0.0038         0.0000         0.0000         0.0000     0.0000     0.0000   2   6   0.0620   0.0802   0.0474  -0.0293   0.0492  -0.0153   0.00    0.0
2020/06/03 03:04:06.000  -2418076.0088   5386064.8764   2405172.6327         0.0038         0.0000         0.0000         0.0000     0.0000     0.0000   2   6   0.0620   0.0802   0.0474  -0.0293   0.0492  -0.0153   0.00    0.0
2020/06/03 03:04:07.000  -2418076.0021   5386064.8624   2405172.6382         0.0038         0.0000         0.0000         0.0000     0.0000     0.0000   2   6   0.0620   0.0802   0.0474  -0.0293   0.0492  -0.0153   0.00    0.0
2020/06/03 03:04:08.000  -2418075.9774   5386064.8795   2405172.6453         0.0038         0.0000         0.0000         0.0000     0.0000     0.0000   2   6   0.0620   0.0802   0.0474  -0.0293   0.0492  -0.0152   0.00    0.0
2020/06/03 03:04:09.000  -2418075.9618   5386064.8999   2405172.6528         0.0038         0.0000         0.0000         0.0000     0.0000     0.0000   2   6   0.0620   0.0803   0.0474  -0.0294   0.0492  -0.0152   0.00    0.0
2020/06/03 03:04:10.000  -2418075.9428   5386064.8992   2405172.6598         0.0038         0.0000         0.0000         0.0000     0.0000     0.0000   2   6   0.0620   0.0803   0.0474  -0.0294   0.0492  -0.0152   0.00    0.0
2020/06/03 03:04:11.000  -2418075.9532   5386064.8905   2405172.6501         0.0039         0.0000         0.0000         0.0000     0.0000     0.0000   2   6   0.0620   0.0803   0.0474  -0.0294   0.0492  -0.0152   0.00    0.0
2020/06/03 03:04:12.000  -2418075.9517   5386064.9532   2405172.6878         0.0039         0.0000         0.0000         0.0000     0.0000     0.0000   2   6   0.0620   0.0803   0.0474  -0.0294   0.0492  -0.0152   0.00    0.0
2020/06/03 03:04:13.000  -2418075.9338   5386064.9244   2405172.6702         0.0039         0.0000         0.0000         0.0000     0.0000     0.0000   2   6   0.0620   0.0803   0.0474  -0.0294   0.0492  -0.0152   0.00    0.0
2020/06/03 03:04:14.000  -2418075.9190   5386064.9247   2405172.6874         0.0039         0.0000         0.0000         0.0000     0.0000     0.0000   2   6   0.0620   0.0804   0.0474  -0.0295   0.0493  -0.0152   0.00    0.0
2020/06/03 03:04:15.000  -2418075.9137   5386064.9684   2405172.6986         0.0039         0.0000         0.0000         0.0000     0.0000     0.0000   2   6   0.0620   0.0806   0.0475  -0.0297   0.0494  -0.0154   0.00    0.0
2020/06/03 03:04:16.000  -2418075.9212   5386064.9558   2405172.6938         0.0039         0.0000         0.0000         0.0000     0.0000     0.0000   2   6   0.0620   0.0805   0.0475  -0.0297   0.0494  -0.0154   0.00    0.0
2020/06/03 03:04:17.000  -2418075.8797   5386064.8533   2405172.6550         0.0039         0.0000         0.0000         0.0000     0.0000     0.0000   2   5   0.0640   0.1118   0.0514  -0.0459   0.0630  -0.0234   0.00    0.0
2020/06/03 03:04:18.000  -2418075.8804   5386064.9031   2405172.6715         0.0039         0.0000         0.0000         0.0000     0.0000     0.0000   2   5   0.0635   0.1076   0.0507  -0.0432   0.0609  -0.0219   0.00    0.0
2020/06/03 03:04:19.000  -2418075.9082   5386064.9603   2405172.6909         0.0039         0.0000         0.0000         0.0000     0.0000     0.0000   2   6   0.0620   0.0806   0.0475  -0.0297   0.0494  -0.0153   0.00    0.0
2020/06/03 03:04:20.000  -2418075.8994   5386064.9332   2405172.6820         0.0039         0.0000         0.0000         0.0000     0.0000     0.0000   2   5   0.0634   0.1064   0.0505  -0.0425   0.0603  -0.0215   0.00    0.0
2020/06/03 03:04:21.000  -2418075.9139   5386065.0060   2405172.7015         0.0039         0.0000         0.0000         0.0000     0.0000     0.0000   2   6   0.0620   0.0806   0.0475  -0.0296   0.0494  -0.0151   0.00    0.0
2020/06/03 03:04:22.000  -2418075.9298   5386065.0443   2405172.7144         0.0039         0.0000         0.0000         0.0000     0.0000     0.0000   2   6   0.0620   0.0806   0.0475  -0.0297   0.0494  -0.0151   0.00    0.0
2020/06/03 03:04:23.000  -2418075.9165   5386065.0376   2405172.7081         0.0039         0.0000         0.0000         0.0000     0.0000     0.0000   2   6   0.0620   0.0807   0.0475  -0.0297   0.0494  -0.0151   0.00    0.0
2020/06/03 03:04:24.000  -2418075.9257   5386065.0572   2405172.7092         0.0039         0.0000         0.0000         0.0000     0.0000     0.0000   2   6   0.0620   0.0808   0.0475  -0.0298   0.0494  -0.0151   0.00    0.0
2020/06/03 03:04:25.000  -2418075.9339   5386065.0664   2405172.7144         0.0039         0.0000         0.0000         0.0000     0.0000     0.0000   2   6   0.0620   0.0809   0.0475  -0.0298   0.0495  -0.0151   0.00    0.0
2020/06/03 03:04:26.000  -2418075.9420   5386065.0962   2405172.7180         0.0039         0.0000         0.0000         0.0000     0.0000     0.0000   2   6   0.0620   0.0810   0.0475  -0.0299   0.0495  -0.0152   0.00    0.0
2020/06/03 03:04:27.000  -2418075.9428   5386065.0841   2405172.7154         0.0039         0.0000         0.0000         0.0000     0.0000     0.0000   2   6   0.0620   0.0811   0.0475  -0.0299   0.0496  -0.0152   0.00    0.0
2020/06/03 03:04:28.000  -2418075.9493   5386065.1152   2405172.7148         0.0039         0.0000         0.0000         0.0000     0.0000     0.0000   2   6   0.0620   0.0812   0.0475  -0.0300   0.0496  -0.0152   0.00    0.0
2020/06/03 03:04:29.000  -2418075.9702   5386065.1282   2405172.7129         0.0039         0.0000         0.0000         0.0000     0.0000     0.0000   2   6   0.0620   0.0813   0.0476  -0.0301   0.0497  -0.0152   0.00    0.0
2020/06/03 03:04:30.000  -2418075.9558   5386065.1359   2405172.7154         0.0039         0.0000         0.0000         0.0000     0.0000     0.0000   2   6   0.0620   0.0815   0.0476  -0.0303   0.0498  -0.0153   0.00    0.0
2020/06/03 03:04:31.000  -2418075.9710   5386065.1477   2405172.7011         0.0039         0.0000         0.0000         0.0000     0.0000     0.0000   2   6   0.0621   0.0820   0.0477  -0.0307   0.0500  -0.0156   0.00    0.0
2020/06/03 03:04:32.000  -2418075.9821   5386065.1306   2405172.6956         0.0039         0.0000         0.0000         0.0000     0.0000     0.0000   2   6   0.0621   0.0819   0.0477  -0.0305   0.0499  -0.0155   0.00    0.0
2020/06/03 03:04:33.000  -2418075.9178   5386064.8626   2405172.6303         0.0039         0.0000         0.0000         0.0000     0.0000     0.0000   2   5   0.0640   0.1106   0.0514  -0.0455   0.0626  -0.0231   0.00    0.0
2020/06/03 03:04:34.000  -2418075.9398   5386064.9045   2405172.6273         0.0039         0.0000         0.0000         0.0000     0.0000     0.0000   2   5   0.0634   0.1058   0.0505  -0.0424   0.0601  -0.0213   0.00    0.0
2020/06/03 03:04:35.000  -2418075.9972   5386065.0820   2405172.6705         0.0039         0.0000         0.0000         0.0000     0.0000     0.0000   2   6   0.0621   0.0824   0.0477  -0.0308   0.0502  -0.0154   0.00    0.0
2020/06/03 03:04:36.000  -2418076.0125   5386065.1194   2405172.6830         0.0039         0.0000         0.0000         0.0000     0.0000     0.0000   2   6   0.0621   0.0827   0.0477  -0.0310   0.0503  -0.0155   0.00    0.0
2020/06/03 03:04:37.000  -2418076.0134   5386065.0911   2405172.6698         0.0039         0.0000         0.0000         0.0000     0.0000     0.0000   2   6   0.0621   0.0832   0.0478  -0.0312   0.0505  -0.0156   0.00    0.0
2020/06/03 03:04:38.000  -2418075.9765   5386065.0247   2405172.6330         0.0039         0.0000         0.0000         0.0000     0.0000     0.0000   2   6   0.0621   0.0837   0.0479  -0.0315   0.0507  -0.0158   0.00    0.0
2020/06/03 03:04:39.000  -2418075.9824   5386065.0388   2405172.6320         0.0039         0.0000         0.0000         0.0000     0.0000     0.0000   2   6   0.0622   0.0843   0.0479  -0.0319   0.0510  -0.0159   0.00    0.0
2020/06/03 03:04:40.000  -2418075.9951   5386065.0756   2405172.6388         0.0039         0.0000         0.0000         0.0000     0.0000     0.0000   2   7   0.0603   0.0844   0.0474  -0.0295   0.0505  -0.0120   0.00    0.0
2020/06/03 03:04:41.000  -2418075.9870   5386065.0554   2405172.6268         0.0039         0.0000         0.0000         0.0000     0.0000     0.0000   2   7   0.0604   0.0855   0.0476  -0.0302   0.0510  -0.0126   0.00    0.0
2020/06/03 03:04:42.000  -2418075.9637   5386065.0012   2405172.6027         0.0039         0.0000         0.0000         0.0000     0.0000     0.0000   2   7   0.0606   0.0870   0.0478  -0.0313   0.0517  -0.0134   0.00    0.0
2020/06/03 03:04:43.000  -2418075.9573   5386064.9197   2405172.5783         0.0039         0.0000         0.0000         0.0000     0.0000     0.0000   2   7   0.0610   0.0898   0.0482  -0.0331   0.0530  -0.0147   0.00    0.0
2020/06/03 03:04:44.000  -2418075.9182   5386064.8339   2405172.5428         0.0039         0.0000         0.0000         0.0000     0.0000     0.0000   2   7   0.0618   0.0955   0.0492  -0.0370   0.0558  -0.0175   0.00    0.0
2020/06/03 03:04:45.000  -2418075.8632   5386064.6043   2405172.4930         0.0039         0.0000         0.0000         0.0000     0.0000     0.0000   2   7   0.0639   0.1092   0.0512  -0.0451   0.0620  -0.0227   0.00    0.0
2020/06/03 03:04:46.000  -2418075.8768   5386064.7146   2405172.5155         0.0039         0.0000         0.0000         0.0000     0.0000     0.0000   2   6   0.0607   0.1056   0.0498  -0.0382   0.0592  -0.0165   0.00    0.0
2020/06/03 03:04:47.000  -2418075.8831   5386064.7209   2405172.5150         0.0039         0.0000         0.0000         0.0000     0.0000     0.0000   2   6   0.0607   0.1056   0.0498  -0.0382   0.0592  -0.0165   0.00    0.0
2020/06/03 03:04:48.000  -2418075.8940   5386064.7472   2405172.5261         0.0039         0.0000         0.0000         0.0000     0.0000     0.0000   2   6   0.0607   0.1056   0.0498  -0.0382   0.0592  -0.0165   0.00    0.0
2020/06/03 03:04:49.000  -2418075.8608   5386064.6788   2405172.5121         0.0039         0.0000         0.0000         0.0000     0.0000     0.0000   2   6   0.0607   0.1056   0.0498  -0.0382   0.0592  -0.0164   0.00    0.0
2020/06/03 03:04:50.000  -2418075.8563   5386064.6433   2405172.5109         0.0039         0.0000         0.0000         0.0000     0.0000     0.0000   2   6   0.0607   0.1056   0.0498  -0.0382   0.0592  -0.0164   0.00    0.0
2020/06/03 03:04:51.000  -2418075.8550   5386064.7032   2405172.5154         0.0039         0.0000         0.0000         0.0000     0.0000     0.0000   2   6   0.0607   0.1056   0.0498  -0.0382   0.0592  -0.0164   0.00    0.0
2020/06/03 03:04:52.000  -2418075.8546   5386064.7309   2405172.5333         0.0039         0.0000         0.0000         0.0000     0.0000     0.0000   2   6   0.0607   0.1056   0.0498  -0.0382   0.0592  -0.0164   0.00    0.0
2020/06/03 03:04:53.000  -2418075.8617   5386064.7713   2405172.5491         0.0039         0.0000         0.0000         0.0000     0.0000     0.0000   2   6   0.0607   0.1056   0.0498  -0.0382   0.0592  -0.0164   0.00    0.0
2020/06/03 03:04:54.000  -2418075.8206   5386064.7177   2405172.5396         0.0039         0.0000         0.0000         0.0000     0.0000     0.0000   2   6   0.0607   0.1056   0.0498  -0.0382   0.0592  -0.0164   0.00    0.0
2020/06/03 03:04:55.000  -2418075.8256   5386064.7391   2405172.5504         0.0039         0.0000         0.0000         0.0000     0.0000     0.0000   2   6   0.0607   0.1056   0.0498  -0.0382   0.0592  -0.0164   0.00    0.0
2020/06/03 03:04:56.000  -2418075.8152   5386064.7091   2405172.5503         0.0039         0.0000         0.0000         0.0000     0.0000     0.0000   2   6   0.0607   0.1056   0.0498  -0.0383   0.0593  -0.0164   0.00    0.0
2020/06/03 03:04:57.000  -2418075.7912   5386064.6428   2405172.5296         0.0039         0.0000         0.0000         0.0000     0.0000     0.0000   2   6   0.0607   0.1056   0.0498  -0.0383   0.0593  -0.0163   0.00    0.0
2020/06/03 03:04:58.000  -2418075.7927   5386064.6841   2405172.5510         0.0039         0.0000         0.0000         0.0000     0.0000     0.0000   2   6   0.0607   0.1056   0.0498  -0.0383   0.0593  -0.0163   0.00    0.0
2020/06/03 03:04:59.000  -2418075.7777   5386064.6454   2405172.5499         0.0039         0.0000         0.0000         0.0000     0.0000     0.0000   2   6   0.0607   0.1056   0.0498  -0.0383   0.0593  -0.0163   0.00    0.0
2020/06/03 03:05:00.000  -2418075.7894   5386064.7099   2405172.5652         0.0039         0.0000         0.0000         0.0000     0.0000     0.0000   2   6   0.0607   0.1056   0.0498  -0.0383   0.0593  -0.0163   0.00    0.0
2020/06/03 03:05:01.000  -2418075.7715   5386064.7416   2405172.5790         0.0039         0.0000         0.0000         0.0000     0.0000     0.0000   2   6   0.0607   0.1056   0.0498  -0.0383   0.0593  -0.0163   0.00    0.0
2020/06/03 03:05:02.000  -2418075.7751   5386064.7946   2405172.6007         0.0039         0.0000         0.0000         0.0000     0.0000     0.0000   2   6   0.0607   0.1056   0.0498  -0.0383   0.0593  -0.0163   0.00    0.0
2020/06/03 03:05:03.000  -2418075.7734   5386064.8293   2405172.6016         0.0039         0.0000         0.0000         0.0000     0.0000     0.0000   2   6   0.0607   0.1056   0.0499  -0.0383   0.0593  -0.0163   0.00    0.0
2020/06/03 03:05:04.000  -2418075.7510   5386064.7753   2405172.5981         0.0039         0.0000         0.0000         0.0000     0.0000     0.0000   2   6   0.0607   0.1056   0.0499  -0.0383   0.0593  -0.0163   0.00    0.0
2020/06/03 03:05:05.000  -2418075.7510   5386064.8210   2405172.6149         0.0039         0.0000         0.0000         0.0000     0.0000     0.0000   2   6   0.0607   0.1056   0.0499  -0.0383   0.0593  -0.0162   0.00    0.0
2020/06/03 03:05:06.000  -2418075.7358   5386064.8399   2405172.6300         0.0039         0.0000         0.0000         0.0000     0.0000     0.0000   2   6   0.0607   0.1055   0.0499  -0.0383   0.0593  -0.0162   0.00    0.0
2020/06/03 03:05:07.000  -2418075.7345   5386064.8293   2405172.6265         0.0039         0.0000         0.0000         0.0000     0.0000     0.0000   2   6   0.0607   0.1055   0.0499  -0.0383   0.0593  -0.0162   0.00    0.0
2020/06/03 03:05:08.000  -2418075.7164   5386064.8764   2405172.6423         0.0039         0.0000         0.0000         0.0000     0.0000     0.0000   2   6   0.0607   0.1055   0.0499  -0.0383   0.0593  -0.0162   0.00    0.0
2020/06/03 03:05:09.000  -2418075.7162   5386064.8590   2405172.6442         0.0039         0.0000         0.0000         0.0000     0.0000     0.0000   2   6   0.0607   0.1055   0.0499  -0.0383   0.0593  -0.0162   0.00    0.0
2020/06/03 03:05:10.000  -2418075.7191   5386064.9196   2405172.6672         0.0039         0.0000         0.0000         0.0000     0.0000     0.0000   2   6   0.0607   0.1053   0.0498  -0.0382   0.0592  -0.0161   0.00    0.0
2020/06/03 03:05:11.000  -2418075.7013   5386064.9351   2405172.6779         0.0039         0.0000         0.0000         0.0000     0.0000     0.0000   2   6   0.0607   0.1053   0.0498  -0.0382   0.0592  -0.0161   0.00    0.0
2020/06/03 03:05:12.000  -2418075.7102   5386065.0504   2405172.7159         0.0039         0.0000         0.0000         0.0000     0.0000     0.0000   2   6   0.0605   0.1015   0.0493  -0.0363   0.0574  -0.0148   0.00    0.0
2020/06/03 03:05:13.000  -2418075.7399   5386065.4360   2405172.7927         0.0039         0.0000         0.0000         0.0000     0.0000     0.0000   2   6   0.0597   0.0797   0.0471  -0.0267   0.0487  -0.0089   0.00    0.0
2020/06/03 03:05:14.000  -2418075.7428   5386065.4460   2405172.8075         0.0039         0.0000         0.0000         0.0000     0.0000     0.0000   2   6   0.0598   0.0798   0.0471  -0.0267   0.0487  -0.0089   0.00    0.0
2020/06/03 03:05:15.000  -2418075.7513   5386065.5094   2405172.8343         0.0039         0.0000         0.0000         0.0000     0.0000     0.0000   2   6   0.0598   0.0798   0.0471  -0.0267   0.0488  -0.0088   0.00    0.0
2020/06/03 03:05:16.000  -2418075.7404   5386065.5336   2405172.8372         0.0039         0.0000         0.0000         0.0000     0.0000     0.0000   2   6   0.0598   0.0798   0.0471  -0.0268   0.0488  -0.0088   0.00    0.0
2020/06/03 03:05:17.000  -2418075.7206   5386065.5556   2405172.8507         0.0039         0.0000         0.0000         0.0000     0.0000     0.0000   2   6   0.0598   0.0799   0.0471  -0.0268   0.0488  -0.0088   0.00    0.0
2020/06/03 03:05:18.000  -2418075.7213   5386065.6008   2405172.8676         0.0039         0.0000         0.0000         0.0000     0.0000     0.0000   2   6   0.0598   0.0799   0.0471  -0.0268   0.0488  -0.0088   0.00    0.0
2020/06/03 03:05:19.000  -2418075.7311   5386065.6242   2405172.8855         0.0039         0.0000         0.0000         0.0000     0.0000     0.0000   2   6   0.0598   0.0799   0.0471  -0.0269   0.0488  -0.0088   0.00    0.0
2020/06/03 03:05:20.000  -2418075.7293   5386065.6774   2405172.8978         0.0039         0.0000         0.0000         0.0000     0.0000     0.0000   2   6   0.0598   0.0800   0.0471  -0.0269   0.0489  -0.0088   0.00    0.0
2020/06/03 03:05:21.000  -2418075.7209   5386065.6686   2405172.9031         0.0039         0.0000         0.0000         0.0000     0.0000     0.0000   2   6   0.0598   0.0800   0.0471  -0.0269   0.0489  -0.0088   0.00    0.0
2020/06/03 03:05:22.000  -2418075.7144   5386065.6731   2405172.9051         0.0039         0.0000         0.0000         0.0000     0.0000     0.0000   2   6   0.0598   0.0801   0.0472  -0.0269   0.0489  -0.0088   0.00    0.0
2020/06/03 03:05:23.000  -2418075.7115   5386065.7018   2405172.9194         0.0039         0.0000         0.0000         0.0000     0.0000     0.0000   2   6   0.0598   0.0801   0.0472  -0.0270   0.0489  -0.0088   0.00    0.0
2020/06/03 03:05:24.000  -2418075.7162   5386065.7289   2405172.9340         0.0039         0.0000         0.0000         0.0000     0.0000     0.0000   2   6   0.0598   0.0801   0.0472  -0.0270   0.0489  -0.0088   0.00    0.0
2020/06/03 03:05:25.000  -2418075.7176   5386065.7295   2405172.9344         0.0039         0.0000         0.0000         0.0000     0.0000     0.0000   2   6   0.0598   0.0802   0.0472  -0.0270   0.0490  -0.0088   0.00    0.0
2020/06/03 03:05:26.000  -2418075.7133   5386065.7126   2405172.9405         0.0039         0.0000         0.0000         0.0000     0.0000     0.0000   2   6   0.0598   0.0802   0.0472  -0.0271   0.0490  -0.0088   0.00    0.0
2020/06/03 03:05:27.000  -2418075.7174   5386065.7076   2405172.9397         0.0039         0.0000         0.0000         0.0000     0.0000     0.0000   2   6   0.0598   0.0803   0.0472  -0.0271   0.0490  -0.0088   0.00    0.0
2020/06/03 03:05:28.000  -2418075.7323   5386065.7133   2405172.9400         0.0039         0.0000         0.0000         0.0000     0.0000     0.0000   2   6   0.0598   0.0803   0.0472  -0.0271   0.0490  -0.0088   0.00    0.0
2020/06/03 03:05:29.000  -2418075.7165   5386065.7397   2405172.9518         0.0039         0.0000         0.0000         0.0000     0.0000     0.0000   2   6   0.0598   0.0804   0.0472  -0.0272   0.0490  -0.0088   0.00    0.0
2020/06/03 03:05:30.000  -2418075.7199   5386065.7988   2405172.9639         0.0039         0.0000         0.0000         0.0000     0.0000     0.0000   2   6   0.0598   0.0804   0.0472  -0.0272   0.0491  -0.0088   0.00    0.0
2020/06/03 03:05:31.000  -2418075.7256   5386065.8241   2405172.9630         0.0039         0.0000         0.0000         0.0000     0.0000     0.0000   2   6   0.0598   0.0804   0.0472  -0.0272   0.0491  -0.0087   0.00    0.0
2020/06/03 03:05:32.000  -2418075.7432   5386065.8777   2405172.9763         0.0039         0.0000         0.0000         0.0000     0.0000     0.0000   2   6   0.0598   0.0805   0.0473  -0.0273   0.0491  -0.0088   0.00    0.0
2020/06/03 03:05:33.000  -2418075.7394   5386065.9342   2405172.9947         0.0039         0.0000         0.0000         0.0000     0.0000     0.0000   2   6   0.0598   0.0807   0.0473  -0.0274   0.0492  -0.0089   0.00    0.0
2020/06/03 03:05:34.000  -2418075.7385   5386065.9311   2405172.9841         0.0039         0.0000         0.0000         0.0000     0.0000     0.0000   2   6   0.0598   0.0807   0.0473  -0.0275   0.0492  -0.0089   0.00    0.0
2020/06/03 03:05:35.000  -2418075.8245   5386066.4389   2405173.1170         0.0039         0.0000         0.0000         0.0000     0.0000     0.0000   2   6   0.0608   0.1045   0.0499  -0.0382   0.0591  -0.0158   0.00    0.0
2020/06/03 03:05:36.000  -2418075.8240   5386066.4199   2405173.1210         0.0039         0.0000         0.0000         0.0000     0.0000     0.0000   2   6   0.0608   0.1043   0.0499  -0.0381   0.0590  -0.0157   0.00    0.0
2020/06/03 03:05:37.000  -2418075.8137   5386066.4019   2405173.1246         0.0039         0.0000         0.0000         0.0000     0.0000     0.0000   2   6   0.0608   0.1044   0.0499  -0.0382   0.0590  -0.0157   0.00    0.0
2020/06/03 03:05:38.000  -2418075.8103   5386066.3113   2405173.0998         0.0039         0.0000         0.0000         0.0000     0.0000     0.0000   2   6   0.0607   0.1024   0.0497  -0.0372   0.0581  -0.0151   0.00    0.0
2020/06/03 03:05:39.000  -2418075.7476   5386065.9187   2405173.0161         0.0039         0.0000         0.0000         0.0000     0.0000     0.0000   2   6   0.0598   0.0809   0.0474  -0.0276   0.0493  -0.0089   0.00    0.0
2020/06/03 03:05:40.000  -2418075.8116   5386066.2608   2405173.0887         0.0039         0.0000         0.0000         0.0000     0.0000     0.0000   2   6   0.0608   0.1044   0.0500  -0.0382   0.0591  -0.0157   0.00    0.0
2020/06/03 03:05:41.000  -2418075.8318   5386066.2872   2405173.1102         0.0039         0.0000         0.0000         0.0000     0.0000     0.0000   2   6   0.0608   0.1042   0.0499  -0.0381   0.0590  -0.0156   0.00    0.0
2020/06/03 03:05:42.000  -2418075.8139   5386066.1849   2405173.0797         0.0039         0.0000         0.0000         0.0000     0.0000     0.0000   2   6   0.0608   0.1044   0.0500  -0.0382   0.0590  -0.0157   0.00    0.0
2020/06/03 03:05:43.000  -2418075.8123   5386066.1318   2405173.0657         0.0039         0.0000         0.0000         0.0000     0.0000     0.0000   2   6   0.0606   0.1017   0.0496  -0.0368   0.0578  -0.0147   0.00    0.0
2020/06/03 03:05:44.000  -2418075.7700   5386065.8134   2405173.0001         0.0039         0.0000         0.0000         0.0000     0.0000     0.0000   2   6   0.0599   0.0810   0.0474  -0.0277   0.0494  -0.0088   0.00    0.0
2020/06/03 03:05:45.000  -2418075.8106   5386066.0771   2405173.0720         0.0039         0.0000         0.0000         0.0000     0.0000     0.0000   2   6   0.0606   0.1008   0.0495  -0.0364   0.0574  -0.0144   0.00    0.0
2020/06/03 03:05:46.000  -2418075.7588   5386065.7616   2405173.0047         0.0039         0.0000         0.0000         0.0000     0.0000     0.0000   2   6   0.0598   0.0811   0.0474  -0.0277   0.0494  -0.0087   0.00    0.0
2020/06/03 03:05:47.000  -2418075.7734   5386065.8543   2405173.0273         0.0039         0.0000         0.0000         0.0000     0.0000     0.0000   2   6   0.0598   0.0811   0.0474  -0.0277   0.0495  -0.0087   0.00    0.0
2020/06/03 03:05:48.000  -2418075.7648   5386065.8507   2405173.0134         0.0039         0.0000         0.0000         0.0000     0.0000     0.0000   2   6   0.0599   0.0812   0.0474  -0.0278   0.0495  -0.0087   0.00    0.0
2020/06/03 03:05:49.000  -2418075.7756   5386065.9112   2405173.0472         0.0039         0.0000         0.0000         0.0000     0.0000     0.0000   2   6   0.0599   0.0812   0.0474  -0.0278   0.0495  -0.0087   0.00    0.0
2020/06/03 03:05:50.000  -2418075.7773   5386065.8425   2405173.0252         0.0039         0.0000         0.0000         0.0000     0.0000     0.0000   2   6   0.0599   0.0813   0.0474  -0.0279   0.0496  -0.0087   0.00    0.0
2020/06/03 03:05:51.000  -2418075.7886   5386065.8321   2405173.0314         0.0039         0.0000         0.0000         0.0000     0.0000     0.0000   2   7   0.0599   0.0814   0.0475  -0.0279   0.0496  -0.0087   0.00    0.0
2020/06/03 03:05:52.000  -2418075.7979   5386065.7563   2405173.0257         0.0039         0.0000         0.0000         0.0000     0.0000     0.0000   2   7   0.0599   0.0814   0.0475  -0.0280   0.0496  -0.0087   0.00    0.0
2020/06/03 03:05:53.000  -2418075.7967   5386065.7153   2405173.0112         0.0039         0.0000         0.0000         0.0000     0.0000     0.0000   2   7   0.0599   0.0815   0.0475  -0.0281   0.0497  -0.0088   0.00    0.0
2020/06/03 03:05:54.000  -2418075.8082   5386065.6273   2405172.9913         0.0039         0.0000         0.0000         0.0000     0.0000     0.0000   2   7   0.0599   0.0816   0.0475  -0.0282   0.0497  -0.0088   0.00    0.0
2020/06/03 03:05:55.000  -2418075.8201   5386065.5742   2405172.9758         0.0039         0.0000         0.0000         0.0000     0.0000     0.0000   2   7   0.0599   0.0817   0.0475  -0.0283   0.0498  -0.0088   0.00    0.0
2020/06/03 03:05:56.000  -2418075.8280   5386065.5501   2405172.9782         0.0039         0.0000         0.0000         0.0000     0.0000     0.0000   2   7   0.0599   0.0818   0.0475  -0.0283   0.0498  -0.0088   0.00    0.0
2020/06/03 03:05:57.000  -2418075.8393   5386065.5263   2405172.9729         0.0039         0.0000         0.0000         0.0000     0.0000     0.0000   2   7   0.0599   0.0820   0.0476  -0.0284   0.0499  -0.0089   0.00    0.0
2020/06/03 03:05:58.000  -2418075.8305   5386065.4558   2405172.9613         0.0039         0.0000         0.0000         0.0000     0.0000     0.0000   2   7   0.0599   0.0821   0.0476  -0.0285   0.0500  -0.0089   0.00    0.0
2020/06/03 03:05:59.000  -2418075.8512   5386065.4717   2405172.9796         0.0039         0.0000         0.0000         0.0000     0.0000     0.0000   2   7   0.0599   0.0824   0.0476  -0.0286   0.0501  -0.0090   0.00    0.0
2020/06/03 03:06:00.000  -2418075.8675   5386065.4774   2405172.9833         0.0039         0.0000         0.0000         0.0000     0.0000     0.0000   2   7   0.0599   0.0826   0.0476  -0.0288   0.0502  -0.0091   0.00    0.0
2020/06/03 03:06:01.000  -2418075.8562   5386065.3861   2405172.9640         0.0039         0.0000         0.0000         0.0000     0.0000     0.0000   2   7   0.0600   0.0829   0.0477  -0.0289   0.0503  -0.0091   0.00    0.0
2020/06/03 03:06:02.000  -2418075.8613   5386065.3968   2405172.9833         0.0039         0.0000         0.0000         0.0000     0.0000     0.0000   2   7   0.0600   0.0832   0.0477  -0.0291   0.0504  -0.0093   0.00    0.0
2020/06/03 03:06:03.000  -2418075.8810   5386065.3977   2405172.9829         0.0039         0.0000         0.0000         0.0000     0.0000     0.0000   2   7   0.0600   0.0836   0.0478  -0.0293   0.0506  -0.0094   0.00    0.0
2020/06/03 03:06:04.000  -2418075.8848   5386065.3729   2405172.9944         0.0039         0.0000         0.0000         0.0000     0.0000     0.0000   2   7   0.0600   0.0841   0.0478  -0.0295   0.0508  -0.0096   0.00    0.0
2020/06/03 03:06:05.000  -2418075.9032   5386065.3590   2405172.9832         0.0039         0.0000         0.0000         0.0000     0.0000     0.0000   2   7   0.0600   0.0848   0.0479  -0.0299   0.0511  -0.0098   0.00    0.0
2020/06/03 03:06:06.000  -2418075.9070   5386065.3384   2405172.9934         0.0039         0.0000         0.0000         0.0000     0.0000     0.0000   2   7   0.0601   0.0857   0.0480  -0.0303   0.0515  -0.0101   0.00    0.0
2020/06/03 03:06:07.000  -2418075.9230   5386065.3593   2405172.9928         0.0039         0.0000         0.0000         0.0000     0.0000     0.0000   2   7   0.0601   0.0871   0.0482  -0.0310   0.0521  -0.0106   0.00    0.0
2020/06/03 03:06:08.000  -2418075.9411   5386065.3569   2405173.0036         0.0039         0.0000         0.0000         0.0000     0.0000     0.0000   2   7   0.0602   0.0887   0.0484  -0.0317   0.0527  -0.0110   0.00    0.0
2020/06/03 03:06:09.000  -2418075.9687   5386065.5815   2405173.0624         0.0039         0.0000         0.0000         0.0000     0.0000     0.0000   2   6   0.0608   0.1033   0.0500  -0.0381   0.0588  -0.0152   0.00    0.0
2020/06/03 03:06:10.000  -2418075.9698   5386065.5241   2405173.0515         0.0039         0.0000         0.0000         0.0000     0.0000     0.0000   2   7   0.0608   0.1026   0.0500  -0.0380   0.0585  -0.0151   0.00    0.0
2020/06/03 03:06:11.000  -2418075.9722   5386065.4881   2405173.0514         0.0039         0.0000         0.0000         0.0000     0.0000     0.0000   2   6   0.0608   0.1033   0.0500  -0.0381   0.0588  -0.0151   0.00    0.0
2020/06/03 03:06:12.000  -2418075.9788   5386065.5025   2405173.0581         0.0039         0.0000         0.0000         0.0000     0.0000     0.0000   2   6   0.0608   0.1034   0.0501  -0.0381   0.0588  -0.0151   0.00    0.0
2020/06/03 03:06:13.000  -2418075.9970   5386065.5643   2405173.0760         0.0039         0.0000         0.0000         0.0000     0.0000     0.0000   2   6   0.0608   0.1033   0.0501  -0.0381   0.0588  -0.0151   0.00    0.0
2020/06/03 03:06:14.000  -2418075.9947   5386065.5946   2405173.0939         0.0039         0.0000         0.0000         0.0000     0.0000     0.0000   2   6   0.0608   0.1033   0.0501  -0.0381   0.0588  -0.0151   0.00    0.0
2020/06/03 03:06:15.000  -2418075.9946   5386065.6293   2405173.1062         0.0039         0.0000         0.0000         0.0000     0.0000     0.0000   2   6   0.0608   0.1033   0.0501  -0.0381   0.0588  -0.0151   0.00    0.0
2020/06/03 03:06:16.000  -2418076.0082   5386065.6528   2405173.1154         0.0039         0.0000         0.0000         0.0000     0.0000     0.0000   2   6   0.0608   0.1033   0.0501  -0.0381   0.0588  -0.0151   0.00    0.0
2020/06/03 03:06:17.000  -2418076.0041   5386065.6819   2405173.1290         0.0039         0.0000         0.0000         0.0000     0.0000     0.0000   2   6   0.0608   0.1033   0.0501  -0.0381   0.0588  -0.0150   0.00    0.0
2020/06/03 03:06:18.000  -2418076.0047   5386065.6170   2405173.1128         0.0039         0.0000         0.0000         0.0000     0.0000     0.0000   2   6   0.0608   0.1033   0.0501  -0.0381   0.0588  -0.0150   0.00    0.0
2020/06/03 03:06:19.000  -2418076.0164   5386065.7030   2405173.1484         0.0039         0.0000         0.0000         0.0000     0.0000     0.0000   2   6   0.0608   0.1033   0.0501  -0.0381   0.0588  -0.0150   0.00    0.0
2020/06/03 03:06:20.000  -2418076.0004   5386065.6701   2405173.1344         0.0039         0.0000         0.0000         0.0000     0.0000     0.0000   2   6   0.0608   0.1033   0.0501  -0.0381   0.0588  -0.0150   0.00    0.0
2020/06/03 03:06:21.000  -2418075.9949   5386065.6569   2405173.1408         0.0039         0.0000         0.0000         0.0000     0.0000     0.0000   2   6   0.0608   0.1032   0.0501  -0.0381   0.0588  -0.0150   0.00    0.0
2020/06/03 03:06:22.000  -2418076.0058   5386065.6772   2405173.1445         0.0039         0.0000         0.0000         0.0000     0.0000     0.0000   2   6   0.0608   0.1032   0.0501  -0.0381   0.0588  -0.0149   0.00    0.0
2020/06/03 03:06:23.000  -2418076.0008   5386065.6852   2405173.1586         0.0039         0.0000         0.0000         0.0000     0.0000     0.0000   2   6   0.0608   0.1032   0.0501  -0.0381   0.0588  -0.0149   0.00    0.0
2020/06/03 03:06:24.000  -2418076.0117   5386065.6644   2405173.1390         0.0039         0.0000         0.0000         0.0000     0.0000     0.0000   2   6   0.0608   0.1032   0.0501  -0.0381   0.0588  -0.0149   0.00    0.0
2020/06/03 03:06:25.000  -2418075.9885   5386065.5993   2405173.1355         0.0039         0.0000         0.0000         0.0000     0.0000     0.0000   2   6   0.0608   0.1032   0.0501  -0.0381   0.0588  -0.0149   0.00    0.0
2020/06/03 03:06:26.000  -2418075.9961   5386065.6776   2405173.1623         0.0039         0.0000         0.0000         0.0000     0.0000     0.0000   2   6   0.0608   0.1032   0.0501  -0.0381   0.0588  -0.0149   0.00    0.0
2020/06/03 03:06:27.000  -2418076.0009   5386065.6589   2405173.1709         0.0039         0.0000         0.0000         0.0000     0.0000     0.0000   2   6   0.0608   0.1032   0.0501  -0.0381   0.0588  -0.0149   0.00    0.0
2020/06/03 03:06:28.000  -2418075.9965   5386065.7090   2405173.1830         0.0039         0.0000         0.0000         0.0000     0.0000     0.0000   2   7   0.0608   0.1031   0.0501  -0.0381   0.0588  -0.0148   0.00    0.0
2020/06/03 03:06:29.000  -2418075.9845   5386065.7667   2405173.2034         0.0039         0.0000         0.0000         0.0000     0.0000     0.0000   2   6   0.0608   0.1031   0.0501  -0.0381   0.0588  -0.0148   0.00    0.0
2020/06/03 03:06:30.000  -2418075.9793   5386065.7395   2405173.2008         0.0040         0.0000         0.0000        -0.0000     0.0000     0.0000   2   7   0.0608   0.1026   0.0501  -0.0380   0.0586  -0.0148   0.00    0.0
2020/06/03 03:06:31.000  -2418075.9791   5386065.7540   2405173.2127         0.0040         0.0000         0.0000        -0.0000     0.0000     0.0000   2   6   0.0608   0.1030   0.0501  -0.0380   0.0587  -0.0148   0.00    0.0
2020/06/03 03:06:32.000  -2418075.9844   5386065.7940   2405173.2187         0.0040         0.0000         0.0000        -0.0000     0.0000     0.0000   2   7   0.0608   0.1024   0.0501  -0.0380   0.0586  -0.0147   0.00    0.0
2020/06/03 03:06:33.000  -2418075.9953   5386065.7860   2405173.2289         0.0040         0.0000         0.0000        -0.0000     0.0000     0.0000   2   7   0.0608   0.1024   0.0501  -0.0380   0.0585  -0.0147   0.00    0.0
2020/06/03 03:06:34.000  -2418075.9992   5386065.8252   2405173.2482         0.0040         0.0000         0.0000        -0.0000     0.0000     0.0000   2   7   0.0608   0.1023   0.0501  -0.0380   0.0585  -0.0147   0.00    0.0
2020/06/03 03:06:35.000  -2418075.9981   5386065.8595   2405173.2629         0.0040         0.0000         0.0000        -0.0000     0.0000     0.0000   2   7   0.0608   0.1023   0.0501  -0.0379   0.0585  -0.0146   0.00    0.0
2020/06/03 03:06:36.000  -2418075.9882   5386065.8197   2405173.2500         0.0040         0.0000         0.0000        -0.0000     0.0000     0.0000   2   7   0.0608   0.1022   0.0501  -0.0379   0.0585  -0.0146   0.00    0.0
2020/06/03 03:06:37.000  -2418076.0026   5386065.8802   2405173.2781         0.0040         0.0000         0.0000        -0.0000     0.0000     0.0000   2   7   0.0608   0.1022   0.0501  -0.0379   0.0585  -0.0146   0.00    0.0
2020/06/03 03:06:38.000  -2418075.9980   5386065.8294   2405173.2626         0.0040         0.0000         0.0000        -0.0000     0.0000     0.0000   2   7   0.0608   0.1022   0.0501  -0.0379   0.0585  -0.0146   0.00    0.0
2020/06/03 03:06:39.000  -2418075.9974   5386065.8832   2405173.2899         0.0040         0.0000         0.0000        -0.0000     0.0000     0.0000   2   7   0.0608   0.1021   0.0501  -0.0379   0.0585  -0.0145   0.00    0.0
2020/06/03 03:06:40.000  -2418075.9965   5386065.8834   2405173.2971         0.0040         0.0000         0.0000        -0.0000     0.0000     0.0000   2   7   0.0608   0.1021   0.0501  -0.0379   0.0585  -0.0145   0.00    0.0
2020/06/03 03:06:41.000  -2418075.9943   5386065.8415   2405173.2924         0.0040         0.0000         0.0000        -0.0000     0.0000     0.0000   2   7   0.0608   0.1021   0.0501  -0.0379   0.0585  -0.0145   0.00    0.0
2020/06/03 03:06:42.000  -2418075.9880   5386065.8245   2405173.2886         0.0040         0.0000         0.0000        -0.0000     0.0000     0.0000   2   7   0.0608   0.1020   0.0501  -0.0379   0.0585  -0.0145   0.00    0.0
2020/06/03 03:06:43.000  -2418075.9775   5386065.7977   2405173.2901         0.0040         0.0000         0.0000        -0.0000     0.0000     0.0000   2   7   0.0608   0.1020   0.0501  -0.0379   0.0584  -0.0144   0.00    0.0
2020/06/03 03:06:44.000  -2418075.9870   5386065.8290   2405173.2989         0.0040         0.0000         0.0000        -0.0000     0.0000     0.0000   2   7   0.0608   0.1020   0.0501  -0.0379   0.0584  -0.0144   0.00    0.0
2020/06/03 03:06:45.000  -2418075.9796   5386065.7605   2405173.2907         0.0040         0.0000         0.0000        -0.0000     0.0000     0.0000   2   7   0.0608   0.1020   0.0501  -0.0379   0.0584  -0.0144   0.00    0.0
2020/06/03 03:06:46.000  -2418075.9683   5386065.7424   2405173.2842         0.0040         0.0000         0.0000        -0.0000     0.0000     0.0000   2   7   0.0608   0.1019   0.0501  -0.0379   0.0584  -0.0144   0.00    0.0
2020/06/03 03:06:47.000  -2418075.9776   5386065.7273   2405173.2916         0.0040         0.0000         0.0000        -0.0000     0.0000     0.0000   2   6   0.0608   0.1027   0.0502  -0.0379   0.0587  -0.0144   0.00    0.0
2020/06/03 03:06:48.000  -2418075.9834   5386065.7549   2405173.2930         0.0040         0.0000         0.0000        -0.0000     0.0000     0.0000   2   6   0.0608   0.1028   0.0502  -0.0380   0.0587  -0.0144   0.00    0.0
2020/06/03 03:06:49.000  -2418075.9724   5386065.6973   2405173.2932         0.0040         0.0000         0.0000        -0.0000     0.0000     0.0000   2   6   0.0608   0.1028   0.0502  -0.0380   0.0587  -0.0144   0.00    0.0
