%  GPST                      x-ecef(m)      y-ecef(m)      z-ecef(m)   Q  ns   sdx(m)   sdy(m)   sdz(m)  sdxy(m)  sdyz(m)  sdzx(m) age(s)  ratio
2020/01/01 03:50:10.000   -254121.3329  -4531624.1811   4466512.4142        46.9033         0.0000         0.0000         0.0000     2.2987     7.5856   6   4   4.1829  11.5809   3.2774  -6.2575  -3.7816   2.1862   0.00    0.0
2020/01/01 03:50:15.000   -254121.8620  -4531623.2940   4466512.8340        46.2543         0.0000         0.0000         0.0000     2.2985     7.5836   6   4   2.9780   8.2547   2.3301  -4.4619  -2.7024   1.5534   0.00    0.0
2020/01/01 03:50:20.000   -254122.0424  -4531622.3255   4466512.5373        43.9324         0.0000         0.0000         0.0000     2.2971     7.5816   6   4   2.4329   6.7341   1.9089  -3.6408  -2.2098   1.2643   0.00    0.0
2020/01/01 03:50:25.000   -254121.8448  -4531623.0850   4466512.4942        45.2345         0.0000         0.0000         0.0000     2.2949     7.5796   6   4   2.1031   5.8066   1.6574  -3.1400  -1.9101   1.0881   0.00    0.0
2020/01/01 03:50:30.000   -254122.3620  -4531622.0481   4466512.7025        44.4215         0.0000         0.0000         0.0000     2.2942     7.5775   6   4   1.8749   5.1600   1.4857  -2.7909  -1.7019   0.9653   0.00    0.0
2020/01/01 03:50:35.000   -254122.2177  -4531621.8228   4466513.0237        44.4538         0.0000         0.0000         0.0000     2.2919     7.5756   6   4   1.7041   4.6735   1.3589  -2.5279  -1.5461   0.8730   0.00    0.0
2020/01/01 03:50:40.000   -254122.3859  -4531621.2167   4466513.0851        43.8535         0.0000         0.0000         0.0000     2.2867     7.5736   6   4   1.5699   4.2896   1.2605  -2.3202  -1.4240   0.8003   0.00    0.0
2020/01/01 03:50:45.000   -254122.4263  -4531621.1510   4466513.0384        43.7398         0.0000         0.0000         0.0000     2.2774     7.5716   6   4   1.4608   3.9769   1.1814  -2.1505  -1.3254   0.7411   0.00    0.0
2020/01/01 03:50:50.000   -254122.3043  -4531621.2099   4466512.8297        43.4128         0.0000         0.0000         0.0000     2.2679     7.5696   6   4   1.3675   3.7053   1.1153  -2.0032  -1.2400   0.6900   0.00    0.0
2020/01/01 03:50:55.000   -254122.5207  -4531620.6856   4466512.7583        42.5319         0.0000         0.0000         0.0000     2.2569     7.5676   6   4   1.2864   3.4663   1.0590  -1.8735  -1.1651   0.6452   0.00    0.0
2020/01/01 03:51:00.000   -254122.4091  -4531620.9618   4466512.5369        42.7029         0.0000         0.0000         0.0000     2.2483     7.5656   6   4   1.2153   3.2556   1.0104  -1.7589  -1.0997   0.6058   0.00    0.0
2020/01/01 03:51:05.000   -254122.1774  -4531621.4720   4466512.4428        43.3435         0.0000         0.0000         0.0000     2.2450     7.5637   6   4   1.1528   3.0709   0.9680  -1.6580  -1.0431   0.5714   0.00    0.0
2020/01/01 03:51:10.000   -254122.2943  -4531621.3677   4466512.3471        43.1830         0.0000         0.0000         0.0000     2.2367     7.5617   6   4   1.0977   2.9094   0.9310  -1.5692  -0.9943   0.5413   0.00    0.0
2020/01/01 03:51:15.000   -254122.3018  -4531621.3496   4466512.3150        43.3425         0.0000         0.0000         0.0000     2.2281     7.5597   6   4   1.0490   2.7682   0.8982  -1.4911  -0.9523   0.5150   0.00    0.0
2020/01/01 03:51:25.000   -254122.2576  -4531621.2404   4466512.3601        43.3584         0.0000         0.0000         0.0000     2.2179     7.5558   6   4   0.9641   2.5215   0.8497  -1.3543  -0.8529   0.4549   0.00    0.0
2020/01/01 03:51:30.000   -254122.2336  -4531621.0775   4466512.3083        42.8891         0.0000         0.0000         0.0000     2.2182     7.5538   6   4   0.9241   2.4012   0.8233  -1.2873  -0.8199   0.4344   0.00    0.0
2020/01/01 03:51:35.000   -254122.3025  -4531620.8251   4466512.2344        42.3353         0.0000         0.0000         0.0000     2.2219     7.5519   6   4   0.8877   2.2928   0.7993  -1.2265  -0.7904   0.4158   0.00    0.0
2020/01/01 03:51:40.000   -254122.4563  -4531620.4956   4466512.2006        41.9943         0.0000         0.0000         0.0000     2.2149     7.5500   6   4   0.8549   2.1967   0.7775  -1.1722  -0.7646   0.3992   0.00    0.0
2020/01/01 03:51:45.000   -254122.5528  -4531620.2590   4466512.1750        41.6935         0.0000         0.0000         0.0000     2.2142     7.5480   6   4   0.8253   2.1121   0.7576  -1.1239  -0.7422   0.3844   0.00    0.0
2020/01/01 03:51:50.000   -254122.6528  -4531619.9845   4466512.1002        41.2581         0.0000         0.0000         0.0000     2.2097     7.5461   6   4   0.7966   2.0279   0.7385  -1.0760  -0.7192   0.3697   0.00    0.0
2020/01/01 03:52:00.000   -254122.8983  -4531619.1296   4466511.9351        39.6372         0.0000         0.0000         0.0000     2.2143     7.5422   6   4   0.7446   1.8769   0.7086  -0.9895  -0.6621   0.3351   0.00    0.0
2020/01/01 03:52:05.000   -254123.0253  -4531618.7990   4466511.9368        39.1108         0.0000         0.0000         0.0000     2.2259     7.5403   6   4   0.7205   1.8059   0.6918  -0.9486  -0.6429   0.3231   0.00    0.0
2020/01/01 03:52:10.000   -254123.1764  -4531618.4041   4466511.9226        38.4907         0.0000         0.0000         0.0000     2.2394     7.5384   6   4   0.6985   1.7426   0.6765  -0.9118  -0.6261   0.3123   0.00    0.0
2020/01/01 03:52:15.000   -254123.2720  -4531617.9537   4466511.8897        37.6169         0.0000         0.0000         0.0000     2.2464     7.5365   6   4   0.6786   1.6868   0.6624  -0.8791  -0.6115   0.3026   0.00    0.0
2020/01/01 03:52:20.000   -254123.4486  -4531617.5334   4466511.8091        36.7908         0.0000         0.0000         0.0000     2.2474     7.5345   6   4   0.6589   1.6300   0.6484  -0.8459  -0.5956   0.2927   0.00    0.0
2020/01/01 03:52:30.000   -254124.0364  -4531615.7099   4466511.6761        33.3328         0.0000         0.0000         0.0000     2.2658     1.9698   6   5   0.6022   1.4395   0.6242  -0.7323  -0.5366   0.2573   0.00    0.0
2020/01/01 03:52:35.000   -254124.2971  -4531614.8742   4466511.6382        31.8069         0.0000         0.0000         0.0000     2.2740     1.9703   6   5   0.5724   1.3333   0.6105  -0.6680  -0.5105   0.2411   0.00    0.0
2020/01/01 03:52:40.000   -254124.5637  -4531614.0772   4466511.6038        30.3332         0.0000         0.0000         0.0000     2.2800     1.9708   6   5   0.5483   1.2494   0.5981  -0.6167  -0.4899   0.2280   0.00    0.0
2020/01/01 03:52:45.000   -254124.8304  -4531613.2828   4466511.5373        28.7432         0.0000         0.0000         0.0000     2.2884     1.9713   6   5   0.5283   1.1814   0.5868  -0.5746  -0.4733   0.2172   0.00    0.0
2020/01/01 03:52:50.000   -254125.0335  -4531612.7157   4466511.4296        27.5303         0.0000         0.0000         0.0000     2.2934     1.9719   6   5   0.5105   1.1218   0.5755  -0.5377  -0.4575   0.2075   0.00    0.0
2020/01/01 03:52:55.000   -254125.2356  -4531612.2334   4466511.3790        26.6858         0.0000         0.0000         0.0000     2.2987     1.9724   6   5   0.4946   1.0690   0.5641  -0.5051  -0.4423   0.1989   0.00    0.0
2020/01/01 03:53:00.000   -254125.3556  -4531611.8626   4466511.3517        25.9416         0.0000         0.0000         0.0000     2.3033     1.9729   6   5   0.4804   1.0225   0.5530  -0.4764  -0.4282   0.1912   0.00    0.0
2020/01/01 03:53:05.000   -254125.5069  -4531611.4231   4466511.2877        25.0355         0.0000         0.0000         0.0000     2.3065     1.9734   6   5   0.4676   0.9816   0.5425  -0.4510  -0.4155   0.1844   0.00    0.0
2020/01/01 03:53:10.000   -254125.6006  -4531611.2427   4466511.2927        24.7049         0.0000         0.0000         0.0000     2.3044     1.9740   6   5   0.4561   0.9460   0.5329  -0.4286  -0.4047   0.1783   0.00    0.0
2020/01/01 03:53:15.000   -254125.6967  -4531610.9931   4466511.3292        24.3083         0.0000         0.0000         0.0000     2.3020     1.9745   6   5   0.4458   0.9149   0.5241  -0.4088  -0.3955   0.1728   0.00    0.0
2020/01/01 03:53:20.000   -254125.8190  -4531610.6880   4466511.3361        23.7826         0.0000         0.0000         0.0000     2.2989     1.9750   6   5   0.4359   0.8852   0.5150  -0.3901  -0.3857   0.1677   0.00    0.0
2020/01/01 03:53:25.000   -254125.8849  -4531610.5396   4466511.3301        23.5015         0.0000         0.0000         0.0000     2.2928     1.9755   6   5   0.4265   0.8571   0.5057  -0.3726  -0.3755   0.1631   0.00    0.0
2020/01/01 03:53:30.000   -254125.9989  -4531610.2738   4466511.2840        23.0311         0.0000         0.0000         0.0000     2.2935     1.9761   6   5   0.4177   0.8309   0.4965  -0.3564  -0.3654   0.1589   0.00    0.0
2020/01/01 03:53:35.000   -254126.1040  -4531610.0543   4466511.2239        22.5085         0.0000         0.0000         0.0000     2.2965     1.9766   6   5   0.4095   0.8069   0.4878  -0.3416  -0.3562   0.1550   0.00    0.0
2020/01/01 03:53:40.000   -254126.1913  -4531609.8601   4466511.1780        22.1348         0.0000         0.0000         0.0000     2.2965     1.9771   6   5   0.4019   0.7854   0.4799  -0.3279  -0.3482   0.1514   0.00    0.0
2020/01/01 03:53:45.000   -254126.2743  -4531609.7229   4466511.1754        21.9359         0.0000         0.0000         0.0000     2.2907     1.9777   6   5   0.3949   0.7661   0.4727  -0.3155  -0.3415   0.1479   0.00    0.0
2020/01/01 03:53:50.000   -254126.3583  -4531609.5871   4466511.1138        21.5553         0.0000         0.0000         0.0000     2.2901     1.9782   6   5   0.3880   0.7470   0.4651  -0.3035  -0.3339   0.1448   0.00    0.0
2020/01/01 03:53:55.000   -254126.4083  -4531609.5147   4466511.1611        21.4664         0.0000         0.0000         0.0000     2.2882     1.9787   6   5   0.3813   0.7283   0.4572  -0.2920  -0.3258   0.1420   0.00    0.0
2020/01/01 03:54:00.000   -254126.4852  -4531609.3851   4466511.1629        21.3071         0.0000         0.0000         0.0000     2.2807     1.9793   6   5   0.3748   0.7103   0.4494  -0.2810  -0.3176   0.1395   0.00    0.0
2020/01/01 03:54:05.000   -254126.5368  -4531609.2681   4466511.1588        21.1197         0.0000         0.0000         0.0000     2.2736     1.9798   6   5   0.3687   0.6936   0.4420  -0.2707  -0.3100   0.1371   0.00    0.0
2020/01/01 03:54:10.000   -254126.6128  -4531609.1486   4466511.1601        21.0152         0.0000         0.0000         0.0000     2.2670     1.9804   6   5   0.3630   0.6785   0.4353  -0.2611  -0.3035   0.1347   0.00    0.0
2020/01/01 03:54:15.000   -254126.6391  -4531609.1194   4466511.1762        21.0558         0.0000         0.0000         0.0000     2.2577     1.9809   6   5   0.3576   0.6648   0.4292  -0.2523  -0.2981   0.1324   0.00    0.0
2020/01/01 03:54:20.000   -254126.6803  -4531609.0691   4466511.1539        20.9326         0.0000         0.0000         0.0000     2.2563     1.9814   6   5   0.3523   0.6509   0.4228  -0.2436  -0.2919   0.1303   0.00    0.0
2020/01/01 03:54:25.000   -254126.7307  -4531609.0041   4466511.1477        20.9221         0.0000         0.0000         0.0000     2.2478     1.9820   6   5   0.3471   0.6370   0.4160  -0.2350  -0.2850   0.1285   0.00    0.0
2020/01/01 03:54:30.000   -254126.7670  -4531608.9322   4466511.1548        20.8587         0.0000         0.0000         0.0000     2.2407     1.9825   6   5   0.3420   0.6235   0.4093  -0.2269  -0.2780   0.1270   0.00    0.0
2020/01/01 03:54:35.000   -254126.8237  -4531608.8403   4466511.2205        20.8727         0.0000         0.0000         0.0000     2.2282     1.9830   6   5   0.3371   0.6109   0.4030  -0.2191  -0.2716   0.1255   0.00    0.0
2020/01/01 03:54:40.000   -254126.8589  -4531608.7184   4466511.2702        20.7635         0.0000         0.0000         0.0000     2.2238     1.9836   6   5   0.3326   0.5993   0.3972  -0.2118  -0.2661   0.1239   0.00    0.0
2020/01/01 03:54:45.000   -254126.8982  -4531608.5976   4466511.2738        20.5595         0.0000         0.0000         0.0000     2.2214     1.9841   6   5   0.3283   0.5889   0.3921  -0.2049  -0.2616   0.1223   0.00    0.0
2020/01/01 03:54:50.000   -254126.9458  -4531608.4939   4466511.2548        20.4380         0.0000         0.0000         0.0000     2.2159     1.9847   6   5   0.3240   0.5781   0.3866  -0.1981  -0.2563   0.1208   0.00    0.0
2020/01/01 03:54:55.000   -254126.9950  -4531608.4291   4466511.2340        20.3464         0.0000         0.0000         0.0000     2.2123     1.9852   6   5   0.3197   0.5672   0.3807  -0.1914  -0.2504   0.1197   0.00    0.0
2020/01/01 03:55:00.000   -254127.0058  -4531608.3367   4466511.1881        20.0338         0.0000         0.0000         0.0000     2.2132     1.9857   6   5   0.3155   0.5565   0.3749  -0.1849  -0.2444   0.1188   0.00    0.0
2020/01/01 03:55:05.000   -254127.0269  -4531608.2735   4466511.1651        19.8416         0.0000         0.0000         0.0000     2.2129     1.9863   6   5   0.3114   0.5464   0.3694  -0.1787  -0.2388   0.1179   0.00    0.0
2020/01/01 03:55:10.000   -254127.0452  -4531608.1922   4466511.1692        19.6760         0.0000         0.0000         0.0000     2.2160     1.9868   6   5   0.3076   0.5372   0.3644  -0.1727  -0.2341   0.1167   0.00    0.0
2020/01/01 03:55:15.000   -254127.0621  -4531608.1488   4466511.1547        19.5805         0.0000         0.0000         0.0000     2.2169     1.9874   6   5   0.3041   0.5289   0.3600  -0.1671  -0.2303   0.1155   0.00    0.0
2020/01/01 03:55:20.000   -254127.0753  -4531608.1132   4466511.1494        19.4605         0.0000         0.0000         0.0000     2.2163     1.9879   6   5   0.3005   0.5202   0.3553  -0.1615  -0.2258   0.1145   0.00    0.0
2020/01/01 03:55:25.000   -254127.1018  -4531608.0707   4466511.1702        19.4092         0.0000         0.0000         0.0000     2.2141     1.9885   6   5   0.2968   0.5113   0.3502  -0.1559  -0.2207   0.1138   0.00    0.0
2020/01/01 03:55:30.000   -254127.0951  -4531608.0695   4466511.1784        19.4337         0.0000         0.0000         0.0000     2.2150     1.9890   6   5   0.2933   0.5025   0.3451  -0.1505  -0.2154   0.1132   0.00    0.0
2020/01/01 03:55:35.000   -254127.0801  -4531608.0567   4466511.1616        19.3106         0.0000         0.0000         0.0000     2.2178     1.9896   6   5   0.2898   0.4942   0.3403  -0.1452  -0.2105   0.1126   0.00    0.0
2020/01/01 03:55:40.000   -254127.0553  -4531608.0353   4466511.1461        19.1994         0.0000         0.0000         0.0000     2.2225     1.9901   6   5   0.2866   0.4866   0.3360  -0.1401  -0.2064   0.1117   0.00    0.0
2020/01/01 03:55:50.000   -254127.0387  -4531608.0076   4466511.1262        19.1058         0.0000         0.0000         0.0000     2.2268     1.9912   6   5   0.2833   0.4790   0.3316  -0.1349  -0.2023   0.1110   0.00    0.0
2020/01/01 03:56:00.000   -254127.0070  -4531608.0000   4466511.0885        18.9459         0.0000         0.0000         0.0000     2.2311     1.9923   6   5   0.2799   0.4706   0.3265  -0.1294  -0.1968   0.1106   0.00    0.0
2020/01/01 03:56:05.000   -254126.9479  -4531608.0505   4466511.1019        19.0039         0.0000         0.0000         0.0000     2.2312     1.9929   6   5   0.2766   0.4628   0.3218  -0.1240  -0.1919   0.1102   0.00    0.0
2020/01/01 03:56:10.000   -254126.9203  -4531608.0804   4466511.1125        18.9829         0.0000         0.0000         0.0000     2.2310     1.9934   6   5   0.2736   0.4556   0.3176  -0.1189  -0.1879   0.1095   0.00    0.0
2020/01/01 03:56:15.000   -254126.8987  -4531608.1430   4466511.1311        19.1357         0.0000         0.0000         0.0000     2.2261     1.9940   6   5   0.2707   0.4493   0.3139  -0.1140  -0.1847   0.1086   0.00    0.0
2020/01/01 03:56:20.000   -254126.8822  -4531608.1829   4466511.1333        19.1793         0.0000         0.0000         0.0000     2.2240     1.9945   6   5   0.2678   0.4426   0.3099  -0.1090  -0.1808   0.1080   0.00    0.0
2020/01/01 03:56:25.000   -254126.8718  -4531608.1890   4466511.1409        19.1378         0.0000         0.0000         0.0000     2.2216     1.9951   6   5   0.2648   0.4356   0.3056  -0.1040  -0.1763   0.1077   0.00    0.0
2020/01/01 03:56:30.000   -254126.8454  -4531608.1785   4466511.1387        19.0379         0.0000         0.0000         0.0000     2.2224     1.9956   6   5   0.2619   0.4287   0.3012  -0.0991  -0.1717   0.1074   0.00    0.0
2020/01/01 03:56:35.000   -254126.8294  -4531608.1796   4466511.1285        18.9781         0.0000         0.0000         0.0000     2.2230     1.9962   6   5   0.2591   0.4222   0.2971  -0.0943  -0.1675   0.1071   0.00    0.0
2020/01/01 03:56:40.000   -254126.8285  -4531608.1978   4466511.1331        19.0065         0.0000         0.0000         0.0000     2.2196     1.9967   6   5   0.2565   0.4163   0.2935  -0.0896  -0.1640   0.1066   0.00    0.0
2020/01/01 03:56:45.000   -254126.8021  -4531608.2257   4466511.1524        19.0722         0.0000         0.0000         0.0000     2.2199     1.9973   6   5   0.2540   0.4110   0.2904  -0.0850  -0.1614   0.1058   0.00    0.0
2020/01/01 03:56:50.000   -254126.7841  -4531608.2468   4466511.1596        19.1270         0.0000         0.0000         0.0000     2.2194     1.9978   6   5   0.2515   0.4054   0.2869  -0.0803  -0.1581   0.1053   0.00    0.0
2020/01/01 03:57:00.000   -254126.7710  -4531608.2361   4466511.1619        19.1271         0.0000         0.0000         0.0000     2.2151     1.9990   6   5   0.2488   0.3992   0.2828  -0.0753  -0.1537   0.1052   0.00    0.0
2020/01/01 03:57:10.000   -254126.7546  -4531608.2094   4466511.1676        19.0624         0.0000         0.0000         0.0000     2.2156     2.0001   6   5   0.2463   0.3936   0.2793  -0.0699  -0.1502   0.1047   0.00    0.0
2020/01/01 03:57:30.000   -254126.7513  -4531608.1521   4466511.1686        18.8805         0.0000         0.0000         0.0000     2.2190     2.0023   6   5   0.2434   0.3869   0.2748  -0.0635  -0.1452   0.1047   0.00    0.0
2020/01/01 03:57:35.000   -254126.7314  -4531608.1250   4466511.1971        18.8098         0.0000         0.0000         0.0000     2.2221     2.0029   6   5   0.2407   0.3807   0.2707  -0.0570  -0.1407   0.1045   0.00    0.0
2020/01/01 03:57:45.000   -254126.7310  -4531608.0957   4466511.2088        18.7073         0.0000         0.0000         0.0000     2.2229     2.0040   6   5   0.2383   0.3754   0.2675  -0.0500  -0.1378   0.1038   0.00    0.0
2020/01/01 03:57:50.000   -254126.7187  -4531608.0505   4466511.2213        18.5785         0.0000         0.0000         0.0000     2.2264     2.0046   6   5   0.2358   0.3699   0.2639  -0.0422  -0.1342   0.1034   0.00    0.0
2020/01/01 03:58:10.000   -254126.7184  -4531607.9882   4466511.2020        18.3344         0.0000         0.0000         0.0000     2.2316     2.0068   6   5   0.2332   0.3640   0.2600  -0.0316  -0.1301   0.1030   0.00    0.0
2020/01/01 03:58:15.000   -254126.7161  -4531607.9405   4466511.1886        18.2437         0.0000         0.0000         0.0000     2.2358     2.0074   6   5   0.2308   0.3588   0.2567  -0.0177  -0.1271   0.1024   0.00    0.0
2020/01/01 03:58:20.000   -254126.7170  -4531607.8791   4466511.2132        18.1105         0.0000         0.0000         0.0000     2.2381     2.0079   6   5   0.2284   0.3534   0.2531   0.0186  -0.1234   0.1020   0.00    0.0
2020/01/01 03:58:25.000   -254126.7124  -4531607.8231   4466511.2130        17.9503         0.0000         0.0000         0.0000     2.2402     2.0085   6   5   0.2258   0.3477   0.2492   0.0308  -0.1189   0.1019   0.00    0.0
2020/01/01 03:58:35.000   -254126.7172  -4531607.7603   4466511.2253        17.7858         0.0000         0.0000         0.0000     2.2418     2.0097   6   5   0.2233   0.3421   0.2453   0.0391  -0.1145   0.1018   0.00    0.0
2020/01/01 03:58:40.000   -254126.7190  -4531607.7172   4466511.2284        17.6939         0.0000         0.0000         0.0000     2.2429     2.0102   6   5   0.2210   0.3371   0.2420   0.0455  -0.1110   0.1015   0.00    0.0
2020/01/01 03:58:45.000   -254126.7147  -4531607.6759   4466511.2411        17.5984         0.0000         0.0000         0.0000     2.2447     2.0108   6   5   0.2190   0.3328   0.2391   0.0505  -0.1084   0.1009   0.00    0.0
2020/01/01 03:58:50.000   -254126.7220  -4531607.6481   4466511.2357        17.5216         0.0000         0.0000         0.0000     2.2419     2.0114   6   5   0.2168   0.3282   0.2360   0.0548  -0.1051   0.1005   0.00    0.0
2020/01/01 03:58:55.000   -254126.7241  -4531607.6011   4466511.2235        17.3739         0.0000         0.0000         0.0000     2.2419     2.0119   6   5   0.2146   0.3234   0.2326   0.0585  -0.1012   0.1004   0.00    0.0
2020/01/01 03:59:05.000   -254126.7236  -4531607.5541   4466511.1776        17.1967         0.0000         0.0000         0.0000     2.2444     2.0131   6   5   0.2124   0.3186   0.2292   0.0618  -0.0972   0.1003   0.00    0.0
2020/01/01 03:59:10.000   -254126.7403  -4531607.5380   4466511.1528        17.1208         0.0000         0.0000         0.0000     2.2434     2.0136   6   5   0.2103   0.3144   0.2263   0.0648  -0.0942   0.0999   0.00    0.0
2020/01/01 03:59:15.000   -254126.7412  -4531607.5231   4466511.1313        17.0501         0.0000         0.0000         0.0000     2.2434     2.0142   6   5   0.2085   0.3107   0.2238   0.0673  -0.0920   0.0994   0.00    0.0
2020/01/01 03:59:20.000   -254126.7373  -4531607.5173   4466511.1129        16.9728         0.0000         0.0000         0.0000     2.2437     1.9503   6   6   0.2064   0.3067   0.2210   0.0696  -0.0890   0.0991   0.00    0.0
2020/01/01 03:59:25.000   -254126.7198  -4531607.5081   4466511.0776        16.8431         0.0000         0.0000         0.0000     2.2459     1.9508   6   6   0.2042   0.3025   0.2180   0.0715  -0.0854   0.0991   0.00    0.0
2020/01/01 03:59:35.000   -254126.7281  -4531607.4903   4466511.0423        16.6900         0.0000         0.0000         0.0000     2.2456     1.9519   6   6   0.2020   0.2985   0.2157   0.0733  -0.0811   0.0991   0.00    0.0
2020/01/01 03:59:45.000   -254126.7353  -4531607.4637   4466511.0219        16.6327         0.0000         0.0000         0.0000     2.2460     1.8955   6   7   0.2001   0.2948   0.2135   0.0751  -0.0795   0.0988   0.00    0.0
2020/01/01 03:59:50.000   -254126.7390  -4531607.4449   4466510.9840        16.4825         0.0000         0.0000         0.0000     2.2463     1.8958   6   7   0.1982   0.2909   0.2111   0.0768  -0.0771   0.0986   0.00    0.0
2020/01/01 03:59:55.000   -254126.7489  -4531607.4372   4466510.9258        16.4149         0.0000         0.0000         0.0000     2.2457     1.8961   6   5   0.1970   0.2873   0.2095   0.0801  -0.0757   0.0976   0.00    0.0
2020/01/01 04:00:00.000   -254126.7462  -4531607.4331   4466510.8920        16.3043         0.0000         0.0000         0.0000     2.2457     1.8965   6   7   0.1950   0.2832   0.2068   0.0811  -0.0723   0.0977   0.00    0.0
2020/01/01 05:07:35.000   -254126.7504  -4531607.4370   4466510.8859        11.4111         0.0000         0.0000         0.0000     2.2450     3.2677   6   4   0.1938   0.2820   0.2065   0.0789  -0.0738   0.0965   0.00    0.0
2020/01/01 05:07:40.000   -254126.7480  -4531607.4389   4466510.8857        11.2539         0.0000         0.0000         0.0000     2.2451     3.2678   6   4   0.1927   0.2808   0.2061   0.0768  -0.0752   0.0954   0.00    0.0
2020/01/01 05:07:45.000   -254126.7443  -4531607.4374   4466510.8885        11.5900         0.0000         0.0000         0.0000     2.2455     3.2679   6   4   0.1916   0.2796   0.2058   0.0746  -0.0765   0.0942   0.00    0.0
2020/01/01 05:07:50.000   -254126.7528  -4531607.4439   4466510.8838        11.3104         0.0000         0.0000         0.0000     2.2443     3.2680   6   4   0.1906   0.2785   0.2054   0.0725  -0.0778   0.0931   0.00    0.0
2020/01/01 05:07:55.000   -254126.7638  -4531607.4433   4466510.8769        11.5734         0.0000         0.0000         0.0000     2.2433     3.2682   6   4   0.1895   0.2773   0.2051   0.0704  -0.0789   0.0921   0.00    0.0
2020/01/01 05:08:00.000   -254126.7683  -4531607.4402   4466510.8734        11.6014         0.0000         0.0000         0.0000     2.2432     3.2683   6   4   0.1885   0.2762   0.2048   0.0683  -0.0801   0.0910   0.00    0.0
2020/01/01 05:08:05.000   -254126.7771  -4531607.4309   4466510.8704        11.5347         0.0000         0.0000         0.0000     2.2431     3.2684   6   4   0.1875   0.2751   0.2044   0.0662  -0.0811   0.0899   0.00    0.0
2020/01/01 05:08:10.000   -254126.7791  -4531607.4262   4466510.8671        11.2974         0.0000         0.0000         0.0000     2.2433     3.2685   6   4   0.1865   0.2740   0.2041   0.0642  -0.0821   0.0889   0.00    0.0
2020/01/01 05:08:15.000   -254126.7897  -4531607.4287   4466510.8591        11.0906         0.0000         0.0000         0.0000     2.2422     3.2686   6   4   0.1855   0.2730   0.2038   0.0621  -0.0831   0.0879   0.00    0.0
2020/01/01 05:08:20.000   -254126.7973  -4531607.4220   4466510.8527        11.3569         0.0000         0.0000         0.0000     2.2421     3.2687   6   4   0.1845   0.2719   0.2035   0.0600  -0.0840   0.0869   0.00    0.0
2020/01/01 05:08:25.000   -254126.7924  -4531607.4129   4466510.8526        11.5509         0.0000         0.0000         0.0000     2.2433     3.2688   6   4   0.1836   0.2708   0.2032   0.0580  -0.0849   0.0859   0.00    0.0
2020/01/01 05:08:30.000   -254126.7953  -4531607.4105   4466510.8518        11.8063         0.0000         0.0000         0.0000     2.2432     3.2690   6   4   0.1826   0.2698   0.2029   0.0559  -0.0857   0.0849   0.00    0.0
2020/01/01 05:08:35.000   -254126.7915  -4531607.4049   4466510.8529        11.5936         0.0000         0.0000         0.0000     2.2441     3.2691   6   4   0.1817   0.2687   0.2026   0.0538  -0.0864   0.0839   0.00    0.0
2020/01/01 05:08:40.000   -254126.7948  -4531607.4104   4466510.8483        11.6459         0.0000         0.0000         0.0000     2.2435     3.2692   6   4   0.1807   0.2677   0.2023   0.0517  -0.0871   0.0829   0.00    0.0
2020/01/01 05:08:45.000   -254126.8016  -4531607.4171   4466510.8418        11.6202         0.0000         0.0000         0.0000     2.2427     3.2693   6   4   0.1798   0.2667   0.2020   0.0496  -0.0878   0.0820   0.00    0.0
2020/01/01 05:08:50.000   -254126.8096  -4531607.4216   4466510.8342        11.5868         0.0000         0.0000         0.0000     2.2418     3.2694   6   4   0.1789   0.2657   0.2017   0.0475  -0.0885   0.0810   0.00    0.0
2020/01/01 05:08:55.000   -254126.8200  -4531607.4351   4466510.8262        11.5622         0.0000         0.0000         0.0000     2.2402     3.2696   6   4   0.1780   0.2647   0.2014   0.0453  -0.0890   0.0801   0.00    0.0
2020/01/01 05:09:00.000   -254126.8266  -4531607.4455   4466510.8196        11.6193         0.0000         0.0000         0.0000     2.2391     3.2697   6   4   0.1771   0.2636   0.2011   0.0431  -0.0896   0.0792   0.00    0.0
2020/01/01 05:09:05.000   -254126.8266  -4531607.4542   4466510.8189        11.6328         0.0000         0.0000         0.0000     2.2385     3.2698   6   4   0.1761   0.2626   0.2008   0.0409  -0.0901   0.0782   0.00    0.0
2020/01/01 05:09:10.000   -254126.8323  -4531607.4713   4466510.8155        11.5788         0.0000         0.0000         0.0000     2.2369     3.2699   6   4   0.1752   0.2616   0.2005   0.0386  -0.0906   0.0773   0.00    0.0
2020/01/01 05:09:15.000   -254126.8362  -4531607.4783   4466510.8158        11.6465         0.0000         0.0000         0.0000     2.2360     3.2701   6   4   0.1743   0.2607   0.2002   0.0363  -0.0910   0.0764   0.00    0.0
2020/01/01 05:09:20.000   -254126.8453  -4531607.4772   4466510.8078        11.5646         0.0000         0.0000         0.0000     2.2354     3.2702   6   4   0.1734   0.2597   0.1999   0.0339  -0.0914   0.0756   0.00    0.0
2020/01/01 05:09:25.000   -254126.8492  -4531607.4763   4466510.8061        11.4779         0.0000         0.0000         0.0000     2.2351     3.2703   6   4   0.1725   0.2587   0.1996   0.0314  -0.0918   0.0747   0.00    0.0
2020/01/01 05:09:30.000   -254126.8538  -4531607.4832   4466510.8039        11.4269         0.0000         0.0000         0.0000     2.2344     3.2705   6   4   0.1716   0.2576   0.1993   0.0288  -0.0921   0.0738   0.00    0.0
2020/01/01 05:09:35.000   -254126.8477  -4531607.4803   4466510.8055        11.3494         0.0000         0.0000         0.0000     2.2352     3.2706   6   4   0.1707   0.2566   0.1990   0.0261  -0.0923   0.0729   0.00    0.0
2020/01/01 05:09:40.000   -254126.8489  -4531607.4821   4466510.8058        11.3283         0.0000         0.0000         0.0000     2.2347     3.2707   6   4   0.1698   0.2557   0.1987   0.0231  -0.0926   0.0720   0.00    0.0
2020/01/01 05:09:45.000   -254126.8430  -4531607.4811   4466510.8089        11.2887         0.0000         0.0000         0.0000     2.2352     3.2709   6   4   0.1690   0.2547   0.1984   0.0198  -0.0929   0.0711   0.00    0.0
2020/01/01 05:09:50.000   -254126.8439  -4531607.4829   4466510.8133        11.3546         0.0000         0.0000         0.0000     2.2344     3.2710   6   4   0.1681   0.2537   0.1981   0.0160  -0.0931   0.0703   0.00    0.0
2020/01/01 05:09:55.000   -254126.8421  -4531607.4869   4466510.8195        11.4448         0.0000         0.0000         0.0000     2.2338     3.2711   6   4   0.1672   0.2527   0.1977   0.0114  -0.0932   0.0694   0.00    0.0
2020/01/01 05:10:00.000   -254126.8382  -4531607.4829   4466510.8302        11.4348         0.0000         0.0000         0.0000     2.2337     3.2713   6   4   0.1662   0.2517   0.1974   0.0031  -0.0933   0.0685   0.00    0.0
2020/01/01 05:10:05.000   -254126.8213  -4531607.4615   4466510.8403        11.4151         0.0000         0.0000         0.0000     2.2364     3.2714   6   4   0.1653   0.2507   0.1971  -0.0103  -0.0934   0.0676   0.00    0.0
2020/01/01 05:10:10.000   -254126.8114  -4531607.4521   4466510.8478        11.4388         0.0000         0.0000         0.0000     2.2376     3.2715   6   4   0.1645   0.2497   0.1967  -0.0148  -0.0934   0.0668   0.00    0.0
2020/01/01 05:10:15.000   -254126.8065  -4531607.4413   4466510.8522        11.4375         0.0000         0.0000         0.0000     2.2383     3.2717   6   4   0.1636   0.2487   0.1964  -0.0182  -0.0935   0.0660   0.00    0.0
2020/01/01 05:10:20.000   -254126.7942  -4531607.4272   4466510.8621        11.5713         0.0000         0.0000         0.0000     2.2398     3.2718   6   4   0.1627   0.2477   0.1961  -0.0209  -0.0936   0.0651   0.00    0.0
2020/01/01 05:10:25.000   -254126.7802  -4531607.4233   4466510.8700        11.6423         0.0000         0.0000         0.0000     2.2412     3.2720   6   4   0.1618   0.2467   0.1957  -0.0230  -0.0935   0.0642   0.00    0.0
2020/01/01 05:10:30.000   -254126.7700  -4531607.4237   4466510.8823        11.7827         0.0000         0.0000         0.0000     2.2414     3.2721   6   4   0.1609   0.2457   0.1954  -0.0249  -0.0934   0.0633   0.00    0.0
2020/01/01 05:10:35.000   -254126.7621  -4531607.4153   4466510.8910        11.8855         0.0000         0.0000         0.0000     2.2420     3.2722   6   4   0.1600   0.2446   0.1950  -0.0265  -0.0932   0.0625   0.00    0.0
2020/01/01 05:10:40.000   -254126.7525  -4531607.4132   4466510.8998        11.9931         0.0000         0.0000         0.0000     2.2421     3.2724   6   4   0.1591   0.2436   0.1947  -0.0280  -0.0931   0.0616   0.00    0.0
2020/01/01 05:10:45.000   -254126.7326  -4531607.4114   4466510.9112        12.0251         0.0000         0.0000         0.0000     2.2436     3.2725   6   4   0.1582   0.2427   0.1943  -0.0295  -0.0931   0.0608   0.00    0.0
2020/01/01 05:10:50.000   -254126.7205  -4531607.4216   4466510.9189        12.1461         0.0000         0.0000         0.0000     2.2436     3.2727   6   4   0.1574   0.2417   0.1940  -0.0307  -0.0929   0.0599   0.00    0.0
2020/01/01 05:10:55.000   -254126.7043  -4531607.4156   4466510.9298        12.2621         0.0000         0.0000         0.0000     2.2455     3.2728   6   4   0.1565   0.2406   0.1936  -0.0317  -0.0927   0.0590   0.00    0.0
2020/01/01 05:11:00.000   -254126.6852  -4531607.4161   4466510.9391        12.2826         0.0000         0.0000         0.0000     2.2472     3.2730   6   4   0.1555   0.2396   0.1932  -0.0326  -0.0924   0.0581   0.00    0.0
2020/01/01 05:11:05.000   -254126.6617  -4531607.4110   4466510.9513        12.3322         0.0000         0.0000         0.0000     2.2495     3.2731   6   4   0.1546   0.2385   0.1928  -0.0334  -0.0921   0.0572   0.00    0.0
2020/01/01 05:11:10.000   -254126.6478  -4531607.3997   4466510.9568        12.3160         0.0000         0.0000         0.0000     2.2517     3.2733   6   4   0.1538   0.2375   0.1924  -0.0343  -0.0918   0.0563   0.00    0.0
2020/01/01 05:11:15.000   -254126.6306  -4531607.3922   4466510.9544        12.3186         0.0000         0.0000         0.0000     2.2545     3.2734   6   4   0.1529   0.2365   0.1920  -0.0351  -0.0916   0.0555   0.00    0.0
2020/01/01 05:11:20.000   -254126.6134  -4531607.3873   4466510.9505        12.2661         0.0000         0.0000         0.0000     2.2568     3.2736   6   4   0.1521   0.2355   0.1916  -0.0358  -0.0913   0.0546   0.00    0.0
2020/01/01 05:11:25.000   -254126.5981  -4531607.3821   4466510.9554        12.2731         0.0000         0.0000         0.0000     2.2586     3.2737   6   4   0.1512   0.2345   0.1912  -0.0363  -0.0909   0.0537   0.00    0.0
2020/01/01 05:11:30.000   -254126.5871  -4531607.3808   4466510.9607        12.2789         0.0000         0.0000         0.0000     2.2598     3.2739   6   4   0.1503   0.2334   0.1908  -0.0367  -0.0904   0.0527   0.00    0.0
2020/01/01 05:11:35.000   -254126.5714  -4531607.3893   4466510.9704        12.3145         0.0000         0.0000         0.0000     2.2603     3.2740   6   4   0.1494   0.2323   0.1903  -0.0370  -0.0900   0.0518   0.00    0.0
2020/01/01 05:11:40.000   -254126.5702  -4531607.3862   4466510.9704        12.2403         0.0000         0.0000         0.0000     2.2602     3.2742   6   4   0.1485   0.2313   0.1899  -0.0374  -0.0896   0.0508   0.00    0.0
2020/01/01 05:11:45.000   -254126.5657  -4531607.3983   4466510.9734        12.3619         0.0000         0.0000         0.0000     2.2597     3.2744   6   4   0.1477   0.2303   0.1895  -0.0379  -0.0893   0.0500   0.00    0.0
2020/01/01 05:11:50.000   -254126.5603  -4531607.3937   4466510.9763        12.3946         0.0000         0.0000         0.0000     2.2600     3.2745   6   4   0.1469   0.2293   0.1891  -0.0382  -0.0888   0.0491   0.00    0.0
2020/01/01 05:11:55.000   -254126.5610  -4531607.3948   4466510.9761        12.4073         0.0000         0.0000         0.0000     2.2594     3.2747   6   4   0.1460   0.2282   0.1887  -0.0384  -0.0882   0.0480   0.00    0.0
2020/01/01 05:12:00.000   -254126.5614  -4531607.3822   4466510.9728        12.3963         0.0000         0.0000         0.0000     2.2600     3.2748   6   4   0.1451   0.2271   0.1882  -0.0384  -0.0876   0.0470   0.00    0.0
2020/01/01 05:12:05.000   -254126.5639  -4531607.3785   4466510.9686        12.4020         0.0000         0.0000         0.0000     2.2601     3.2750   6   4   0.1442   0.2260   0.1877  -0.0385  -0.0870   0.0459   0.00    0.0
2020/01/01 05:12:10.000   -254126.5613  -4531607.3624   4466510.9692        12.3653         0.0000         0.0000         0.0000     2.2614     3.2752   6   4   0.1434   0.2250   0.1872  -0.0386  -0.0865   0.0450   0.00    0.0
2020/01/01 05:12:15.000   -254126.5598  -4531607.3525   4466510.9701        12.3821         0.0000         0.0000         0.0000     2.2622     3.2753   6   4   0.1426   0.2240   0.1869  -0.0388  -0.0860   0.0441   0.00    0.0
2020/01/01 05:12:20.000   -254126.5645  -4531607.3470   4466510.9650        12.3832         0.0000         0.0000         0.0000     2.2622     3.2755   6   4   0.1418   0.2230   0.1864  -0.0388  -0.0855   0.0430   0.00    0.0
2020/01/01 05:12:25.000   -254126.5727  -4531607.3412   4466510.9582        12.4230         0.0000         0.0000         0.0000     2.2616     3.2757   6   4   0.1410   0.2219   0.1859  -0.0387  -0.0848   0.0419   0.00    0.0
2020/01/01 05:12:30.000   -254126.5761  -4531607.3393   4466510.9562        12.3815         0.0000         0.0000         0.0000     2.2614     3.2758   6   4   0.1401   0.2208   0.1854  -0.0385  -0.0840   0.0408   0.00    0.0
2020/01/01 05:12:35.000   -254126.5794  -4531607.3337   4466510.9527        12.3948         0.0000         0.0000         0.0000     2.2619     3.2760   6   4   0.1393   0.2197   0.1849  -0.0383  -0.0832   0.0396   0.00    0.0
2020/01/01 05:12:40.000   -254126.5924  -4531607.3311   4466510.9486        12.3491         0.0000         0.0000         0.0000     2.2605     3.2762   6   4   0.1385   0.2186   0.1844  -0.0382  -0.0826   0.0385   0.00    0.0
2020/01/01 05:12:45.000   -254126.6051  -4531607.3303   4466510.9468        12.3348         0.0000         0.0000         0.0000     2.2593     3.2763   6   4   0.1377   0.2177   0.1840  -0.0382  -0.0821   0.0375   0.00    0.0
2020/01/01 05:12:50.000   -254126.6088  -4531607.3215   4466510.9459        12.2582         0.0000         0.0000         0.0000     2.2594     3.2765   6   4   0.1369   0.2167   0.1835  -0.0380  -0.0814   0.0364   0.00    0.0
2020/01/01 05:12:55.000   -254126.6158  -4531607.3189   4466510.9432        12.2071         0.0000         0.0000         0.0000     2.2587     3.2767   6   4   0.1361   0.2156   0.1830  -0.0377  -0.0806   0.0351   0.00    0.0
2020/01/01 05:13:00.000   -254126.6261  -4531607.3070   4466510.9304        12.1655         0.0000         0.0000         0.0000     2.2587     3.2768   6   4   0.1353   0.2144   0.1824  -0.0373  -0.0797   0.0337   0.00    0.0
2020/01/01 05:13:05.000   -254126.6271  -4531607.2941   4466510.9287        12.1128         0.0000         0.0000         0.0000     2.2600     3.2770   6   4   0.1345   0.2133   0.1819  -0.0369  -0.0788   0.0324   0.00    0.0
2020/01/01 05:13:10.000   -254126.6274  -4531607.2854   4466510.9347        12.0512         0.0000         0.0000         0.0000     2.2601     3.2772   6   4   0.1337   0.2123   0.1814  -0.0366  -0.0781   0.0311   0.00    0.0
2020/01/01 05:13:15.000   -254126.6355  -4531607.2761   4466510.9334        11.9526         0.0000         0.0000         0.0000     2.2598     3.2774   6   4   0.1330   0.2114   0.1810  -0.0365  -0.0775   0.0299   0.00    0.0
2020/01/01 05:13:20.000   -254126.6403  -4531607.2698   4466510.9380        11.9238         0.0000         0.0000         0.0000     2.2587     3.2776   6   4   0.1323   0.2103   0.1805  -0.0361  -0.0767   0.0285   0.00    0.0
2020/01/01 05:13:25.000   -254126.6513  -4531607.2761   4466510.9373        11.9260         0.0000         0.0000         0.0000     2.2570     3.2777   6   4   0.1315   0.2092   0.1799  -0.0356  -0.0758   0.0270   0.00    0.0
2020/01/01 05:13:30.000   -254126.6476  -4531607.2684   4466510.9389        11.8796         0.0000         0.0000         0.0000     2.2582     3.2779   6   4   0.1307   0.2081   0.1793  -0.0350  -0.0748   0.0252   0.00    0.0
2020/01/01 05:13:35.000   -254126.6472  -4531607.2620   4466510.9368        11.8798         0.0000         0.0000         0.0000     2.2590     3.2781   6   4   0.1300   0.2070   0.1788  -0.0344  -0.0738   0.0235   0.00    0.0
2020/01/01 05:13:40.000   -254126.6443  -4531607.2540   4466510.9383        11.8203         0.0000         0.0000         0.0000     2.2602     3.2783   6   4   0.1292   0.2060   0.1783  -0.0340  -0.0730   0.0218   0.00    0.0
2020/01/01 05:13:45.000   -254126.6432  -4531607.2518   4466510.9353        11.7440         0.0000         0.0000         0.0000     2.2613     3.2785   6   4   0.1286   0.2051   0.1778  -0.0337  -0.0723   0.0202   0.00    0.0
2020/01/01 05:13:50.000   -254126.6428  -4531607.2475   4466510.9297        11.6725         0.0000         0.0000         0.0000     2.2626     3.2786   6   4   0.1279   0.2041   0.1773  -0.0333  -0.0715   0.0182   0.00    0.0
2020/01/01 05:13:55.000   -254126.6434  -4531607.2422   4466510.9309        11.7082         0.0000         0.0000         0.0000     2.2634     3.2788   6   4   0.1271   0.2030   0.1768  -0.0326  -0.0704   0.0158   0.00    0.0
2020/01/01 05:14:00.000   -254126.6437  -4531607.2337   4466510.9251        11.6542         0.0000         0.0000         0.0000     2.2643     3.2790   6   4   0.1264   0.2019   0.1762  -0.0318  -0.0693   0.0128   0.00    0.0
2020/01/01 05:14:05.000   -254126.6467  -4531607.2166   4466510.9212        11.5934         0.0000         0.0000         0.0000     2.2653     3.2792   6   4   0.1257   0.2008   0.1756  -0.0311  -0.0682   0.0091   0.00    0.0
2020/01/01 05:14:10.000   -254126.6466  -4531607.2186   4466510.9258        11.5779         0.0000         0.0000         0.0000     2.2651     3.2794   6   4   0.1250   0.1998   0.1751  -0.0306  -0.0673   0.0032   0.00    0.0
2020/01/01 05:14:15.000   -254126.6480  -4531607.2261   4466510.9265        11.5515         0.0000         0.0000         0.0000     2.2646     3.2796   6   4   0.1244   0.1989   0.1746  -0.0302  -0.0666  -0.0072   0.00    0.0
2020/01/01 05:14:20.000   -254126.6499  -4531607.2217   4466510.9240        11.4729         0.0000         0.0000         0.0000     2.2648     3.2798   6   4   0.1237   0.1979   0.1741  -0.0296  -0.0657  -0.0111   0.00    0.0
2020/01/01 05:14:25.000   -254126.6501  -4531607.2210   4466510.9342        11.4619         0.0000         0.0000         0.0000     2.2650     3.2799   6   4   0.1231   0.1969   0.1735  -0.0287  -0.0645  -0.0142   0.00    0.0
2020/01/01 05:14:30.000   -254126.6435  -4531607.2052   4466510.9446        11.3943         0.0000         0.0000         0.0000     2.2670     3.2801   6   4   0.1224   0.1958   0.1729  -0.0278  -0.0633  -0.0168   0.00    0.0
2020/01/01 05:14:35.000   -254126.6452  -4531607.1927   4466510.9426        11.3236         0.0000         0.0000         0.0000     2.2679     3.2803   6   4   0.1217   0.1947   0.1724  -0.0270  -0.0622  -0.0189   0.00    0.0
2020/01/01 05:14:40.000   -254126.6510  -4531607.1960   4466510.9373        11.3088         0.0000         0.0000         0.0000     2.2677     3.2805   6   4   0.1211   0.1938   0.1718  -0.0263  -0.0612  -0.0206   0.00    0.0
2020/01/01 05:14:45.000   -254126.6534  -4531607.1899   4466510.9410        11.2508         0.0000         0.0000         0.0000     2.2682     3.2807   6   4   0.1205   0.1929   0.1714  -0.0258  -0.0604  -0.0219   0.00    0.0
2020/01/01 05:14:50.000   -254126.6580  -4531607.2003   4466510.9395        11.2423         0.0000         0.0000         0.0000     2.2674     3.2809   6   4   0.1199   0.1919   0.1709  -0.0250  -0.0594  -0.0234   0.00    0.0
2020/01/01 05:14:55.000   -254126.6692  -4531607.1978   4466510.9303        11.1794         0.0000         0.0000         0.0000     2.2671     3.2811   6   4   0.1192   0.1909   0.1703  -0.0240  -0.0582  -0.0249   0.00    0.0
2020/01/01 05:15:00.000   -254126.6800  -4531607.1904   4466510.9215        11.0860         0.0000         0.0000         0.0000     2.2670     3.2813   6   4   0.1186   0.1898   0.1697  -0.0229  -0.0569  -0.0263   0.00    0.0
2020/01/01 05:15:05.000   -254126.6901  -4531607.1845   4466510.9145        11.0555         0.0000         0.0000         0.0000     2.2670     3.2815   6   4   0.1180   0.1888   0.1691  -0.0219  -0.0556  -0.0276   0.00    0.0
2020/01/01 05:15:10.000   -254126.6961  -4531607.1758   4466510.9167        11.0632         0.0000         0.0000         0.0000     2.2667     3.2817   6   4   0.1174   0.1879   0.1686  -0.0210  -0.0546  -0.0287   0.00    0.0
2020/01/01 05:15:15.000   -254126.7079  -4531607.1701   4466510.9087        11.0508         0.0000         0.0000         0.0000     2.2659     3.2819   6   4   0.1168   0.1870   0.1681  -0.0204  -0.0537  -0.0296   0.00    0.0
2020/01/01 05:15:20.000   -254126.7237  -4531607.1601   4466510.9048        10.9782         0.0000         0.0000         0.0000     2.2649     3.2821   6   4   0.1163   0.1861   0.1676  -0.0195  -0.0526  -0.0306   0.00    0.0
2020/01/01 05:15:25.000   -254126.7320  -4531607.1494   4466510.8930        10.9203         0.0000         0.0000         0.0000     2.2652     3.2823   6   4   0.1157   0.1851   0.1670  -0.0182  -0.0513  -0.0317   0.00    0.0
2020/01/01 05:15:30.000   -254126.7373  -4531607.1372   4466510.8862        10.8617         0.0000         0.0000         0.0000     2.2658     3.2825   6   4   0.1151   0.1841   0.1664  -0.0168  -0.0499  -0.0327   0.00    0.0
2020/01/01 05:15:35.000   -254126.7497  -4531607.1321   4466510.8683        10.8612         0.0000         0.0000         0.0000     2.2653     3.2827   6   4   0.1145   0.1831   0.1658  -0.0154  -0.0485  -0.0337   0.00    0.0
2020/01/01 05:15:40.000   -254126.7602  -4531607.1284   4466510.8554        10.8645         0.0000         0.0000         0.0000     2.2648     3.2829   6   4   0.1139   0.1822   0.1653  -0.0142  -0.0474  -0.0345   0.00    0.0
2020/01/01 05:15:45.000   -254126.7635  -4531607.1259   4466510.8487        10.8381         0.0000         0.0000         0.0000     2.2648     3.2831   6   4   0.1134   0.1814   0.1649  -0.0133  -0.0465  -0.0352   0.00    0.0
2020/01/01 05:15:50.000   -254126.7754  -4531607.1324   4466510.8411        10.8491         0.0000         0.0000         0.0000     2.2630     3.2833   6   4   0.1129   0.1805   0.1643  -0.0119  -0.0453  -0.0359   0.00    0.0
2020/01/01 05:15:55.000   -254126.7846  -4531607.1306   4466510.8324        10.8321         0.0000         0.0000         0.0000     2.2624     3.2835   6   4   0.1124   0.1796   0.1638  -0.0099  -0.0438  -0.0367   0.00    0.0
2020/01/01 05:16:00.000   -254126.7899  -4531607.1281   4466510.8249        10.8249         0.0000         0.0000         0.0000     2.2626     3.2838   6   4   0.1118   0.1786   0.1632  -0.0072  -0.0422  -0.0376   0.00    0.0
2020/01/01 05:16:05.000   -254126.7927  -4531607.1223   4466510.8131        10.8215         0.0000         0.0000         0.0000     2.2633     3.2840   6   4   0.1112   0.1777   0.1626  -0.0031  -0.0407  -0.0383   0.00    0.0
2020/01/01 05:16:10.000   -254126.7969  -4531607.1255   4466510.8049        10.8094         0.0000         0.0000         0.0000     2.2634     3.2842   6   4   0.1107   0.1768   0.1621   0.0047  -0.0394  -0.0390   0.00    0.0
2020/01/01 05:16:15.000   -254126.8001  -4531607.1334   4466510.7982        10.7960         0.0000         0.0000         0.0000     2.2625     3.2844   6   4   0.1103   0.1760   0.1616   0.0067  -0.0384  -0.0395   0.00    0.0
2020/01/01 05:16:20.000   -254126.8034  -4531607.1403   4466510.7927        10.8036         0.0000         0.0000         0.0000     2.2620     3.2846   6   4   0.1098   0.1752   0.1611   0.0087  -0.0370  -0.0401   0.00    0.0
2020/01/01 05:16:25.000   -254126.8100  -4531607.1356   4466510.7879        10.7764         0.0000         0.0000         0.0000     2.2614     3.2848   6   4   0.1093   0.1743   0.1606   0.0108  -0.0354  -0.0408   0.00    0.0
2020/01/01 05:16:30.000   -254126.8130  -4531607.1294   4466510.7820        10.7404         0.0000         0.0000         0.0000     2.2610     3.2850   6   4   0.1087   0.1733   0.1600   0.0126  -0.0335  -0.0414   0.00    0.0
2020/01/01 05:16:35.000   -254126.8164  -4531607.1301   4466510.7720        10.6904         0.0000         0.0000         0.0000     2.2607     3.2853   6   4   0.1082   0.1725   0.1594   0.0140  -0.0318  -0.0421   0.00    0.0
2020/01/01 05:16:40.000   -254126.8176  -4531607.1289   4466510.7634        10.7026         0.0000         0.0000         0.0000     2.2604     3.2855   6   4   0.1078   0.1716   0.1589   0.0150  -0.0302  -0.0426   0.00    0.0
2020/01/01 05:16:45.000   -254126.8147  -4531607.1202   4466510.7611        10.6209         0.0000         0.0000         0.0000     2.2607     3.2857   6   4   0.1073   0.1709   0.1585   0.0156  -0.0290  -0.0430   0.00    0.0
2020/01/01 05:16:50.000   -254126.8183  -4531607.1135   4466510.7575        10.6097         0.0000         0.0000         0.0000     2.2607     3.2859   6   4   0.1069   0.1701   0.1580   0.0165  -0.0273  -0.0435   0.00    0.0
2020/01/01 05:16:55.000   -254126.8221  -4531607.1129   4466510.7524        10.6028         0.0000         0.0000         0.0000     2.2604     3.2861   6   4   0.1064   0.1692   0.1574   0.0175  -0.0252  -0.0440   0.00    0.0
2020/01/01 05:17:00.000   -254126.8262  -4531607.1007   4466510.7472        10.5534         0.0000         0.0000         0.0000     2.2608     3.2864   6   4   0.1059   0.1683   0.1568   0.0186  -0.0228  -0.0446   0.00    0.0
2020/01/01 05:17:05.000   -254126.8302  -4531607.0883   4466510.7396        10.4616         0.0000         0.0000         0.0000     2.2611     3.2866   6   4   0.1054   0.1675   0.1563   0.0195  -0.0203  -0.0451   0.00    0.0
2020/01/01 05:17:10.000   -254126.8301  -4531607.0741   4466510.7398        10.4242         0.0000         0.0000         0.0000     2.2617     3.2868   6   4   0.1050   0.1667   0.1558   0.0201  -0.0180  -0.0455   0.00    0.0
2020/01/01 05:17:15.000   -254126.8300  -4531607.0597   4466510.7432        10.3834         0.0000         0.0000         0.0000     2.2624     3.2870   6   4   0.1046   0.1660   0.1554   0.0205  -0.0161  -0.0458   0.00    0.0
2020/01/01 05:17:20.000   -254126.8293  -4531607.0508   4466510.7457        10.3365         0.0000         0.0000         0.0000     2.2626     3.2872   6   4   0.1042   0.1653   0.1549   0.0211  -0.0131  -0.0462   0.00    0.0
2020/01/01 05:17:25.000   -254126.8347  -4531607.0343   4466510.7451        10.2525         0.0000         0.0000         0.0000     2.2626     3.2875   6   4   0.1037   0.1644   0.1543   0.0218  -0.0084  -0.0467   0.00    0.0
2020/01/01 05:17:30.000   -254126.8408  -4531607.0289   4466510.7415        10.3032         0.0000         0.0000         0.0000     2.2623     3.2877   6   4   0.1033   0.1636   0.1538   0.0225   0.0059  -0.0472   0.00    0.0
2020/01/01 05:17:35.000   -254126.8482  -4531607.0119   4466510.7419        10.2872         0.0000         0.0000         0.0000     2.2630     3.2879   6   4   0.1028   0.1628   0.1532   0.0231   0.0115  -0.0476   0.00    0.0
2020/01/01 05:17:40.000   -254126.8501  -4531607.0003   4466510.7476        10.2898         0.0000         0.0000         0.0000     2.2633     3.2882   6   4   0.1024   0.1621   0.1527   0.0236   0.0145  -0.0479   0.00    0.0
2020/01/01 05:17:45.000   -254126.8520  -4531606.9919   4466510.7469        10.3046         0.0000         0.0000         0.0000     2.2634     3.2884   6   4   0.1020   0.1614   0.1523   0.0239   0.0165  -0.0482   0.00    0.0
2020/01/01 05:17:50.000   -254126.8546  -4531606.9843   4466510.7543        10.3382         0.0000         0.0000         0.0000     2.2637     3.2886   6   4   0.1016   0.1607   0.1518   0.0243   0.0187  -0.0485   0.00    0.0
2020/01/01 05:17:55.000   -254126.8567  -4531606.9714   4466510.7623        10.3489         0.0000         0.0000         0.0000     2.2642     3.2889   6   4   0.1012   0.1599   0.1513   0.0248   0.0210  -0.0489   0.00    0.0
2020/01/01 05:18:00.000   -254126.8568  -4531606.9637   4466510.7673        10.3404         0.0000         0.0000         0.0000     2.2645     3.2891   6   4   0.1008   0.1591   0.1508   0.0254   0.0232  -0.0492   0.00    0.0
2020/01/01 05:18:05.000   -254126.8563  -4531606.9561   4466510.7736        10.4195         0.0000         0.0000         0.0000     2.2653     3.2893   6   4   0.1004   0.1584   0.1502   0.0258   0.0250  -0.0496   0.00    0.0
2020/01/01 05:18:10.000   -254126.8569  -4531606.9480   4466510.7801        10.4311         0.0000         0.0000         0.0000     2.2659     3.2896   6   4   0.1000   0.1577   0.1498   0.0262   0.0264  -0.0499   0.00    0.0
2020/01/01 05:18:15.000   -254126.8562  -4531606.9421   4466510.7860        10.4334         0.0000         0.0000         0.0000     2.2663     3.2898   6   4   0.0996   0.1571   0.1494   0.0264   0.0274  -0.0501   0.00    0.0
2020/01/01 05:18:20.000   -254126.8551  -4531606.9318   4466510.7908        10.4695         0.0000         0.0000         0.0000     2.2673     3.2900   6   4   0.0993   0.1564   0.1489   0.0267   0.0286  -0.0503   0.00    0.0
2020/01/01 05:18:25.000   -254126.8538  -4531606.9181   4466510.7914        10.4299         0.0000         0.0000         0.0000     2.2685     3.2903   6   4   0.0989   0.1556   0.1484   0.0271   0.0300  -0.0506   0.00    0.0
2020/01/01 05:18:30.000   -254126.8481  -4531606.9100   4466510.7933        10.4665         0.0000         0.0000         0.0000     2.2691     3.2905   6   4   0.0984   0.1549   0.1478   0.0275   0.0314  -0.0510   0.00    0.0
2020/01/01 05:18:35.000   -254126.8477  -4531606.8986   4466510.7928        10.4854         0.0000         0.0000         0.0000     2.2697     3.2908   6   4   0.0981   0.1542   0.1473   0.0279   0.0326  -0.0512   0.00    0.0
2020/01/01 05:18:40.000   -254126.8464  -4531606.8863   4466510.7902        10.5406         0.0000         0.0000         0.0000     2.2705     3.2910   6   4   0.0977   0.1535   0.1469   0.0281   0.0336  -0.0515   0.00    0.0
2020/01/01 05:18:45.000   -254126.8460  -4531606.8800   4466510.7916        10.6359         0.0000         0.0000         0.0000     2.2706     3.2912   6   4   0.0974   0.1530   0.1465   0.0283   0.0343  -0.0516   0.00    0.0
2020/01/01 05:18:50.000   -254126.8452  -4531606.8701   4466510.7878        10.6703         0.0000         0.0000         0.0000     2.2706     3.2915   6   4   0.0970   0.1523   0.1460   0.0285   0.0352  -0.0518   0.00    0.0
2020/01/01 05:18:55.000   -254126.8467  -4531606.8552   4466510.7748        10.6563         0.0000         0.0000         0.0000     2.2712     3.2917   6   4   0.0966   0.1516   0.1455   0.0288   0.0362  -0.0521   0.00    0.0
2020/01/01 05:19:00.000   -254126.8489  -4531606.8425   4466510.7621        10.6101         0.0000         0.0000         0.0000     2.2719     3.2920   6   4   0.0962   0.1509   0.1450   0.0291   0.0373  -0.0523   0.00    0.0
2020/01/01 05:19:05.000   -254126.8491  -4531606.8265   4466510.7543        10.6210         0.0000         0.0000         0.0000     2.2729     3.2922   6   4   0.0959   0.1503   0.1445   0.0294   0.0382  -0.0525   0.00    0.0
2020/01/01 05:19:10.000   -254126.8499  -4531606.8126   4466510.7483        10.6069         0.0000         0.0000         0.0000     2.2736     3.2925   6   4   0.0955   0.1496   0.1440   0.0296   0.0389  -0.0527   0.00    0.0
2020/01/01 05:19:15.000   -254126.8500  -4531606.7985   4466510.7360        10.6008         0.0000         0.0000         0.0000     2.2743     3.2927   6   4   0.0952   0.1491   0.1436   0.0297   0.0395  -0.0528   0.00    0.0
2020/01/01 05:19:20.000   -254126.8479  -4531606.7919   4466510.7255        10.5656         0.0000         0.0000         0.0000     2.2747     3.2930   6   4   0.0949   0.1485   0.1432   0.0298   0.0401  -0.0530   0.00    0.0
2020/01/01 05:19:25.000   -254126.8471  -4531606.7919   4466510.7162        10.5986         0.0000         0.0000         0.0000     2.2744     3.2932   6   4   0.0945   0.1478   0.1427   0.0301   0.0410  -0.0532   0.00    0.0
2020/01/01 05:19:30.000   -254126.8481  -4531606.7850   4466510.7018        10.5811         0.0000         0.0000         0.0000     2.2744     3.2935   6   4   0.0942   0.1472   0.1422   0.0303   0.0418  -0.0534   0.00    0.0
2020/01/01 05:19:35.000   -254126.8483  -4531606.7748   4466510.6888        10.5369         0.0000         0.0000         0.0000     2.2748     3.2937   6   4   0.0938   0.1466   0.1417   0.0305   0.0425  -0.0536   0.00    0.0
2020/01/01 05:19:40.000   -254126.8450  -4531606.7676   4466510.6834        10.5375         0.0000         0.0000         0.0000     2.2752     3.2940   6   4   0.0935   0.1460   0.1413   0.0306   0.0431  -0.0537   0.00    0.0
2020/01/01 05:19:45.000   -254126.8461  -4531606.7595   4466510.6775        10.5404         0.0000         0.0000         0.0000     2.2753     3.2942   6   4   0.0932   0.1455   0.1409   0.0307   0.0435  -0.0538   0.00    0.0
2020/01/01 05:19:50.000   -254126.8469  -4531606.7503   4466510.6658        10.5262         0.0000         0.0000         0.0000     2.2757     3.2945   6   4   0.0929   0.1449   0.1404   0.0308   0.0441  -0.0539   0.00    0.0
2020/01/01 05:19:55.000   -254126.8454  -4531606.7387   4466510.6561        10.4972         0.0000         0.0000         0.0000     2.2766     3.2947   6   4   0.0925   0.1443   0.1399   0.0310   0.0447  -0.0541   0.00    0.0
2020/01/01 05:20:00.000   -254126.8458  -4531606.7221   4466510.6427        10.4655         0.0000         0.0000         0.0000     2.2776     3.2950   6   4   0.0922   0.1437   0.1395   0.0312   0.0454  -0.0542   0.00    0.0
2020/01/01 05:20:05.000   -254126.8449  -4531606.7145   4466510.6279        10.4630         0.0000         0.0000         0.0000     2.2779     3.2953   6   4   0.0919   0.1431   0.1390   0.0313   0.0460  -0.0544   0.00    0.0
2020/01/01 05:20:10.000   -254126.8427  -4531606.7057   4466510.6179        10.4512         0.0000         0.0000         0.0000     2.2786     3.2955   6   4   0.0915   0.1425   0.1385   0.0314   0.0464  -0.0545   0.00    0.0
2020/01/01 05:20:15.000   -254126.8397  -4531606.6963   4466510.6097        10.4085         0.0000         0.0000         0.0000     2.2792     3.2958   6   4   0.0913   0.1420   0.1382   0.0314   0.0468  -0.0545   0.00    0.0
2020/01/01 05:20:20.000   -254126.8381  -4531606.6940   4466510.5996        10.4435         0.0000         0.0000         0.0000     2.2792     3.2960   6   4   0.0910   0.1415   0.1377   0.0315   0.0472  -0.0546   0.00    0.0
2020/01/01 05:20:25.000   -254126.8355  -4531606.6854   4466510.5976        10.4696         0.0000         0.0000         0.0000     2.2799     3.2963   6   4   0.0906   0.1409   0.1373   0.0316   0.0478  -0.0547   0.00    0.0
2020/01/01 05:20:30.000   -254126.8348  -4531606.6799   4466510.5852        10.4751         0.0000         0.0000         0.0000     2.2803     3.2966   6   4   0.0903   0.1404   0.1368   0.0317   0.0483  -0.0548   0.00    0.0
2020/01/01 05:20:35.000   -254126.8327  -4531606.6685   4466510.5761        10.4346         0.0000         0.0000         0.0000     2.2810     3.2968   6   4   0.0900   0.1398   0.1363   0.0318   0.0488  -0.0549   0.00    0.0
2020/01/01 05:20:40.000   -254126.8324  -4531606.6605   4466510.5767        10.4761         0.0000         0.0000         0.0000     2.2812     3.2971   6   4   0.0897   0.1393   0.1359   0.0319   0.0492  -0.0550   0.00    0.0
2020/01/01 05:20:45.000   -254126.8295  -4531606.6528   4466510.5736        10.4736         0.0000         0.0000         0.0000     2.2814     3.2974   6   4   0.0894   0.1388   0.1355   0.0319   0.0495  -0.0550   0.00    0.0
2020/01/01 05:20:50.000   -254126.8298  -4531606.6471   4466510.5710        10.4727         0.0000         0.0000         0.0000     2.2813     3.2976   6   4   0.0891   0.1383   0.1351   0.0319   0.0498  -0.0551   0.00    0.0
2020/01/01 05:20:55.000   -254126.8283  -4531606.6368   4466510.5657        10.5170         0.0000         0.0000         0.0000     2.2820     3.2979   6   4   0.0888   0.1378   0.1346   0.0320   0.0503  -0.0552   0.00    0.0
2020/01/01 05:21:00.000   -254126.8247  -4531606.6311   4466510.5586        10.5593         0.0000         0.0000         0.0000     2.2827     3.2982   6   4   0.0885   0.1372   0.1342   0.0321   0.0507  -0.0552   0.00    0.0
