%  GPST                      x-ecef(m)      y-ecef(m)      z-ecef(m)   Q  ns   sdx(m)   sdy(m)   sdz(m)  sdxy(m)  sdyz(m)  sdzx(m) age(s)  ratio
2020/01/01 03:50:00.000   -249971.6941  -4539321.0419   4458957.7843     -2423.1941         0.0000         0.0000         0.0000     2.3030     7.5889   6   4   4.1827  11.5900   3.2745  -6.2603  -3.7817   2.1867   0.00    0.0
2020/01/01 03:50:01.000   -249971.6102  -4539319.9671   4458957.6749     -2425.8716         0.0000         0.0000         0.0000     2.3030     7.5885   6   4   2.9823   8.2823   2.3291  -4.4742  -2.7057   1.5551   0.00    0.0
2020/01/01 03:50:02.000   -249971.4781  -4539318.5930   4458957.4567     -2429.5326         0.0000         0.0000         0.0000     2.3030     7.5881   6   4   2.4427   6.7853   1.9095  -3.6653  -2.2190   1.2687   0.00    0.0
2020/01/01 03:50:03.000   -249971.4354  -4539318.4090   4458957.3441     -2430.1702         0.0000         0.0000         0.0000     2.3030     7.5877   6   4   2.1192   5.8850   1.6597  -3.1787  -1.9266   1.0959   0.00    0.0
2020/01/01 03:50:04.000   -249971.3446  -4539318.5806   4458957.4348     -2429.9277         0.0000         0.0000         0.0000     2.3030     7.5873   6   4   1.8978   5.2673   1.4896  -2.8448  -1.7262   0.9770   0.00    0.0
2020/01/01 03:50:05.000   -249971.3125  -4539318.9979   4458957.4576     -2429.1979         0.0000         0.0000         0.0000     2.3030     7.5869   6   4   1.7340   4.8097   1.3643  -2.5974  -1.5779   0.8886   0.00    0.0
2020/01/01 03:50:06.000   -249971.0038  -4539320.4658   4458957.5259     -2426.4509         0.0000         0.0000         0.0000     2.3030     7.5865   6   4   1.6065   4.4529   1.2672  -2.4044  -1.4624   0.8194   0.00    0.0
2020/01/01 03:50:07.000   -249970.7945  -4539321.1185   4458957.7054     -2425.1198         0.0000         0.0000         0.0000     2.3029     7.5861   6   4   1.5036   4.1645   1.1891  -2.2484  -1.3692   0.7633   0.00    0.0
2020/01/01 03:50:08.000   -249970.6170  -4539322.1358   4458957.9118     -2422.7805         0.0000         0.0000         0.0000     2.3026     7.5857   6   4   1.4182   3.9250   1.1246  -2.1188  -1.2918   0.7166   0.00    0.0
2020/01/01 03:50:09.000   -249970.5043  -4539322.8962   4458958.0684     -2421.0224         0.0000         0.0000         0.0000     2.3022     7.5853   6   4   1.3459   3.7219   1.0701  -2.0089  -1.2264   0.6768   0.00    0.0
2020/01/01 03:50:10.000   -249970.6667  -4539323.1549   4458958.2411     -2419.8777         0.0000         0.0000         0.0000     2.3015     7.5849   6   4   1.2837   3.5467   1.0234  -1.9141  -1.1701   0.6424   0.00    0.0
2020/01/01 03:50:11.000   -249970.8075  -4539323.2925   4458958.3823     -2419.0788         0.0000         0.0000         0.0000     2.3005     7.5845   6   4   1.2293   3.3936   0.9828  -1.8312  -1.1209   0.6122   0.00    0.0
2020/01/01 03:50:12.000   -249971.0017  -4539323.3463   4458958.4013     -2418.6450         0.0000         0.0000         0.0000     2.2995     7.5841   6   4   1.1813   3.2582   0.9470  -1.7578  -1.0775   0.5854   0.00    0.0
2020/01/01 03:50:13.000   -249971.1624  -4539323.5523   4458958.4194     -2417.9790         0.0000         0.0000         0.0000     2.2981     7.5837   6   4   1.1384   3.1373   0.9153  -1.6923  -1.0388   0.5614   0.00    0.0
2020/01/01 03:50:14.000   -249971.4382  -4539323.4009   4458958.4227     -2417.9696         0.0000         0.0000         0.0000     2.2966     7.5833   6   4   1.0999   3.0284   0.8868  -1.6332  -1.0041   0.5398   0.00    0.0
2020/01/01 03:50:15.000   -249971.6490  -4539323.4121   4458958.3943     -2417.8179         0.0000         0.0000         0.0000     2.2949     7.5829   6   4   1.0650   2.9297   0.8611  -1.5797  -0.9727   0.5201   0.00    0.0
2020/01/01 03:50:16.000   -249971.9049  -4539323.3136   4458958.3863     -2417.7806         0.0000         0.0000         0.0000     2.2933     7.5825   6   4   1.0331   2.8395   0.8378  -1.5307  -0.9441   0.5021   0.00    0.0
2020/01/01 03:50:17.000   -249972.0686  -4539323.4425   4458958.3699     -2417.4043         0.0000         0.0000         0.0000     2.2918     7.5821   6   4   1.0039   2.7565   0.8165  -1.4857  -0.9178   0.4854   0.00    0.0
2020/01/01 03:50:18.000   -249972.0951  -4539323.6111   4458958.2929     -2417.1983         0.0000         0.0000         0.0000     2.2900     7.5817   6   4   0.9769   2.6799   0.7969  -1.4440  -0.8937   0.4701   0.00    0.0
2020/01/01 03:50:19.000   -249972.1230  -4539323.8339   4458958.1782     -2416.9088         0.0000         0.0000         0.0000     2.2876     7.5813   6   4   0.9518   2.6088   0.7788  -1.4053  -0.8713   0.4558   0.00    0.0
2020/01/01 03:50:20.000   -249972.1802  -4539324.0526   4458958.0812     -2416.5065         0.0000         0.0000         0.0000     2.2850     7.5809   6   4   0.9286   2.5425   0.7621  -1.3693  -0.8506   0.4424   0.00    0.0
2020/01/01 03:50:21.000   -249972.2035  -4539324.3603   4458958.0143     -2415.8731         0.0000         0.0000         0.0000     2.2822     7.5805   6   4   0.9068   2.4806   0.7466  -1.3355  -0.8312   0.4300   0.00    0.0
2020/01/01 03:50:22.000   -249972.2067  -4539324.6132   4458958.0472     -2415.2282         0.0000         0.0000         0.0000     2.2792     7.5801   6   4   0.8864   2.4224   0.7321  -1.3038  -0.8132   0.4183   0.00    0.0
2020/01/01 03:50:23.000   -249972.1739  -4539324.9592   4458958.0431     -2414.5256         0.0000         0.0000         0.0000     2.2762     7.5797   6   4   0.8673   2.3677   0.7185  -1.2740  -0.7963   0.4072   0.00    0.0
2020/01/01 03:50:26.000   -249972.2520  -4539325.6623   4458958.1018     -2412.8850         0.0000         0.0000         0.0000     2.2637     7.5785   6   4   0.8211   2.2424   0.6900  -1.2055  -0.7302   0.3652   0.00    0.0
2020/01/01 03:50:29.000   -249972.3810  -4539326.1940   4458958.1619     -2411.5731         0.0000         0.0000         0.0000     2.2467     7.5773   6   4   0.7835   2.1410   0.6696  -1.1505  -0.6845   0.3359   0.00    0.0
2020/01/01 03:50:32.000   -249972.4172  -4539326.4119   4458958.2585     -2410.9657         0.0000         0.0000         0.0000     2.2261     7.5761   6   4   0.7481   2.0441   0.6477  -1.0970  -0.6365   0.3040   0.00    0.0
2020/01/01 03:50:33.000   -249972.4323  -4539326.4964   4458958.2509     -2410.7165         0.0000         0.0000         0.0000     2.2173     7.5757   6   4   0.7356   2.0077   0.6387  -1.0769  -0.6293   0.2988   0.00    0.0
2020/01/01 03:50:34.000   -249972.4330  -4539326.6038   4458958.2498     -2410.4364         0.0000         0.0000         0.0000     2.2083     7.5753   6   4   0.7237   1.9730   0.6301  -1.0576  -0.6223   0.2937   0.00    0.0
2020/01/01 03:50:35.000   -249972.4389  -4539326.6388   4458958.2722     -2410.2682         0.0000         0.0000         0.0000     2.1993     7.5749   6   4   0.7123   1.9397   0.6218  -1.0391  -0.6156   0.2888   0.00    0.0
2020/01/01 03:50:36.000   -249972.4748  -4539326.6142   4458958.3273     -2410.1447         0.0000         0.0000         0.0000     2.1895     7.5745   6   4   0.7013   1.9079   0.6140  -1.0214  -0.6091   0.2841   0.00    0.0
2020/01/01 03:50:37.000   -249972.5123  -4539326.5868   4458958.3425     -2410.1010         0.0000         0.0000         0.0000     2.1794     7.5741   6   4   0.6908   1.8773   0.6065  -1.0044  -0.6029   0.2795   0.00    0.0
2020/01/01 03:50:38.000   -249972.5303  -4539326.6026   4458958.3436     -2410.0404         0.0000         0.0000         0.0000     2.1683     7.5737   6   4   0.6807   1.8481   0.5993  -0.9881  -0.5968   0.2751   0.00    0.0
2020/01/01 03:50:39.000   -249972.5213  -4539326.6281   4458958.3159     -2410.0321         0.0000         0.0000         0.0000     2.1578     7.5733   6   4   0.6709   1.8199   0.5923  -0.9723  -0.5909   0.2709   0.00    0.0
2020/01/01 03:50:40.000   -249972.5268  -4539326.6929   4458958.3150     -2409.8703         0.0000         0.0000         0.0000     2.1475     7.5729   6   4   0.6615   1.7929   0.5857  -0.9572  -0.5853   0.2668   0.00    0.0
2020/01/01 03:50:41.000   -249972.5691  -4539326.6221   4458958.3226     -2409.9013         0.0000         0.0000         0.0000     2.1367     7.5725   6   4   0.6525   1.7669   0.5793  -0.9426  -0.5798   0.2628   0.00    0.0
2020/01/01 03:50:42.000   -249972.6697  -4539326.3503   4458958.3566     -2410.2417         0.0000         0.0000         0.0000     2.1263     7.5721   6   4   0.6437   1.7419   0.5732  -0.9286  -0.5745   0.2589   0.00    0.0
2020/01/01 03:50:43.000   -249972.7321  -4539326.1992   4458958.3685     -2410.4343         0.0000         0.0000         0.0000     2.1156     7.5717   6   4   0.6353   1.7177   0.5672  -0.9150  -0.5693   0.2552   0.00    0.0
2020/01/01 03:50:44.000   -249972.7690  -4539326.0386   4458958.4099     -2410.6343         0.0000         0.0000         0.0000     2.1063     7.5713   6   4   0.6271   1.6945   0.5615  -0.9019  -0.5644   0.2516   0.00    0.0
2020/01/01 03:50:45.000   -249972.7956  -4539325.9554   4458958.3954     -2410.8007         0.0000         0.0000         0.0000     2.0969     7.5709   6   4   0.6192   1.6720   0.5560  -0.8893  -0.5596   0.2481   0.00    0.0
2020/01/01 03:50:46.000   -249972.7828  -4539325.9783   4458958.3832     -2410.7677         0.0000         0.0000         0.0000     2.0863     7.5705   6   4   0.6115   1.6502   0.5507  -0.8769  -0.5548   0.2447   0.00    0.0
2020/01/01 03:50:47.000   -249972.7806  -4539325.9770   4458958.3583     -2410.8157         0.0000         0.0000         0.0000     2.0759     7.5701   6   4   0.6040   1.6288   0.5454  -0.8648  -0.5502   0.2414   0.00    0.0
2020/01/01 03:50:48.000   -249972.8249  -4539325.8414   4458958.3751     -2410.9955         0.0000         0.0000         0.0000     2.0660     7.5697   6   4   0.5967   1.6079   0.5404  -0.8530  -0.5457   0.2382   0.00    0.0
2020/01/01 03:50:49.000   -249972.8478  -4539325.7619   4458958.3817     -2411.0840         0.0000         0.0000         0.0000     2.0550     7.5693   6   4   0.5895   1.5876   0.5354  -0.8414  -0.5413   0.2351   0.00    0.0
2020/01/01 03:50:50.000   -249972.8961  -4539325.5808   4458958.3977     -2411.3532         0.0000         0.0000         0.0000     2.0445     7.5689   6   4   0.5825   1.5677   0.5306  -0.8301  -0.5370   0.2321   0.00    0.0
2020/01/01 03:50:51.000   -249972.9302  -4539325.3973   4458958.3803     -2411.6906         0.0000         0.0000         0.0000     2.0334     7.5685   6   4   0.5756   1.5482   0.5259  -0.8190  -0.5328   0.2292   0.00    0.0
2020/01/01 03:50:52.000   -249972.9447  -4539325.2983   4458958.3284     -2411.9571         0.0000         0.0000         0.0000     2.0227     7.5681   6   4   0.5689   1.5292   0.5213  -0.8081  -0.5287   0.2264   0.00    0.0
2020/01/01 03:50:53.000   -249972.9558  -4539325.2434   4458958.2798     -2412.1052         0.0000         0.0000         0.0000     2.0102     7.5677   6   4   0.5624   1.5106   0.5168  -0.7975  -0.5246   0.2236   0.00    0.0
2020/01/01 03:50:59.000   -249972.9772  -4539325.0033   4458958.2566     -2412.5593         0.0000         0.0000         0.0000     1.9789     7.5654   6   4   0.5388   1.4478   0.5033  -0.7610  -0.4979   0.2060   0.00    0.0
2020/01/01 03:51:00.000   -249972.9773  -4539324.9904   4458958.2174     -2412.5816         0.0000         0.0000         0.0000     1.9702     7.5650   6   4   0.5326   1.4302   0.4991  -0.7508  -0.4945   0.2040   0.00    0.0
2020/01/01 03:51:01.000   -249972.9741  -4539325.0361   4458958.1420     -2412.5714         0.0000         0.0000         0.0000     1.9605     7.5646   6   4   0.5266   1.4132   0.4949  -0.7409  -0.4912   0.2020   0.00    0.0
2020/01/01 03:51:02.000   -249972.9919  -4539325.0333   4458958.0800     -2412.6246         0.0000         0.0000         0.0000     1.9518     7.5642   6   4   0.5207   1.3966   0.4908  -0.7314  -0.4879   0.2000   0.00    0.0
2020/01/01 03:51:08.000   -249973.1867  -4539324.7080   4458958.0794     -2413.1570         0.0000         0.0000         0.0000     1.9241     7.5618   6   4   0.4959   1.3315   0.4764  -0.6931  -0.4600   0.1823   0.00    0.0
2020/01/01 03:51:09.000   -249973.1730  -4539324.7455   4458958.0240     -2413.2309         0.0000         0.0000         0.0000     1.9183     7.5614   6   4   0.4907   1.3170   0.4726  -0.6846  -0.4576   0.1809   0.00    0.0
2020/01/01 03:51:10.000   -249973.1751  -4539324.7282   4458957.9835     -2413.3437         0.0000         0.0000         0.0000     1.9122     7.5610   6   4   0.4857   1.3030   0.4690  -0.6765  -0.4551   0.1796   0.00    0.0
2020/01/01 03:51:11.000   -249973.1962  -4539324.7019   4458957.9374     -2413.4662         0.0000         0.0000         0.0000     1.9051     7.5606   6   4   0.4808   1.2894   0.4655  -0.6686  -0.4528   0.1783   0.00    0.0
2020/01/01 03:51:14.000   -249973.2296  -4539324.6785   4458957.8543     -2413.6710         0.0000         0.0000         0.0000     1.8972     7.5594   6   4   0.4760   1.2759   0.4620  -0.6606  -0.4504   0.1770   0.00    0.0
2020/01/01 03:51:15.000   -249973.2824  -4539324.5996   4458957.8084     -2413.8715         0.0000         0.0000         0.0000     1.8900     7.5591   6   4   0.4713   1.2628   0.4586  -0.6530  -0.4480   0.1758   0.00    0.0
2020/01/01 03:51:16.000   -249973.3194  -4539324.5843   4458957.7766     -2413.8970         0.0000         0.0000         0.0000     1.8815     7.5587   6   4   0.4666   1.2499   0.4552  -0.6454  -0.4457   0.1746   0.00    0.0
2020/01/01 03:51:18.000   -249973.4336  -4539324.4036   4458957.7778     -2414.0553         0.0000         0.0000         0.0000     1.8633     7.5579   6   4   0.4580   1.2270   0.4496  -0.6319  -0.4383   0.1703   0.00    0.0
2020/01/01 03:51:20.000   -249973.5351  -4539324.2518   4458957.7457     -2414.1990         0.0000         0.0000         0.0000     1.8416     7.5571   6   4   0.4496   1.2045   0.4441  -0.6186  -0.4311   0.1663   0.00    0.0
2020/01/01 03:51:24.000   -249973.5720  -4539324.1880   4458957.7140     -2414.2835         0.0000         0.0000         0.0000     1.8285     7.5555   6   4   0.4449   1.1912   0.4406  -0.6108  -0.4285   0.1653   0.00    0.0
2020/01/01 03:51:25.000   -249973.6356  -4539324.0174   4458957.7247     -2414.5241         0.0000         0.0000         0.0000     1.8179     7.5551   6   4   0.4403   1.1781   0.4372  -0.6031  -0.4259   0.1643   0.00    0.0
2020/01/01 03:51:26.000   -249973.6967  -4539323.9055   4458957.7422     -2414.6275         0.0000         0.0000         0.0000     1.8053     7.5548   6   4   0.4358   1.1654   0.4339  -0.5956  -0.4233   0.1633   0.00    0.0
2020/01/01 03:51:45.000   -249973.8202  -4539324.1407   4458957.8744     -2410.3310         0.0000         0.0000         0.0000     1.7783     7.5474   6   4   0.4215   1.1417   0.4279  -0.5863  -0.4166   0.1625   0.00    0.0
2020/01/01 03:51:46.000   -249973.7748  -4539324.3066   4458957.9328     -2411.0526         0.0000         0.0000         0.0000     1.7752     7.5470   6   4   0.4194   1.1356   0.4256  -0.5831  -0.4150   0.1612   0.00    0.0
2020/01/01 03:51:52.000   -249973.6863  -4539324.6120   4458957.9886     -2409.6292         0.0000         0.0000         0.0000     1.7697     7.5447   6   4   0.4143   1.1258   0.4229  -0.5785  -0.4114   0.1591   0.00    0.0
2020/01/01 03:51:53.000   -249973.6337  -4539324.7684   4458958.0166     -2409.5567         0.0000         0.0000         0.0000     1.7671     7.5443   6   4   0.4122   1.1197   0.4206  -0.5752  -0.4098   0.1578   0.00    0.0
2020/01/01 03:51:54.000   -249973.5873  -4539324.9215   4458958.0385     -2409.3989         0.0000         0.0000         0.0000     1.7644     7.5439   6   4   0.4102   1.1140   0.4185  -0.5721  -0.4085   0.1567   0.00    0.0
2020/01/01 03:51:55.000   -249973.5462  -4539325.0458   4458958.0668     -2409.1927         0.0000         0.0000         0.0000     1.7622     7.5435   6   4   0.4083   1.1084   0.4164  -0.5692  -0.4072   0.1556   0.00    0.0
2020/01/01 03:51:56.000   -249973.5099  -4539325.1423   4458958.0962     -2409.0430         0.0000         0.0000         0.0000     1.7605     7.5431   6   4   0.4063   1.1030   0.4144  -0.5663  -0.4060   0.1546   0.00    0.0
2020/01/01 03:51:57.000   -249973.4746  -4539325.2543   4458958.1065     -2408.8380         0.0000         0.0000         0.0000     1.7584     7.5427   6   4   0.4045   1.0977   0.4125  -0.5634  -0.4048   0.1536   0.00    0.0
2020/01/01 03:51:58.000   -249973.4385  -4539325.3354   4458958.1239     -2408.6852         0.0000         0.0000         0.0000     1.7572     7.5423   6   4   0.4026   1.0925   0.4106  -0.5607  -0.4037   0.1527   0.00    0.0
2020/01/01 03:52:00.000   -249973.3642  -4539325.5189   4458958.1777     -2408.1562         0.0000         0.0000         0.0000     1.7539     7.5416   6   4   0.3994   1.0843   0.4075  -0.5563  -0.3997   0.1495   0.00    0.0
2020/01/01 03:52:01.000   -249973.3368  -4539325.5470   4458958.2242     -2407.9314         0.0000         0.0000         0.0000     1.7537     7.5412   6   4   0.3976   1.0793   0.4056  -0.5536  -0.3987   0.1486   0.00    0.0
2020/01/01 03:52:02.000   -249973.3093  -4539325.5744   4458958.2791     -2407.7663         0.0000         0.0000         0.0000     1.7531     7.5408   6   4   0.3959   1.0744   0.4039  -0.5509  -0.3977   0.1478   0.00    0.0
2020/01/01 03:52:03.000   -249973.2601  -4539325.6394   4458958.3230     -2407.5941         0.0000         0.0000         0.0000     1.7526     7.5404   6   4   0.3941   1.0695   0.4021  -0.5483  -0.3967   0.1470   0.00    0.0
2020/01/01 03:52:04.000   -249973.1957  -4539325.7458   4458958.3513     -2407.3422         0.0000         0.0000         0.0000     1.7520     7.5400   6   4   0.3924   1.0646   0.4004  -0.5457  -0.3957   0.1461   0.00    0.0
2020/01/01 03:52:13.000   -249972.8050  -4539326.5067   4458958.6275     -2399.3133         0.0000         0.0000         0.0000     1.7443     7.5366   6   4   0.3840   1.0425   0.3931  -0.5307  -0.3922   0.1407   0.00    0.0
2020/01/01 03:52:14.000   -249972.7271  -4539326.5660   4458958.7171     -2399.7387         0.0000         0.0000         0.0000     1.7449     7.5362   6   4   0.3822   1.0380   0.3915  -0.5282  -0.3911   0.1395   0.00    0.0
2020/01/01 03:52:15.000   -249972.6645  -4539326.6025   4458958.7989     -2400.0036         0.0000         0.0000         0.0000     1.7456     7.5358   6   4   0.3805   1.0337   0.3900  -0.5258  -0.3900   0.1385   0.00    0.0
2020/01/01 03:52:16.000   -249972.6024  -4539326.6779   4458958.8829     -2399.9647         0.0000         0.0000         0.0000     1.7452     7.5354   6   4   0.3790   1.0294   0.3884  -0.5235  -0.3890   0.1376   0.00    0.0
2020/01/01 03:52:30.000   -249972.3166  -4539327.1927   4458958.9170     -2393.0528         0.0000         0.0000         0.0000     1.7406     7.5301   6   4   0.3722   1.0109   0.3850  -0.5120  -0.3925   0.1407   0.00    0.0
2020/01/01 03:52:31.000   -249972.1970  -4539327.3988   4458958.9858     -2394.0024         0.0000         0.0000         0.0000     1.7390     7.5297   6   4   0.3702   1.0061   0.3832  -0.5091  -0.3906   0.1385   0.00    0.0
2020/01/01 03:52:33.000   -249972.0082  -4539327.7886   4458959.0841     -2394.7306         0.0000         0.0000         0.0000     1.7347     7.5289   6   4   0.3670   0.9979   0.3800  -0.5037  -0.3877   0.1349   0.00    0.0
2020/01/01 03:52:34.000   -249971.9225  -4539327.9031   4458959.1316     -2394.9915         0.0000         0.0000         0.0000     1.7344     7.5286   6   4   0.3654   0.9939   0.3785  -0.5014  -0.3864   0.1336   0.00    0.0
2020/01/01 03:52:35.000   -249971.8423  -4539328.0268   4458959.1607     -2395.1977         0.0000         0.0000         0.0000     1.7337     7.5282   6   4   0.3639   0.9899   0.3771  -0.4993  -0.3852   0.1324   0.00    0.0
2020/01/01 03:52:36.000   -249971.7680  -4539328.1356   4458959.1917     -2395.3116         0.0000         0.0000         0.0000     1.7333     7.5278   6   4   0.3625   0.9861   0.3757  -0.4972  -0.3840   0.1313   0.00    0.0
2020/01/01 03:52:37.000   -249971.6939  -4539328.2586   4458959.2159     -2395.3987         0.0000         0.0000         0.0000     1.7326     7.5274   6   4   0.3611   0.9823   0.3744  -0.4952  -0.3829   0.1303   0.00    0.0
2020/01/01 03:52:38.000   -249971.6250  -4539328.3414   4458959.2324     -2395.5861         0.0000         0.0000         0.0000     1.7329     7.5270   6   4   0.3597   0.9786   0.3730  -0.4932  -0.3819   0.1293   0.00    0.0
2020/01/01 03:52:39.000   -249971.5639  -4539328.3814   4458959.2445     -2395.8837         0.0000         0.0000         0.0000     1.7340     7.5267   6   4   0.3584   0.9749   0.3718  -0.4913  -0.3808   0.1284   0.00    0.0
2020/01/01 03:52:40.000   -249971.5074  -4539328.4038   4458959.2488     -2396.1869         0.0000         0.0000         0.0000     1.7354     7.5263   6   4   0.3571   0.9713   0.3705  -0.4894  -0.3798   0.1275   0.00    0.0
2020/01/01 03:52:41.000   -249971.4673  -4539328.3849   4458959.2627     -2396.4839         0.0000         0.0000         0.0000     1.7371     7.5259   6   4   0.3558   0.9678   0.3693  -0.4875  -0.3789   0.1267   0.00    0.0
2020/01/01 03:52:42.000   -249971.4289  -4539328.3743   4458959.2757     -2396.8070         0.0000         0.0000         0.0000     1.7384     7.5255   6   4   0.3546   0.9642   0.3680  -0.4856  -0.3779   0.1259   0.00    0.0
2020/01/01 03:52:43.000   -249971.3912  -4539328.3507   4458959.2843     -2397.2228         0.0000         0.0000         0.0000     1.7401     7.5251   6   4   0.3533   0.9607   0.3668  -0.4838  -0.3770   0.1251   0.00    0.0
2020/01/01 03:54:08.000   -249971.3390  -4539328.3582   4458959.3448     -2404.0096         0.0000         0.0000         0.0000     1.7409     1.9802   6   4   0.3521   0.9572   0.3657  -0.4820  -0.3763   0.1246   0.00    0.0
2020/01/01 03:54:09.000   -249971.2870  -4539328.4058   4458959.3975     -2404.0991         0.0000         0.0000         0.0000     1.7411     1.9803   6   4   0.3510   0.9538   0.3645  -0.4803  -0.3755   0.1241   0.00    0.0
2020/01/01 03:54:14.000   -249971.2584  -4539328.3566   4458959.4613     -2403.8640         0.0000         0.0000         0.0000     1.7426     1.9809   6   4   0.3498   0.9504   0.3634  -0.4786  -0.3748   0.1235   0.00    0.0
2020/01/01 03:54:15.000   -249971.2214  -4539328.3605   4458959.5211     -2403.5373         0.0000         0.0000         0.0000     1.7433     1.9810   6   4   0.3487   0.9471   0.3622  -0.4769  -0.3741   0.1230   0.00    0.0
2020/01/01 03:54:16.000   -249971.1863  -4539328.3532   4458959.5644     -2403.6470         0.0000         0.0000         0.0000     1.7444     1.9811   6   4   0.3475   0.9437   0.3611  -0.4753  -0.3733   0.1225   0.00    0.0
2020/01/01 03:54:17.000   -249971.1531  -4539328.3307   4458959.6009     -2403.9241         0.0000         0.0000         0.0000     1.7459     1.9812   6   4   0.3464   0.9405   0.3600  -0.4736  -0.3726   0.1219   0.00    0.0
2020/01/01 03:54:18.000   -249971.1277  -4539328.2872   4458959.6489     -2404.1095         0.0000         0.0000         0.0000     1.7473     1.9813   6   4   0.3453   0.9372   0.3590  -0.4719  -0.3719   0.1214   0.00    0.0
2020/01/01 03:54:19.000   -249971.1065  -4539328.2665   4458959.6939     -2404.1567         0.0000         0.0000         0.0000     1.7476     1.9814   6   4   0.3442   0.9339   0.3579  -0.4703  -0.3711   0.1209   0.00    0.0
2020/01/01 03:54:20.000   -249971.0997  -4539328.2103   4458959.7552     -2404.1941         0.0000         0.0000         0.0000     1.7479     1.9815   6   4   0.3431   0.9307   0.3568  -0.4687  -0.3704   0.1204   0.00    0.0
2020/01/01 03:59:35.000   -249971.5222  -4539327.2291   4458959.7341     -2407.3669         0.0000         0.0000         0.0000     1.7256     1.9520   6   5   0.3320   0.9065   0.3552  -0.4497  -0.3685   0.1191   0.00    0.0
2020/01/01 05:20:17.000   -249978.9446  -4539307.4178   4458958.5832     -2443.3467         0.0000         0.0000         0.0000     1.3563     3.2954   6   4   0.1041   0.4848   0.3137   0.1322  -0.2735  -0.0238   0.00    0.0
2020/01/01 05:20:18.000   -249978.9356  -4539307.3807   4458958.5878     -2443.0679         0.0000         0.0000         0.0000     1.3593     3.2954   6   4   0.1036   0.4788   0.3131   0.1297  -0.2721  -0.0229   0.00    0.0
2020/01/01 05:20:19.000   -249978.9228  -4539307.3103   4458958.5882     -2443.2307         0.0000         0.0000         0.0000     1.3651     3.2955   6   4   0.1031   0.4731   0.3125   0.1272  -0.2708  -0.0221   0.00    0.0
2020/01/01 05:20:20.000   -249978.9071  -4539307.2129   4458958.5913     -2443.7232         0.0000         0.0000         0.0000     1.3731     3.2956   6   4   0.1027   0.4676   0.3119   0.1248  -0.2695  -0.0212   0.00    0.0
2020/01/01 05:20:21.000   -249978.8912  -4539307.1082   4458958.5949     -2444.3647         0.0000         0.0000         0.0000     1.3818     3.2956   6   4   0.1023   0.4624   0.3113   0.1225  -0.2682  -0.0205   0.00    0.0
2020/01/01 05:20:22.000   -249978.8719  -4539306.9692   4458958.5909     -2445.0500         0.0000         0.0000         0.0000     1.3934     3.2957   6   4   0.1019   0.4573   0.3107   0.1203  -0.2670  -0.0198   0.00    0.0
2020/01/01 05:20:23.000   -249978.8494  -4539306.8140   4458958.5909     -2445.9233         0.0000         0.0000         0.0000     1.4063     3.2957   6   4   0.1015   0.4524   0.3102   0.1181  -0.2658  -0.0191   0.00    0.0
2020/01/01 05:20:24.000   -249978.8214  -4539306.6376   4458958.5904     -2446.8886         0.0000         0.0000         0.0000     1.4209     3.2958   6   4   0.1011   0.4478   0.3096   0.1161  -0.2647  -0.0185   0.00    0.0
2020/01/01 05:20:40.000   -249978.7433  -4539306.2143   4458958.7287     -2447.7606         0.0000         0.0000         0.0000     1.4536     3.2966   6   4   0.0996   0.4108   0.3016   0.1054  -0.2521  -0.0179   0.00    0.0
2020/01/01 05:20:41.000   -249978.7290  -4539306.1545   4458958.7261     -2447.9737         0.0000         0.0000         0.0000     1.4584     3.2967   6   4   0.0993   0.4073   0.3011   0.1037  -0.2513  -0.0176   0.00    0.0
2020/01/01 05:20:42.000   -249978.7122  -4539306.0813   4458958.7182     -2448.2749         0.0000         0.0000         0.0000     1.4644     3.2967   6   4   0.0990   0.4039   0.3006   0.1021  -0.2504  -0.0174   0.00    0.0
2020/01/01 05:20:43.000   -249978.6968  -4539306.0082   4458958.7086     -2448.5121         0.0000         0.0000         0.0000     1.4704     3.2968   6   4   0.0987   0.4006   0.3001   0.1005  -0.2496  -0.0171   0.00    0.0
2020/01/01 05:20:45.000   -249978.6706  -4539305.8669   4458958.6814     -2449.0165         0.0000         0.0000         0.0000     1.4822     3.2969   6   4   0.0981   0.3955   0.2992   0.0977  -0.2483  -0.0169   0.00    0.0
2020/01/01 05:20:46.000   -249978.6602  -4539305.8149   4458958.6734     -2449.1563         0.0000         0.0000         0.0000     1.4865     3.2969   6   4   0.0979   0.3925   0.2987   0.0962  -0.2475  -0.0168   0.00    0.0
2020/01/01 05:20:47.000   -249978.6489  -4539305.7524   4458958.6675     -2449.2870         0.0000         0.0000         0.0000     1.4916     3.2970   6   4   0.0976   0.3895   0.2982   0.0948  -0.2468  -0.0166   0.00    0.0
2020/01/01 05:20:48.000   -249978.6373  -4539305.6878   4458958.6688     -2449.4267         0.0000         0.0000         0.0000     1.4968     3.2970   6   4   0.0974   0.3867   0.2978   0.0934  -0.2460  -0.0166   0.00    0.0
2020/01/01 05:20:49.000   -249978.6227  -4539305.6073   4458958.6732     -2449.6411         0.0000         0.0000         0.0000     1.5034     3.2971   6   4   0.0971   0.3839   0.2973   0.0921  -0.2453  -0.0165   0.00    0.0
2020/01/01 05:20:50.000   -249978.6076  -4539305.5174   4458958.6730     -2449.9492         0.0000         0.0000         0.0000     1.5107     3.2972   6   4   0.0969   0.3812   0.2968   0.0908  -0.2446  -0.0164   0.00    0.0
2020/01/01 05:20:51.000   -249978.5904  -4539305.4197   4458958.6766     -2450.2864         0.0000         0.0000         0.0000     1.5187     3.2972   6   4   0.0966   0.3786   0.2963   0.0895  -0.2439  -0.0164   0.00    0.0
2020/01/01 05:20:52.000   -249978.5726  -4539305.3152   4458958.6802     -2450.6818         0.0000         0.0000         0.0000     1.5273     3.2973   6   4   0.0964   0.3761   0.2959   0.0883  -0.2433  -0.0164   0.00    0.0
2020/01/01 05:20:53.000   -249978.5539  -4539305.2115   4458958.6847     -2451.0739         0.0000         0.0000         0.0000     1.5357     3.2973   6   4   0.0962   0.3736   0.2954   0.0870  -0.2426  -0.0164   0.00    0.0
2020/01/01 05:21:07.000   -249978.5021  -4539304.6624   4458958.6349     -2451.9566         0.0000         0.0000         0.0000     1.5839     3.2981   6   4   0.0958   0.3546   0.2919   0.0831  -0.2355  -0.0145   0.00    0.0
2020/01/01 05:21:08.000   -249978.4866  -4539304.5807   4458958.6432     -2452.1134         0.0000         0.0000         0.0000     1.5907     3.2981   6   4   0.0956   0.3525   0.2914   0.0820  -0.2350  -0.0147   0.00    0.0
2020/01/01 05:21:09.000   -249978.4722  -4539304.4898   4458958.6415     -2452.3566         0.0000         0.0000         0.0000     1.5983     3.2982   6   4   0.0954   0.3505   0.2910   0.0810  -0.2344  -0.0148   0.00    0.0
2020/01/01 05:21:10.000   -249978.4614  -4539304.4218   4458958.6390     -2452.5366         0.0000         0.0000         0.0000     1.6041     3.2982   6   4   0.0952   0.3485   0.2905   0.0800  -0.2338  -0.0150   0.00    0.0
2020/01/01 05:21:11.000   -249978.4525  -4539304.3447   4458958.6261     -2452.7526         0.0000         0.0000         0.0000     1.6109     3.2983   6   4   0.0950   0.3466   0.2901   0.0790  -0.2333  -0.0152   0.00    0.0
2020/01/01 05:21:12.000   -249978.4436  -4539304.2708   4458958.6154     -2452.9772         0.0000         0.0000         0.0000     1.6175     3.2983   6   4   0.0948   0.3447   0.2896   0.0780  -0.2328  -0.0154   0.00    0.0
2020/01/01 05:21:13.000   -249978.4334  -4539304.1916   4458958.6081     -2453.2211         0.0000         0.0000         0.0000     1.6244     3.2984   6   4   0.0946   0.3429   0.2892   0.0770  -0.2322  -0.0156   0.00    0.0
2020/01/01 05:21:14.000   -249978.4219  -4539304.1082   4458958.6048     -2453.4500         0.0000         0.0000         0.0000     1.6317     3.2985   6   4   0.0944   0.3411   0.2888   0.0761  -0.2317  -0.0158   0.00    0.0
2020/01/01 05:21:15.000   -249978.4107  -4539304.0296   4458958.6055     -2453.6140         0.0000         0.0000         0.0000     1.6386     3.2985   6   4   0.0942   0.3393   0.2883   0.0751  -0.2312  -0.0160   0.00    0.0
2020/01/01 05:21:16.000   -249978.4040  -4539303.9688   4458958.6058     -2453.7165         0.0000         0.0000         0.0000     1.6441     3.2986   6   4   0.0941   0.3376   0.2879   0.0742  -0.2307  -0.0163   0.00    0.0
2020/01/01 05:21:17.000   -249978.4001  -4539303.9110   4458958.6023     -2453.8196         0.0000         0.0000         0.0000     1.6495     3.2986   6   4   0.0939   0.3359   0.2875   0.0733  -0.2302  -0.0165   0.00    0.0
2020/01/01 05:21:18.000   -249978.3943  -4539303.8463   4458958.6008     -2453.9855         0.0000         0.0000         0.0000     1.6555     3.2987   6   4   0.0937   0.3342   0.2870   0.0725  -0.2297  -0.0167   0.00    0.0
2020/01/01 05:21:19.000   -249978.3868  -4539303.7702   4458958.5980     -2454.1712         0.0000         0.0000         0.0000     1.6623     3.2987   6   4   0.0936   0.3326   0.2866   0.0716  -0.2292  -0.0170   0.00    0.0
2020/01/01 05:21:20.000   -249978.3791  -4539303.6907   4458958.5937     -2454.3665         0.0000         0.0000         0.0000     1.6695     3.2988   6   4   0.0934   0.3310   0.2862   0.0707  -0.2287  -0.0172   0.00    0.0
2020/01/01 05:21:21.000   -249978.3706  -4539303.6018   4458958.5835     -2454.6191         0.0000         0.0000         0.0000     1.6776     3.2988   6   4   0.0932   0.3294   0.2857   0.0699  -0.2282  -0.0174   0.00    0.0
2020/01/01 05:21:22.000   -249978.3584  -4539303.5028   4458958.5733     -2454.9289         0.0000         0.0000         0.0000     1.6864     3.2989   6   4   0.0931   0.3278   0.2853   0.0691  -0.2277  -0.0177   0.00    0.0
2020/01/01 05:21:23.000   -249978.3464  -4539303.4110   4458958.5713     -2455.1997         0.0000         0.0000         0.0000     1.6945     3.2990   6   4   0.0929   0.3263   0.2849   0.0683  -0.2272  -0.0179   0.00    0.0
2020/01/01 05:21:24.000   -249978.3347  -4539303.3181   4458958.5691     -2455.4616         0.0000         0.0000         0.0000     1.7027     3.2990   6   4   0.0928   0.3248   0.2844   0.0675  -0.2268  -0.0182   0.00    0.0
2020/01/01 05:21:25.000   -249978.3216  -4539303.2384   4458958.5742     -2455.7028         0.0000         0.0000         0.0000     1.7096     3.2991   6   4   0.0926   0.3233   0.2840   0.0667  -0.2263  -0.0184   0.00    0.0
2020/01/01 05:21:26.000   -249978.3113  -4539303.1593   4458958.5729     -2455.9562         0.0000         0.0000         0.0000     1.7166     3.2991   6   4   0.0925   0.3219   0.2836   0.0659  -0.2258  -0.0187   0.00    0.0
2020/01/01 05:21:27.000   -249978.3000  -4539303.0784   4458958.5669     -2456.2112         0.0000         0.0000         0.0000     1.7238     3.2992   6   4   0.0923   0.3205   0.2831   0.0652  -0.2253  -0.0190   0.00    0.0
2020/01/01 05:21:28.000   -249978.2920  -4539303.0086   4458958.5580     -2456.4490         0.0000         0.0000         0.0000     1.7300     3.2992   6   4   0.0922   0.3190   0.2827   0.0645  -0.2249  -0.0192   0.00    0.0
2020/01/01 05:21:29.000   -249978.2865  -4539302.9429   4458958.5515     -2456.6304         0.0000         0.0000         0.0000     1.7359     3.2993   6   4   0.0920   0.3177   0.2823   0.0637  -0.2244  -0.0195   0.00    0.0
2020/01/01 05:21:30.000   -249978.2778  -4539302.8659   4458958.5466     -2456.8537         0.0000         0.0000         0.0000     1.7426     3.2993   6   4   0.0919   0.3163   0.2818   0.0630  -0.2239  -0.0197   0.00    0.0
2020/01/01 05:21:31.000   -249978.2700  -4539302.8010   4458958.5428     -2457.0291         0.0000         0.0000         0.0000     1.7482     3.2994   6   4   0.0917   0.3150   0.2814   0.0623  -0.2235  -0.0200   0.00    0.0
2020/01/01 05:21:32.000   -249978.2639  -4539302.7409   4458958.5413     -2457.2055         0.0000         0.0000         0.0000     1.7533     3.2995   6   4   0.0916   0.3136   0.2810   0.0616  -0.2230  -0.0202   0.00    0.0
2020/01/01 05:21:33.000   -249978.2586  -4539302.6705   4458958.5301     -2457.4400         0.0000         0.0000         0.0000     1.7593     3.2995   6   4   0.0915   0.3123   0.2806   0.0609  -0.2225  -0.0205   0.00    0.0
2020/01/01 05:21:34.000   -249978.2539  -4539302.6008   4458958.5144     -2457.6663         0.0000         0.0000         0.0000     1.7654     3.2996   6   4   0.0913   0.3111   0.2801   0.0602  -0.2221  -0.0207   0.00    0.0
2020/01/01 05:21:35.000   -249978.2489  -4539302.5352   4458958.4995     -2457.8676         0.0000         0.0000         0.0000     1.7710     3.2996   6   4   0.0912   0.3098   0.2797   0.0596  -0.2216  -0.0210   0.00    0.0
2020/01/01 05:21:36.000   -249978.2459  -4539302.4814   4458958.4858     -2458.0295         0.0000         0.0000         0.0000     1.7757     3.2997   6   4   0.0911   0.3085   0.2793   0.0589  -0.2212  -0.0212   0.00    0.0
2020/01/01 05:21:37.000   -249978.2417  -4539302.4246   4458958.4708     -2458.1760         0.0000         0.0000         0.0000     1.7806     3.2997   6   4   0.0909   0.3073   0.2788   0.0582  -0.2207  -0.0215   0.00    0.0
2020/01/01 05:21:38.000   -249978.2369  -4539302.3576   4458958.4551     -2458.3795         0.0000         0.0000         0.0000     1.7865     3.2998   6   4   0.0908   0.3061   0.2784   0.0576  -0.2203  -0.0217   0.00    0.0
2020/01/01 05:21:39.000   -249978.2336  -4539302.2950   4458958.4352     -2458.5657         0.0000         0.0000         0.0000     1.7921     3.2998   6   4   0.0907   0.3049   0.2780   0.0570  -0.2198  -0.0220   0.00    0.0
2020/01/01 05:21:40.000   -249978.2302  -4539302.2344   4458958.4172     -2458.7599         0.0000         0.0000         0.0000     1.7976     3.2999   6   4   0.0906   0.3037   0.2776   0.0563  -0.2194  -0.0222   0.00    0.0
2020/01/01 05:21:41.000   -249978.2259  -4539302.1700   4458958.4059     -2458.9207         0.0000         0.0000         0.0000     1.8033     3.3000   6   4   0.0904   0.3026   0.2771   0.0557  -0.2190  -0.0224   0.00    0.0
2020/01/01 05:21:42.000   -249978.2231  -4539302.1059   4458958.3907     -2459.0689         0.0000         0.0000         0.0000     1.8092     3.3000   6   4   0.0903   0.3014   0.2767   0.0551  -0.2185  -0.0227   0.00    0.0
2020/01/01 05:21:43.000   -249978.2195  -4539302.0491   4458958.3755     -2459.2130         0.0000         0.0000         0.0000     1.8144     3.3001   6   4   0.0902   0.3003   0.2763   0.0545  -0.2181  -0.0229   0.00    0.0
2020/01/01 05:21:44.000   -249978.2182  -4539301.9992   4458958.3590     -2459.3648         0.0000         0.0000         0.0000     1.8192     3.3001   6   4   0.0901   0.2992   0.2759   0.0539  -0.2177  -0.0231   0.00    0.0
2020/01/01 05:21:45.000   -249978.2147  -4539301.9327   4458958.3404     -2459.6091         0.0000         0.0000         0.0000     1.8253     3.3002   6   4   0.0899   0.2981   0.2755   0.0533  -0.2172  -0.0234   0.00    0.0
2020/01/01 05:21:46.000   -249978.2107  -4539301.8764   4458958.3253     -2459.7839         0.0000         0.0000         0.0000     1.8304     3.3002   6   4   0.0898   0.2970   0.2751   0.0527  -0.2168  -0.0236   0.00    0.0
2020/01/01 05:21:47.000   -249978.2076  -4539301.8250   4458958.3078     -2459.9299         0.0000         0.0000         0.0000     1.8353     3.3003   6   4   0.0897   0.2959   0.2746   0.0522  -0.2164  -0.0238   0.00    0.0
2020/01/01 05:21:48.000   -249978.2032  -4539301.7717   4458958.2971     -2460.0607         0.0000         0.0000         0.0000     1.8402     3.3003   6   4   0.0896   0.2949   0.2742   0.0516  -0.2159  -0.0241   0.00    0.0
2020/01/01 05:21:49.000   -249978.1973  -4539301.7064   4458958.2871     -2460.2795         0.0000         0.0000         0.0000     1.8462     3.3004   6   4   0.0895   0.2938   0.2738   0.0510  -0.2155  -0.0243   0.00    0.0
2020/01/01 05:21:50.000   -249978.1916  -4539301.6362   4458958.2697     -2460.5407         0.0000         0.0000         0.0000     1.8528     3.3005   6   4   0.0894   0.2928   0.2734   0.0505  -0.2151  -0.0245   0.00    0.0
2020/01/01 05:21:51.000   -249978.1858  -4539301.5605   4458958.2530     -2460.8025         0.0000         0.0000         0.0000     1.8601     3.3005   6   4   0.0893   0.2917   0.2729   0.0500  -0.2146  -0.0248   0.00    0.0
2020/01/01 05:21:52.000   -249978.1809  -4539301.4843   4458958.2382     -2461.0632         0.0000         0.0000         0.0000     1.8673     3.3006   6   4   0.0891   0.2907   0.2725   0.0494  -0.2142  -0.0250   0.00    0.0
2020/01/01 05:21:53.000   -249978.1755  -4539301.4127   4458958.2242     -2461.3317         0.0000         0.0000         0.0000     1.8743     3.3006   6   4   0.0890   0.2897   0.2721   0.0489  -0.2138  -0.0252   0.00    0.0
2020/01/01 05:21:54.000   -249978.1728  -4539301.3519   4458958.2096     -2461.5669         0.0000         0.0000         0.0000     1.8804     3.3007   6   4   0.0889   0.2887   0.2716   0.0484  -0.2133  -0.0255   0.00    0.0
2020/01/01 05:21:55.000   -249978.1703  -4539301.2827   4458958.1908     -2461.8188         0.0000         0.0000         0.0000     1.8874     3.3007   6   4   0.0888   0.2877   0.2712   0.0479  -0.2129  -0.0257   0.00    0.0
2020/01/01 05:21:56.000   -249978.1672  -4539301.2114   4458958.1676     -2462.1034         0.0000         0.0000         0.0000     1.8947     3.3008   6   4   0.0887   0.2867   0.2707   0.0473  -0.2124  -0.0259   0.00    0.0
2020/01/01 05:21:57.000   -249978.1652  -4539301.1540   4458958.1483     -2462.3334         0.0000         0.0000         0.0000     1.9008     3.3009   6   4   0.0886   0.2857   0.2703   0.0468  -0.2120  -0.0262   0.00    0.0
2020/01/01 05:21:58.000   -249978.1629  -4539301.0883   4458958.1244     -2462.5871         0.0000         0.0000         0.0000     1.9077     3.3009   6   4   0.0885   0.2847   0.2698   0.0464  -0.2115  -0.0264   0.00    0.0
2020/01/01 05:21:59.000   -249978.1630  -4539301.0191   4458958.0929     -2462.8596         0.0000         0.0000         0.0000     1.9152     3.3010   6   4   0.0884   0.2838   0.2694   0.0459  -0.2111  -0.0266   0.00    0.0
2020/01/01 05:22:02.000   -249978.1618  -4539300.9490   4458958.0539     -2467.7553         0.0000         0.0000         0.0000     1.9217     3.3011   6   4   0.0882   0.2826   0.2688   0.0448  -0.2106  -0.0270   0.00    0.0
2020/01/01 05:22:03.000   -249978.1621  -4539300.8993   4458958.0364     -2467.3572         0.0000         0.0000         0.0000     1.9262     3.3012   6   4   0.0881   0.2817   0.2685   0.0443  -0.2103  -0.0272   0.00    0.0
2020/01/01 05:22:04.000   -249978.1620  -4539300.8536   4458958.0225     -2466.9678         0.0000         0.0000         0.0000     1.9304     3.3012   6   4   0.0880   0.2809   0.2681   0.0438  -0.2100  -0.0273   0.00    0.0
2020/01/01 05:22:05.000   -249978.1624  -4539300.8144   4458958.0091     -2466.3678         0.0000         0.0000         0.0000     1.9340     3.3013   6   4   0.0879   0.2800   0.2678   0.0433  -0.2097  -0.0275   0.00    0.0
2020/01/01 05:22:06.000   -249978.1631  -4539300.7735   4458957.9934     -2465.8135         0.0000         0.0000         0.0000     1.9378     3.3014   6   4   0.0878   0.2792   0.2675   0.0429  -0.2094  -0.0276   0.00    0.0
2020/01/01 05:22:07.000   -249978.1634  -4539300.7359   4458957.9764     -2465.5840         0.0000         0.0000         0.0000     1.9413     3.3014   6   4   0.0877   0.2784   0.2672   0.0424  -0.2090  -0.0278   0.00    0.0
2020/01/01 05:22:08.000   -249978.1658  -4539300.6981   4458957.9581     -2465.4520         0.0000         0.0000         0.0000     1.9448     3.3015   6   4   0.0876   0.2776   0.2668   0.0419  -0.2087  -0.0279   0.00    0.0
2020/01/01 05:22:09.000   -249978.1692  -4539300.6667   4458957.9413     -2465.1997         0.0000         0.0000         0.0000     1.9479     3.3015   6   4   0.0875   0.2768   0.2665   0.0414  -0.2084  -0.0281   0.00    0.0
2020/01/01 05:22:10.000   -249978.1723  -4539300.6464   4458957.9316     -2464.8423         0.0000         0.0000         0.0000     1.9499     3.3016   6   4   0.0874   0.2760   0.2662   0.0409  -0.2081  -0.0282   0.00    0.0
2020/01/01 05:22:11.000   -249978.1753  -4539300.6285   4458957.9236     -2464.5484         0.0000         0.0000         0.0000     1.9516     3.3016   6   4   0.0873   0.2752   0.2659   0.0405  -0.2078  -0.0284   0.00    0.0
2020/01/01 05:22:12.000   -249978.1814  -4539300.6069   4458957.9116     -2464.4700         0.0000         0.0000         0.0000     1.9538     3.3017   6   4   0.0872   0.2744   0.2655   0.0400  -0.2075  -0.0285   0.00    0.0
2020/01/01 05:22:13.000   -249978.1854  -4539300.5923   4458957.9063     -2464.3594         0.0000         0.0000         0.0000     1.9553     3.3018   6   4   0.0872   0.2736   0.2652   0.0395  -0.2072  -0.0286   0.00    0.0
2020/01/01 05:22:14.000   -249978.1893  -4539300.5809   4458957.8989     -2464.3114         0.0000         0.0000         0.0000     1.9565     3.3018   6   4   0.0871   0.2729   0.2649   0.0391  -0.2069  -0.0288   0.00    0.0
2020/01/01 05:22:15.000   -249978.1926  -4539300.5654   4458957.8889     -2464.3372         0.0000         0.0000         0.0000     1.9581     3.3019   6   4   0.0870   0.2721   0.2646   0.0386  -0.2066  -0.0289   0.00    0.0
2020/01/01 05:22:16.000   -249978.1950  -4539300.5488   4458957.8768     -2464.4179         0.0000         0.0000         0.0000     1.9598     3.3019   6   4   0.0869   0.2714   0.2643   0.0382  -0.2063  -0.0291   0.00    0.0
2020/01/01 05:22:17.000   -249978.1961  -4539300.5367   4458957.8691     -2464.4826         0.0000         0.0000         0.0000     1.9609     3.3020   6   4   0.0868   0.2706   0.2639   0.0377  -0.2060  -0.0292   0.00    0.0
2020/01/01 05:22:18.000   -249978.1970  -4539300.5227   4458957.8647     -2464.4508         0.0000         0.0000         0.0000     1.9622     3.3020   6   4   0.0867   0.2699   0.2636   0.0373  -0.2056  -0.0293   0.00    0.0
2020/01/01 05:22:19.000   -249978.1972  -4539300.5109   4458957.8612     -2464.4276         0.0000         0.0000         0.0000     1.9633     3.3021   6   4   0.0866   0.2691   0.2633   0.0368  -0.2053  -0.0295   0.00    0.0
2020/01/01 05:22:20.000   -249978.1953  -4539300.4969   4458957.8585     -2464.3598         0.0000         0.0000         0.0000     1.9645     3.3022   6   4   0.0865   0.2684   0.2630   0.0364  -0.2050  -0.0296   0.00    0.0
2020/01/01 05:22:21.000   -249978.1929  -4539300.4719   4458957.8564     -2464.4294         0.0000         0.0000         0.0000     1.9667     3.3022   6   4   0.0864   0.2677   0.2627   0.0360  -0.2047  -0.0298   0.00    0.0
2020/01/01 05:22:22.000   -249978.1890  -4539300.4399   4458957.8537     -2464.5471         0.0000         0.0000         0.0000     1.9694     3.3023   6   4   0.0864   0.2670   0.2624   0.0355  -0.2044  -0.0299   0.00    0.0
2020/01/01 05:22:23.000   -249978.1843  -4539300.4127   4458957.8542     -2464.5951         0.0000         0.0000         0.0000     1.9717     3.3023   6   4   0.0863   0.2663   0.2620   0.0351  -0.2041  -0.0300   0.00    0.0
2020/01/01 05:22:24.000   -249978.1788  -4539300.3824   4458957.8481     -2464.6860         0.0000         0.0000         0.0000     1.9742     3.3024   6   4   0.0862   0.2656   0.2617   0.0347  -0.2038  -0.0302   0.00    0.0
2020/01/01 05:22:25.000   -249978.1717  -4539300.3569   4458957.8424     -2464.7394         0.0000         0.0000         0.0000     1.9763     3.3025   6   4   0.0861   0.2649   0.2614   0.0342  -0.2035  -0.0303   0.00    0.0
2020/01/01 05:22:26.000   -249978.1650  -4539300.3293   4458957.8328     -2464.7579         0.0000         0.0000         0.0000     1.9786     3.3025   6   4   0.0860   0.2642   0.2611   0.0338  -0.2032  -0.0304   0.00    0.0
2020/01/01 05:22:27.000   -249978.1583  -4539300.3110   4458957.8266     -2464.7412         0.0000         0.0000         0.0000     1.9800     3.3026   6   4   0.0859   0.2636   0.2608   0.0334  -0.2029  -0.0306   0.00    0.0
2020/01/01 05:22:28.000   -249978.1500  -4539300.2961   4458957.8233     -2464.7014         0.0000         0.0000         0.0000     1.9810     3.3026   6   4   0.0859   0.2629   0.2605   0.0330  -0.2027  -0.0307   0.00    0.0
2020/01/01 05:22:29.000   -249978.1408  -4539300.2861   4458957.8252     -2464.6296         0.0000         0.0000         0.0000     1.9815     3.3027   6   4   0.0858   0.2622   0.2602   0.0326  -0.2024  -0.0308   0.00    0.0
2020/01/01 05:22:30.000   -249978.1325  -4539300.2731   4458957.8256     -2464.5696         0.0000         0.0000         0.0000     1.9822     3.3027   6   4   0.0857   0.2615   0.2598   0.0321  -0.2021  -0.0309   0.00    0.0
2020/01/01 05:22:31.000   -249978.1244  -4539300.2700   4458957.8285     -2464.4642         0.0000         0.0000         0.0000     1.9820     3.3028   6   4   0.0856   0.2609   0.2595   0.0317  -0.2018  -0.0311   0.00    0.0
2020/01/01 05:22:32.000   -249978.1147  -4539300.2566   4458957.8277     -2464.3975         0.0000         0.0000         0.0000     1.9827     3.3029   6   4   0.0855   0.2602   0.2592   0.0313  -0.2015  -0.0312   0.00    0.0
2020/01/01 05:22:33.000   -249978.1047  -4539300.2504   4458957.8311     -2464.3330         0.0000         0.0000         0.0000     1.9827     3.3029   6   4   0.0854   0.2596   0.2589   0.0309  -0.2012  -0.0313   0.00    0.0
2020/01/01 05:22:35.000   -249978.0888  -4539300.2135   4458957.8272     -2464.3273         0.0000         0.0000         0.0000     1.9853     3.3030   6   4   0.0853   0.2585   0.2583   0.0299  -0.2006  -0.0316   0.00    0.0
2020/01/01 05:22:36.000   -249978.0816  -4539300.2071   4458957.8265     -2464.2630         0.0000         0.0000         0.0000     1.9856     3.3031   6   4   0.0852   0.2579   0.2579   0.0295  -0.2003  -0.0317   0.00    0.0
2020/01/01 05:22:37.000   -249978.0772  -4539300.1955   4458957.8285     -2464.2384         0.0000         0.0000         0.0000     1.9864     3.3031   6   4   0.0851   0.2572   0.2576   0.0291  -0.2000  -0.0318   0.00    0.0
2020/01/01 05:22:38.000   -249978.0732  -4539300.1822   4458957.8311     -2464.1788         0.0000         0.0000         0.0000     1.9874     3.3032   6   4   0.0851   0.2566   0.2573   0.0287  -0.1997  -0.0319   0.00    0.0
2020/01/01 05:22:39.000   -249978.0700  -4539300.1763   4458957.8323     -2464.0741         0.0000         0.0000         0.0000     1.9877     3.3033   6   4   0.0850   0.2560   0.2570   0.0283  -0.1994  -0.0321   0.00    0.0
2020/01/01 05:22:40.000   -249978.0670  -4539300.1615   4458957.8304     -2464.0659         0.0000         0.0000         0.0000     1.9888     3.3033   6   4   0.0849   0.2554   0.2567   0.0279  -0.1991  -0.0322   0.00    0.0
2020/01/01 05:22:41.000   -249978.0638  -4539300.1402   4458957.8265     -2464.0536         0.0000         0.0000         0.0000     1.9905     3.3034   6   4   0.0848   0.2548   0.2564   0.0275  -0.1988  -0.0323   0.00    0.0
2020/01/01 05:22:42.000   -249978.0626  -4539300.1174   4458957.8257     -2464.0818         0.0000         0.0000         0.0000     1.9923     3.3034   6   4   0.0847   0.2542   0.2561   0.0271  -0.1986  -0.0324   0.00    0.0
2020/01/01 05:22:43.000   -249978.0616  -4539300.0930   4458957.8203     -2464.1079         0.0000         0.0000         0.0000     1.9943     3.3035   6   4   0.0847   0.2536   0.2558   0.0267  -0.1983  -0.0326   0.00    0.0
2020/01/01 05:22:44.000   -249978.0623  -4539300.0693   4458957.8150     -2464.1214         0.0000         0.0000         0.0000     1.9963     3.3036   6   4   0.0846   0.2530   0.2554   0.0263  -0.1980  -0.0327   0.00    0.0
2020/01/01 05:22:45.000   -249978.0634  -4539300.0520   4458957.8141     -2464.1298         0.0000         0.0000         0.0000     1.9976     3.3036   6   4   0.0845   0.2524   0.2551   0.0259  -0.1977  -0.0328   0.00    0.0
2020/01/01 05:22:46.000   -249978.0638  -4539300.0349   4458957.8149     -2464.1360         0.0000         0.0000         0.0000     1.9989     3.3037   6   4   0.0844   0.2518   0.2548   0.0255  -0.1974  -0.0329   0.00    0.0
2020/01/01 05:22:47.000   -249978.0654  -4539300.0216   4458957.8165     -2464.0909         0.0000         0.0000         0.0000     1.9998     3.3037   6   4   0.0844   0.2512   0.2545   0.0251  -0.1971  -0.0330   0.00    0.0
2020/01/01 05:22:48.000   -249978.0658  -4539300.0054   4458957.8166     -2464.0822         0.0000         0.0000         0.0000     2.0009     3.3038   6   4   0.0843   0.2506   0.2542   0.0248  -0.1968  -0.0331   0.00    0.0
2020/01/01 05:22:49.000   -249978.0647  -4539299.9895   4458957.8146     -2464.1099         0.0000         0.0000         0.0000     2.0020     3.3038   6   4   0.0842   0.2501   0.2539   0.0244  -0.1965  -0.0333   0.00    0.0
2020/01/01 05:22:50.000   -249978.0625  -4539299.9750   4458957.8125     -2464.1306         0.0000         0.0000         0.0000     2.0028     3.3039   6   4   0.0841   0.2495   0.2536   0.0240  -0.1962  -0.0334   0.00    0.0
2020/01/01 05:22:51.000   -249978.0582  -4539299.9634   4458957.8138     -2464.1875         0.0000         0.0000         0.0000     2.0033     3.3040   6   4   0.0841   0.2489   0.2532   0.0236  -0.1959  -0.0335   0.00    0.0
2020/01/01 05:22:52.000   -249978.0541  -4539299.9567   4458957.8177     -2464.1838         0.0000         0.0000         0.0000     2.0033     3.3040   6   4   0.0840   0.2483   0.2529   0.0232  -0.1956  -0.0336   0.00    0.0
2020/01/01 05:22:53.000   -249978.0499  -4539299.9567   4458957.8246     -2464.1938         0.0000         0.0000         0.0000     2.0026     3.3041   6   4   0.0839   0.2478   0.2526   0.0228  -0.1953  -0.0337   0.00    0.0
2020/01/01 05:22:54.000   -249978.0442  -4539299.9574   4458957.8314     -2464.1747         0.0000         0.0000         0.0000     2.0017     3.3041   6   4   0.0838   0.2472   0.2523   0.0225  -0.1950  -0.0338   0.00    0.0
2020/01/01 05:22:55.000   -249978.0379  -4539299.9663   4458957.8441     -2464.1359         0.0000         0.0000         0.0000     1.9999     3.3042   6   4   0.0838   0.2466   0.2520   0.0221  -0.1947  -0.0340   0.00    0.0
2020/01/01 05:22:56.000   -249978.0306  -4539299.9735   4458957.8605     -2464.0988         0.0000         0.0000         0.0000     1.9982     3.3043   6   4   0.0837   0.2461   0.2516   0.0217  -0.1944  -0.0341   0.00    0.0
2020/01/01 05:22:57.000   -249978.0238  -4539299.9801   4458957.8752     -2464.1275         0.0000         0.0000         0.0000     1.9964     3.3043   6   4   0.0836   0.2455   0.2513   0.0213  -0.1941  -0.0342   0.00    0.0
2020/01/01 05:22:58.000   -249978.0183  -4539299.9884   4458957.8840     -2464.1241         0.0000         0.0000         0.0000     1.9945     3.3044   6   4   0.0836   0.2450   0.2510   0.0210  -0.1938  -0.0343   0.00    0.0
2020/01/01 05:22:59.000   -249978.0142  -4539299.9982   4458957.8919     -2464.1088         0.0000         0.0000         0.0000     1.9926     3.3044   6   4   0.0835   0.2444   0.2506   0.0206  -0.1935  -0.0344   0.00    0.0
2020/01/01 05:23:00.000   -249978.0101  -4539300.0076   4458957.9040     -2464.1232         0.0000         0.0000         0.0000     1.9907     3.3045   6   4   0.0834   0.2438   0.2503   0.0202  -0.1932  -0.0346   0.00    0.0
2020/01/01 05:23:01.000   -249978.0053  -4539300.0170   4458957.9197     -2464.1163         0.0000         0.0000         0.0000     1.9887     3.3046   6   4   0.0833   0.2433   0.2500   0.0198  -0.1929  -0.0347   0.00    0.0
2020/01/01 05:23:02.000   -249978.0018  -4539300.0326   4458957.9389     -2464.0653         0.0000         0.0000         0.0000     1.9862     3.3046   6   4   0.0833   0.2428   0.2496   0.0195  -0.1926  -0.0348   0.00    0.0
2020/01/01 05:23:03.000   -249977.9986  -4539300.0493   4458957.9605     -2463.9865         0.0000         0.0000         0.0000     1.9835     3.3047   6   4   0.0832   0.2422   0.2493   0.0191  -0.1923  -0.0349   0.00    0.0
2020/01/01 05:23:04.000   -249977.9965  -4539300.0613   4458957.9812     -2463.9266         0.0000         0.0000         0.0000     1.9813     3.3047   6   4   0.0831   0.2417   0.2490   0.0187  -0.1920  -0.0350   0.00    0.0
2020/01/01 05:23:05.000   -249977.9971  -4539300.0718   4458957.9940     -2463.8779         0.0000         0.0000         0.0000     1.9793     3.3048   6   4   0.0831   0.2411   0.2486   0.0183  -0.1916  -0.0351   0.00    0.0
2020/01/01 05:23:06.000   -249977.9997  -4539300.0794   4458958.0066     -2463.8600         0.0000         0.0000         0.0000     1.9776     3.3048   6   4   0.0830   0.2406   0.2483   0.0180  -0.1913  -0.0353   0.00    0.0
2020/01/01 05:23:07.000   -249978.0037  -4539300.0873   4458958.0222     -2463.8016         0.0000         0.0000         0.0000     1.9760     3.3049   6   4   0.0829   0.2401   0.2480   0.0176  -0.1910  -0.0354   0.00    0.0
2020/01/01 05:23:08.000   -249978.0079  -4539300.0900   4458958.0373     -2463.8031         0.0000         0.0000         0.0000     1.9749     3.3050   6   4   0.0829   0.2395   0.2476   0.0172  -0.1907  -0.0355   0.00    0.0
2020/01/01 05:23:09.000   -249978.0140  -4539300.0916   4458958.0504     -2463.7965         0.0000         0.0000         0.0000     1.9739     3.3050   6   4   0.0828   0.2390   0.2473   0.0168  -0.1904  -0.0356   0.00    0.0
2020/01/01 05:23:10.000   -249978.0217  -4539300.0917   4458958.0589     -2463.8239         0.0000         0.0000         0.0000     1.9734     3.3051   6   4   0.0827   0.2385   0.2470   0.0164  -0.1901  -0.0357   0.00    0.0
2020/01/01 05:23:11.000   -249978.0301  -4539300.1003   4458958.0703     -2463.8028         0.0000         0.0000         0.0000     1.9721     3.3051   6   4   0.0826   0.2380   0.2467   0.0160  -0.1898  -0.0358   0.00    0.0
2020/01/01 05:23:12.000   -249978.0364  -4539300.1046   4458958.0822     -2463.8098         0.0000         0.0000         0.0000     1.9712     3.3052   6   4   0.0826   0.2375   0.2463   0.0156  -0.1895  -0.0359   0.00    0.0
2020/01/01 05:23:13.000   -249978.0420  -4539300.1089   4458958.0886     -2463.7825         0.0000         0.0000         0.0000     1.9703     3.3053   6   4   0.0825   0.2370   0.2460   0.0152  -0.1892  -0.0360   0.00    0.0
2020/01/01 05:23:14.000   -249978.0472  -4539300.1071   4458958.0908     -2463.7855         0.0000         0.0000         0.0000     1.9702     3.3053   6   4   0.0824   0.2365   0.2457   0.0148  -0.1889  -0.0361   0.00    0.0
2020/01/01 05:23:15.000   -249978.0522  -4539300.1018   4458958.0885     -2463.8262         0.0000         0.0000         0.0000     1.9703     3.3054   6   4   0.0824   0.2360   0.2454   0.0144  -0.1886  -0.0362   0.00    0.0
2020/01/01 05:23:16.000   -249978.0588  -4539300.0989   4458958.0867     -2463.8570         0.0000         0.0000         0.0000     1.9703     3.3054   6   4   0.0823   0.2355   0.2450   0.0140  -0.1883  -0.0363   0.00    0.0
2020/01/01 05:23:17.000   -249978.0646  -4539300.0946   4458958.0894     -2463.8514         0.0000         0.0000         0.0000     1.9704     3.3055   6   4   0.0822   0.2350   0.2447   0.0136  -0.1880  -0.0364   0.00    0.0
2020/01/01 05:23:18.000   -249978.0699  -4539300.0907   4458958.0950     -2463.8544         0.0000         0.0000         0.0000     1.9705     3.3056   6   4   0.0822   0.2345   0.2444   0.0132  -0.1877  -0.0365   0.00    0.0
2020/01/01 05:23:19.000   -249978.0752  -4539300.0874   4458958.0989     -2463.8894         0.0000         0.0000         0.0000     1.9705     3.3056   6   4   0.0821   0.2340   0.2441   0.0127  -0.1874  -0.0366   0.00    0.0
2020/01/01 05:23:20.000   -249978.0789  -4539300.0800   4458958.1011     -2463.9566         0.0000         0.0000         0.0000     1.9710     3.3057   6   4   0.0820   0.2335   0.2437   0.0123  -0.1871  -0.0367   0.00    0.0
2020/01/01 05:23:21.000   -249978.0825  -4539300.0691   4458958.0984     -2464.0422         0.0000         0.0000         0.0000     1.9718     3.3057   6   4   0.0820   0.2330   0.2434   0.0119  -0.1868  -0.0368   0.00    0.0
2020/01/01 05:23:22.000   -249978.0869  -4539300.0649   4458958.0941     -2464.1281         0.0000         0.0000         0.0000     1.9720     3.3058   6   4   0.0819   0.2325   0.2430   0.0115  -0.1865  -0.0370   0.00    0.0
2020/01/01 05:23:23.000   -249978.0891  -4539300.0607   4458958.0938     -2464.1770         0.0000         0.0000         0.0000     1.9721     3.3059   6   4   0.0818   0.2320   0.2427   0.0110  -0.1862  -0.0371   0.00    0.0
2020/01/01 05:23:24.000   -249978.0908  -4539300.0607   4458958.0968     -2464.2172         0.0000         0.0000         0.0000     1.9717     3.3059   6   4   0.0818   0.2315   0.2423   0.0106  -0.1858  -0.0372   0.00    0.0
2020/01/01 05:23:25.000   -249978.0935  -4539300.0598   4458958.0983     -2464.2534         0.0000         0.0000         0.0000     1.9715     3.3060   6   4   0.0817   0.2310   0.2420   0.0102  -0.1855  -0.0373   0.00    0.0
2020/01/01 05:23:26.000   -249978.0974  -4539300.0528   4458958.0970     -2464.3165         0.0000         0.0000         0.0000     1.9720     3.3060   6   4   0.0817   0.2305   0.2416   0.0097  -0.1852  -0.0374   0.00    0.0
