%  GPST                      x-ecef(m)      y-ecef(m)      z-ecef(m)   Q  ns   sdx(m)   sdy(m)   sdz(m)  sdxy(m)  sdyz(m)  sdzx(m) age(s)  ratio
2020/01/20 02:41:30.000   -254128.7837  -4531600.3286   4466506.2892        11.8124         0.0000         0.0000         0.0000     2.2944     2.8487   6   5   2.5265   4.6976   4.8735  -2.6592  -3.9682   2.6942   0.00    0.0
2020/01/20 02:42:00.000   -254129.7912  -4531597.5878   4466503.3714         4.6148         0.0000         0.0000         0.0000     2.2909     2.8531   6   5   1.7626   3.2710   3.4018  -1.8382  -2.7686   1.8603   0.00    0.0
2020/01/20 02:42:30.000   -254129.5614  -4531598.2766   4466502.8201         3.6728         0.0000         0.0000         0.0000     2.2947     2.8574   6   5   1.4073   2.5964   2.7105  -1.4429  -2.1991   1.4575   0.00    0.0
2020/01/20 02:43:00.000   -254129.6994  -4531598.8985   4466501.8414         2.9085         0.0000         0.0000         0.0000     2.2899     2.8617   6   5   1.1849   2.1659   2.2710  -1.1850  -1.8331   1.1943   0.00    0.0
2020/01/20 02:43:30.000   -254129.1118  -4531600.2451   4466502.5754         5.3036         0.0000         0.0000         0.0000     2.2912     2.8661   6   5   1.0269   1.8532   1.9526  -0.9935  -1.5650   0.9991   0.00    0.0
2020/01/20 02:44:00.000   -254128.7774  -4531601.5265   4466503.2867         7.4024         0.0000         0.0000         0.0000     2.2893     2.8704   6   5   0.9070   1.6105   1.7060  -0.8418  -1.3553   0.8453   0.00    0.0
2020/01/20 02:44:30.000   -254128.4553  -4531602.3422   4466503.7082         8.5270         0.0000         0.0000         0.0000     2.2869     2.8747   6   5   0.8125   1.4149   1.5079  -0.7175  -1.1855   0.7199   0.00    0.0
2020/01/20 02:45:00.000   -254128.1438  -4531602.9692   4466504.0134         9.3504         0.0000         0.0000         0.0000     2.2857     2.8791   6   5   0.7361   1.2538   1.3450  -0.6138  -1.0454   0.6156   0.00    0.0
2020/01/20 02:45:30.000   -254127.9468  -4531603.6577   4466504.4208        10.6544         0.0000         0.0000         0.0000     2.2703     2.8834   6   5   0.6729   1.1190   1.2091  -0.5262  -0.9284   0.5275   0.00    0.0
2020/01/20 02:46:00.000   -254127.7737  -4531604.2214   4466504.8151        11.6402         0.0000         0.0000         0.0000     2.2682     2.8877   6   5   0.6199   1.0050   1.0942  -0.4517  -0.8301   0.4520   0.00    0.0
2020/01/20 02:46:30.000   -254127.5523  -4531604.9040   4466505.6055        13.1571         0.0000         0.0000         0.0000     2.2654     2.8920   6   5   0.5748   0.9078   0.9960  -0.3877  -0.7469   0.3866   0.00    0.0
2020/01/20 02:47:00.000   -254127.4210  -4531605.2496   4466506.4048        14.3477         0.0000         0.0000         0.0000     2.2719     2.8963   6   5   0.5359   0.8243   0.9114  -0.3323  -0.6760   0.3290   0.00    0.0
2020/01/20 02:47:30.000   -254127.2871  -4531605.2499   4466506.7137        14.5515         0.0000         0.0000         0.0000     2.2869     2.9006   6   5   0.5019   0.7521   0.8379  -0.2841  -0.6153   0.2778   0.00    0.0
2020/01/20 02:48:00.000   -254127.1971  -4531605.4066   4466506.9031        14.9565         0.0000         0.0000         0.0000     2.2886     2.9049   6   5   0.4719   0.6892   0.7735  -0.2416  -0.5631   0.2313   0.00    0.0
2020/01/20 02:48:30.000   -254127.1077  -4531605.4586   4466507.0431        14.8346         0.0000         0.0000         0.0000     2.2954     2.9092   6   4   0.4499   0.6348   0.7169  -0.1996  -0.5181   0.1860   0.00    0.0
2020/01/20 02:49:30.000   -254127.0697  -4531605.8262   4466507.4278        15.0093         0.0000         0.0000         0.0000     2.3069     2.9177   6   5   0.4078   0.5455   0.6249  -0.1250  -0.4471   0.0887   0.00    0.0
2020/01/20 02:50:00.000   -254127.0562  -4531606.0043   4466507.6331        15.1234         0.0000         0.0000         0.0000     2.3102     2.9220   6   5   0.3872   0.5072   0.5843  -0.0941  -0.4162   0.0134   0.00    0.0
2020/01/20 02:50:30.000   -254127.0502  -4531606.1337   4466507.7317        15.3948         0.0000         0.0000         0.0000     2.3160     2.9262   6   5   0.3684   0.4731   0.5479  -0.0614  -0.3889  -0.0748   0.00    0.0
2020/01/20 02:51:00.000   -254127.0036  -4531606.2046   4466507.8457        15.4385         0.0000         0.0000         0.0000     2.3207     2.9304   6   5   0.3511   0.4425   0.5149   0.0068  -0.3645  -0.0994   0.00    0.0
2020/01/20 02:51:30.000   -254126.9972  -4531606.2660   4466507.9757        15.6226         0.0000         0.0000         0.0000     2.3253     2.9346   6   5   0.3351   0.4149   0.4850   0.0537  -0.3426  -0.1140   0.00    0.0
2020/01/20 02:52:00.000   -254127.0051  -4531606.3168   4466508.1202        15.5605         0.0000         0.0000         0.0000     2.3296     2.9387   6   5   0.3204   0.3901   0.4578   0.0705  -0.3229  -0.1234   0.00    0.0
2020/01/20 02:52:30.000   -254126.9708  -4531606.3785   4466508.3003        15.6489         0.0000         0.0000         0.0000     2.3386     2.9428   6   5   0.3067   0.3675   0.4329   0.0805  -0.3051  -0.1295   0.00    0.0
2020/01/20 02:53:00.000   -254127.0053  -4531606.4222   4466508.4366        15.8269         0.0000         0.0000         0.0000     2.3420     2.9470   6   5   0.2939   0.3470   0.4100   0.0869  -0.2889  -0.1332   0.00    0.0
2020/01/20 02:53:30.000   -254126.9969  -4531606.4792   4466508.5063        15.9693         0.0000         0.0000         0.0000     2.3445     2.9510   6   5   0.2819   0.3283   0.3890   0.0909  -0.2741  -0.1353   0.00    0.0
2020/01/20 02:54:00.000   -254126.9470  -4531606.4837   4466508.4997        15.8049         0.0000         0.0000         0.0000     2.3507     2.9551   6   5   0.2707   0.3112   0.3696   0.0934  -0.2606  -0.1361   0.00    0.0
2020/01/20 02:54:30.000   -254126.9202  -4531606.4803   4466508.5290        15.6622         0.0000         0.0000         0.0000     2.3560     2.9591   6   5   0.2601   0.2954   0.3516   0.0947  -0.2481  -0.1360   0.00    0.0
2020/01/20 02:55:00.000   -254126.8982  -4531606.4744   4466508.5539        15.5918         0.0000         0.0000         0.0000     2.3606     2.9631   6   5   0.2502   0.2809   0.3350   0.0952  -0.2366  -0.1352   0.00    0.0
2020/01/20 02:55:30.000   -254126.8997  -4531606.4548   4466508.5812        15.5590         0.0000         0.0000         0.0000     2.3637     2.9671   6   5   0.2408   0.2676   0.3195   0.0950  -0.2259  -0.1339   0.00    0.0
2020/01/20 02:56:00.000   -254126.9275  -4531606.4833   4466508.7002        15.6364         0.0000         0.0000         0.0000     2.3631     2.9710   6   5   0.2319   0.2552   0.3050   0.0944  -0.2160  -0.1321   0.00    0.0
2020/01/20 02:56:30.000   -254126.9308  -4531606.4976   4466508.7798        15.6816         0.0000         0.0000         0.0000     2.3629     2.9749   6   5   0.2234   0.2437   0.2916   0.0934  -0.2068  -0.1301   0.00    0.0
2020/01/20 02:57:00.000   -254126.9470  -4531606.5004   4466508.8504        15.7449         0.0000         0.0000         0.0000     2.3643     2.9788   6   5   0.2154   0.2331   0.2790   0.0922  -0.1982  -0.1277   0.00    0.0
2020/01/20 02:57:30.000   -254126.9645  -4531606.5272   4466508.8681        15.9249         0.0000         0.0000         0.0000     2.3619     2.9826   6   5   0.2078   0.2231   0.2671   0.0907  -0.1902  -0.1252   0.00    0.0
2020/01/20 02:58:00.000   -254126.9724  -4531606.5324   4466508.8764        15.9542         0.0000         0.0000         0.0000     2.3612     2.9864   6   5   0.2006   0.2139   0.2561   0.0890  -0.1826  -0.1226   0.00    0.0
2020/01/20 02:58:30.000   -254126.9930  -4531606.5449   4466508.8913        15.9178         0.0000         0.0000         0.0000     2.3598     2.9901   6   5   0.1937   0.2052   0.2456   0.0873  -0.1756  -0.1199   0.00    0.0
2020/01/20 02:59:00.000   -254127.0143  -4531606.5472   4466508.9270        16.0535         0.0000         0.0000         0.0000     2.3580     2.9938   6   5   0.1871   0.1971   0.2358   0.0854  -0.1689  -0.1171   0.00    0.0
2020/01/20 02:59:30.000   -254127.0149  -4531606.5298   4466508.9493        15.9728         0.0000         0.0000         0.0000     2.3590     2.9975   6   5   0.1809   0.1895   0.2266   0.0835  -0.1626  -0.1143   0.00    0.0
2020/01/20 03:00:00.000   -254127.0084  -4531606.5224   4466508.9809        15.8326         0.0000         0.0000         0.0000     2.3602     3.0011   6   5   0.1749   0.1823   0.2178   0.0816  -0.1567  -0.1114   0.00    0.0
2020/01/20 03:01:30.000   -254126.9809  -4531606.5511   4466508.9988        16.0245         0.0000         0.0000         0.0000     2.3620     3.0117   6   4   0.1595   0.1637   0.1950   0.0769  -0.1414  -0.1042   0.00    0.0
2020/01/20 03:02:00.000   -254126.9764  -4531606.5709   4466508.9903        16.1386         0.0000         0.0000         0.0000     2.3604     3.0151   6   5   0.1544   0.1580   0.1879   0.0748  -0.1366  -0.1014   0.00    0.0
2020/01/20 03:02:30.000   -254126.9587  -4531606.5798   4466508.9750        16.1577         0.0000         0.0000         0.0000     2.3601     3.0185   6   5   0.1495   0.1527   0.1812   0.0728  -0.1321  -0.0986   0.00    0.0
2020/01/20 03:03:00.000   -254126.9425  -4531606.5883   4466508.9902        16.1438         0.0000         0.0000         0.0000     2.3600     3.0218   6   5   0.1448   0.1476   0.1748   0.0708  -0.1278  -0.0958   0.00    0.0
2020/01/20 03:03:30.000   -254126.9308  -4531606.6015   4466509.0016        15.7237         0.0000         0.0000         0.0000     2.3589     3.0250   6   5   0.1403   0.1428   0.1688   0.0688  -0.1237  -0.0931   0.00    0.0
2020/01/20 03:04:00.000   -254126.9220  -4531606.6003   4466509.0268        15.5024         0.0000         0.0000         0.0000     2.3601     3.0282   6   4   0.1362   0.1383   0.1631   0.0671  -0.1198  -0.0907   0.00    0.0
2020/01/20 03:04:30.000   -254126.9282  -4531606.6217   4466509.0640        15.5357         0.0000         0.0000         0.0000     2.3585     3.0314   6   5   0.1321   0.1340   0.1576   0.0652  -0.1161  -0.0881   0.00    0.0
2020/01/20 03:05:00.000   -254126.9417  -4531606.6520   4466509.1280        15.5806         0.0000         0.0000         0.0000     2.3562     3.0345   6   5   0.1282   0.1299   0.1524   0.0633  -0.1126  -0.0856   0.00    0.0
2020/01/20 03:05:30.000   -254126.9537  -4531606.6751   4466509.1796        15.5408         0.0000         0.0000         0.0000     2.3540     3.0375   6   5   0.1244   0.1260   0.1475   0.0615  -0.1092  -0.0832   0.00    0.0
2020/01/20 03:08:00.000   -254126.9598  -4531606.6518   4466509.1674         6.7949         0.0000         0.0000         0.0000     2.3549     3.0517   6   4   0.1234   0.1247   0.1466   0.0601  -0.1097  -0.0827   0.00    0.0
2020/01/20 03:08:30.000   -254126.9632  -4531606.6479   4466509.1610         9.4223         0.0000         0.0000         0.0000     2.3547     3.0543   6   5   0.1230   0.1246   0.1463   0.0598  -0.1095  -0.0822   0.00    0.0
2020/01/20 03:09:00.000   -254126.9532  -4531606.6463   4466509.1471        12.1513         0.0000         0.0000         0.0000     2.3553     3.0569   6   5   0.1227   0.1245   0.1460   0.0595  -0.1094  -0.0818   0.00    0.0
2020/01/20 03:09:30.000   -254126.9459  -4531606.6432   4466509.1335        12.9811         0.0000         0.0000         0.0000     2.3557     3.0594   6   5   0.1223   0.1244   0.1458   0.0592  -0.1092  -0.0814   0.00    0.0
2020/01/20 03:10:00.000   -254126.9457  -4531606.6417   4466509.1248        13.1042         0.0000         0.0000         0.0000     2.3556     3.0618   6   5   0.1219   0.1242   0.1455   0.0589  -0.1090  -0.0810   0.00    0.0
2020/01/20 03:10:30.000   -254126.9445  -4531606.6376   4466509.1134        12.9353         0.0000         0.0000         0.0000     2.3556     3.0642   6   5   0.1215   0.1241   0.1452   0.0586  -0.1089  -0.0806   0.00    0.0
2020/01/20 03:11:00.000   -254126.9402  -4531606.6296   4466509.1019        12.5986         0.0000         0.0000         0.0000     2.3563     3.0665   6   4   0.1212   0.1240   0.1450   0.0583  -0.1087  -0.0802   0.00    0.0
2020/01/20 03:11:30.000   -254126.9362  -4531606.6232   4466509.0931        12.1920         0.0000         0.0000         0.0000     2.3569     3.0687   6   4   0.1209   0.1238   0.1446   0.0581  -0.1085  -0.0798   0.00    0.0
2020/01/20 03:12:00.000   -254126.9305  -4531606.6147   4466509.0806        12.0594         0.0000         0.0000         0.0000     2.3577     3.0708   6   4   0.1205   0.1236   0.1443   0.0579  -0.1083  -0.0794   0.00    0.0
2020/01/20 03:12:30.000   -254126.9314  -4531606.6111   4466509.0759        11.9158         0.0000         0.0000         0.0000     2.3576     3.0729   6   5   0.1199   0.1234   0.1438   0.0575  -0.1080  -0.0789   0.00    0.0
2020/01/20 03:13:00.000   -254126.9380  -4531606.6110   4466509.0781        11.9116         0.0000         0.0000         0.0000     2.3571     3.0749   6   5   0.1193   0.1231   0.1433   0.0570  -0.1076  -0.0783   0.00    0.0
2020/01/20 03:13:30.000   -254126.9480  -4531606.6114   4466509.0779        11.5945         0.0000         0.0000         0.0000     2.3562     3.0768   6   5   0.1186   0.1228   0.1428   0.0566  -0.1073  -0.0777   0.00    0.0
2020/01/20 03:14:00.000   -254126.9531  -4531606.6155   4466509.0777        11.4917         0.0000         0.0000         0.0000     2.3554     3.0787   6   5   0.1178   0.1224   0.1421   0.0561  -0.1068  -0.0771   0.00    0.0
2020/01/20 03:14:30.000   -254126.9656  -4531606.6214   4466509.0785        11.3761         0.0000         0.0000         0.0000     2.3539     3.0804   6   5   0.1170   0.1220   0.1414   0.0555  -0.1063  -0.0764   0.00    0.0
2020/01/20 03:15:00.000   -254126.9799  -4531606.6275   4466509.0894        11.4050         0.0000         0.0000         0.0000     2.3524     3.0821   6   5   0.1161   0.1215   0.1406   0.0550  -0.1058  -0.0756   0.00    0.0
2020/01/20 03:15:30.000   -254126.9933  -4531606.6315   4466509.0975        11.3480         0.0000         0.0000         0.0000     2.3512     3.0837   6   5   0.1151   0.1209   0.1397   0.0543  -0.1052  -0.0748   0.00    0.0
2020/01/20 03:16:00.000   -254127.0039  -4531606.6387   4466509.1050        11.2160         0.0000         0.0000         0.0000     2.3500     3.0853   6   5   0.1140   0.1203   0.1387   0.0537  -0.1045  -0.0740   0.00    0.0
2020/01/20 03:16:30.000   -254127.0080  -4531606.6440   4466509.1069        11.1030         0.0000         0.0000         0.0000     2.3493     3.0867   6   5   0.1128   0.1196   0.1376   0.0530  -0.1038  -0.0731   0.00    0.0
2020/01/20 03:17:00.000   -254127.0089  -4531606.6418   4466509.0999        10.9497         0.0000         0.0000         0.0000     2.3492     3.0881   6   5   0.1116   0.1189   0.1364   0.0522  -0.1030  -0.0721   0.00    0.0
2020/01/20 03:17:30.000   -254127.0168  -4531606.6451   4466509.0986        10.8033         0.0000         0.0000         0.0000     2.3483     3.0894   6   5   0.1102   0.1181   0.1351   0.0514  -0.1021  -0.0711   0.00    0.0
2020/01/20 03:18:00.000   -254127.0205  -4531606.6518   4466509.1033        10.7745         0.0000         0.0000         0.0000     2.3475     3.0906   6   5   0.1088   0.1172   0.1337   0.0505  -0.1012  -0.0700   0.00    0.0
2020/01/20 03:18:30.000   -254127.0389  -4531606.6682   4466509.1287        10.8955         0.0000         0.0000         0.0000     2.3455     3.0918   6   5   0.1073   0.1163   0.1322   0.0496  -0.1002  -0.0689   0.00    0.0
2020/01/20 03:19:00.000   -254127.0520  -4531606.6723   4466509.1520        10.9295         0.0000         0.0000         0.0000     2.3448     3.0928   6   5   0.1057   0.1153   0.1306   0.0487  -0.0991  -0.0677   0.00    0.0
2020/01/20 03:19:30.000   -254127.0542  -4531606.6683   4466509.1634        10.8191         0.0000         0.0000         0.0000     2.3451     3.0938   6   4   0.1041   0.1142   0.1289   0.0477  -0.0981  -0.0666   0.00    0.0
2020/01/20 03:20:00.000   -254127.0573  -4531606.6652   4466509.1702        10.7908         0.0000         0.0000         0.0000     2.3454     3.0947   6   5   0.1024   0.1131   0.1271   0.0467  -0.0969  -0.0653   0.00    0.0
2020/01/20 03:20:30.000   -254127.0515  -4531606.6592   4466509.1563        10.7993         0.0000         0.0000         0.0000     2.3459     3.0956   6   4   0.1007   0.1119   0.1253   0.0457  -0.0957  -0.0641   0.00    0.0
2020/01/20 03:21:30.000   -254127.0472  -4531606.6535   4466509.1441         5.0806         0.0000         0.0000         0.0000     2.3464     3.0970   6   4   0.1005   0.1119   0.1252   0.0456  -0.0956  -0.0639   0.00    0.0
2020/01/20 03:22:00.000   -254127.0453  -4531606.6485   4466509.1355         8.3783         0.0000         0.0000         0.0000     2.3468     3.0976   6   5   0.1003   0.1118   0.1250   0.0454  -0.0955  -0.0636   0.00    0.0
2020/01/20 03:22:30.000   -254127.0444  -4531606.6449   4466509.1284         9.3846         0.0000         0.0000         0.0000     2.3469     3.0981   6   5   0.1001   0.1117   0.1249   0.0453  -0.0954  -0.0634   0.00    0.0
2020/01/20 03:23:00.000   -254127.0488  -4531606.6427   4466509.1259        10.0083         0.0000         0.0000         0.0000     2.3466     3.0986   6   5   0.0999   0.1116   0.1247   0.0451  -0.0953  -0.0631   0.00    0.0
2020/01/20 03:23:30.000   -254127.0522  -4531606.6378   4466509.1237        10.0472         0.0000         0.0000         0.0000     2.3466     3.0990   6   5   0.0996   0.1115   0.1245   0.0448  -0.0952  -0.0629   0.00    0.0
2020/01/20 03:24:00.000   -254127.0554  -4531606.6353   4466509.1218        10.0583         0.0000         0.0000         0.0000     2.3464     3.0993   6   5   0.0993   0.1114   0.1243   0.0446  -0.0950  -0.0626   0.00    0.0
2020/01/20 03:24:30.000   -254127.0561  -4531606.6340   4466509.1179        10.3867         0.0000         0.0000         0.0000     2.3463     3.0995   6   5   0.0990   0.1112   0.1240   0.0443  -0.0948  -0.0622   0.00    0.0
2020/01/20 03:25:00.000   -254127.0555  -4531606.6327   4466509.1178        10.6789         0.0000         0.0000         0.0000     2.3465     3.0996   6   5   0.0986   0.1110   0.1236   0.0440  -0.0946  -0.0619   0.00    0.0
2020/01/20 03:25:30.000   -254127.0556  -4531606.6285   4466509.1177        10.8070         0.0000         0.0000         0.0000     2.3468     3.0997   6   5   0.0982   0.1108   0.1233   0.0437  -0.0944  -0.0615   0.00    0.0
2020/01/20 03:26:00.000   -254127.0539  -4531606.6291   4466509.1226        11.3238         0.0000         0.0000         0.0000     2.3470     3.0998   6   5   0.0977   0.1105   0.1228   0.0433  -0.0941  -0.0610   0.00    0.0
2020/01/20 03:26:30.000   -254127.0548  -4531606.6266   4466509.1277        11.4453         0.0000         0.0000         0.0000     2.3474     3.0997   6   5   0.0971   0.1102   0.1223   0.0429  -0.0937  -0.0605   0.00    0.0
2020/01/20 03:27:00.000   -254127.0542  -4531606.6234   4466509.1281        11.0763         0.0000         0.0000         0.0000     2.3478     3.0996   6   4   0.0965   0.1099   0.1217   0.0425  -0.0934  -0.0600   0.00    0.0
2020/01/20 03:27:30.000   -254127.0593  -4531606.6224   4466509.1331        10.9073         0.0000         0.0000         0.0000     2.3476     3.0994   6   4   0.0958   0.1095   0.1210   0.0421  -0.0930  -0.0595   0.00    0.0
2020/01/20 03:28:00.000   -254127.0670  -4531606.6272   4466509.1383        10.7574         0.0000         0.0000         0.0000     2.3466     3.0992   6   5   0.0950   0.1091   0.1202   0.0416  -0.0925  -0.0588   0.00    0.0
2020/01/20 03:29:00.000   -254127.0745  -4531606.6292   4466509.1412        10.3778         0.0000         0.0000         0.0000     2.3460     3.0985   6   5   0.0932   0.1081   0.1184   0.0404  -0.0914  -0.0575   0.00    0.0
2020/01/20 03:30:00.000   -254127.0839  -4531606.6397   4466509.1608        10.1090         0.0000         0.0000         0.0000     2.3451     3.0976   6   5   0.0911   0.1069   0.1163   0.0391  -0.0901  -0.0559   0.00    0.0
2020/01/20 03:30:30.000   -254127.0845  -4531606.6346   4466509.1609         9.9290         0.0000         0.0000         0.0000     2.3457     3.0970   6   5   0.0900   0.1062   0.1151   0.0383  -0.0893  -0.0550   0.00    0.0
2020/01/20 03:31:30.000   -254127.0818  -4531606.6370   4466509.1624         9.8997         0.0000         0.0000         0.0000     2.3460     3.0958   6   5   0.0874   0.1046   0.1124   0.0367  -0.0877  -0.0531   0.00    0.0
2020/01/20 03:32:00.000   -254127.0806  -4531606.6355   4466509.1627         9.9357         0.0000         0.0000         0.0000     2.3465     2.0643   6   6   0.0860   0.1038   0.1109   0.0358  -0.0867  -0.0520   0.00    0.0
2020/01/20 03:32:30.000   -254127.0771  -4531606.6335   4466509.1679        10.0897         0.0000         0.0000         0.0000     2.3476     2.0660   6   6   0.0846   0.1029   0.1093   0.0348  -0.0858  -0.0509   0.00    0.0
2020/01/20 03:33:00.000   -254127.0802  -4531606.6402   4466509.1877        10.3022         0.0000         0.0000         0.0000     2.3480     2.0676   6   6   0.0831   0.1019   0.1077   0.0338  -0.0847  -0.0498   0.00    0.0
2020/01/20 03:33:30.000   -254127.0809  -4531606.6449   4466509.2099        10.3627         0.0000         0.0000         0.0000     2.3487     2.0692   6   6   0.0816   0.1009   0.1060   0.0328  -0.0837  -0.0486   0.00    0.0
2020/01/20 03:34:00.000   -254127.0856  -4531606.6546   4466509.2375        10.3593         0.0000         0.0000         0.0000     2.3483     2.0708   6   6   0.0800   0.0998   0.1042   0.0317  -0.0826  -0.0474   0.00    0.0
2020/01/20 03:35:30.000   -254127.0911  -4531606.6684   4466509.2558        17.1014         0.0000         0.0000         0.0000     2.3470     2.0755   6   4   0.0785   0.0988   0.1026   0.0308  -0.0812  -0.0458   0.00    0.0
2020/01/20 03:36:00.000   -254127.0948  -4531606.6644   4466509.2488        13.2559         0.0000         0.0000         0.0000     2.3468     2.0771   6   6   0.0784   0.0987   0.1026   0.0307  -0.0811  -0.0457   0.00    0.0
2020/01/20 03:36:30.000   -254127.0964  -4531606.6586   4466509.2408        11.9042         0.0000         0.0000         0.0000     2.3471     2.0786   6   6   0.0783   0.0987   0.1025   0.0306  -0.0811  -0.0456   0.00    0.0
2020/01/20 03:37:00.000   -254127.0962  -4531606.6546   4466509.2353        11.6066         0.0000         0.0000         0.0000     2.3474     2.0802   6   6   0.0782   0.0986   0.1024   0.0305  -0.0810  -0.0455   0.00    0.0
2020/01/20 03:37:30.000   -254127.0970  -4531606.6518   4466509.2324        12.4208         0.0000         0.0000         0.0000     2.3473     2.0817   6   6   0.0780   0.0985   0.1023   0.0304  -0.0810  -0.0454   0.00    0.0
2020/01/20 03:38:00.000   -254127.0945  -4531606.6506   4466509.2274        13.4445         0.0000         0.0000         0.0000     2.3469     2.0832   6   5   0.0779   0.0985   0.1022   0.0302  -0.0809  -0.0453   0.00    0.0
2020/01/20 03:38:30.000   -254127.0960  -4531606.6507   4466509.2220        13.4050         0.0000         0.0000         0.0000     2.3460     2.0847   6   6   0.0777   0.0983   0.1020   0.0301  -0.0808  -0.0451   0.00    0.0
2020/01/20 03:39:00.000   -254127.0978  -4531606.6494   4466509.2183        13.0889         0.0000         0.0000         0.0000     2.3461     2.0862   6   6   0.0774   0.0982   0.1018   0.0299  -0.0806  -0.0449   0.00    0.0
2020/01/20 03:39:30.000   -254127.0956  -4531606.6482   4466509.2116        12.8379         0.0000         0.0000         0.0000     2.3471     2.0877   6   6   0.0771   0.0980   0.1016   0.0296  -0.0805  -0.0447   0.00    0.0
2020/01/20 03:40:00.000   -254127.0956  -4531606.6438   4466509.2035        12.4637         0.0000         0.0000         0.0000     2.3481     2.0892   6   6   0.0767   0.0978   0.1013   0.0294  -0.0803  -0.0445   0.00    0.0
2020/01/20 03:40:30.000   -254127.0968  -4531606.6441   4466509.1978        12.1848         0.0000         0.0000         0.0000     2.3480     2.0907   6   6   0.0763   0.0976   0.1010   0.0291  -0.0801  -0.0442   0.00    0.0
2020/01/20 03:41:00.000   -254127.1026  -4531606.6500   4466509.2047        11.7894         0.0000         0.0000         0.0000     2.3464     2.0922   6   6   0.0759   0.0973   0.1006   0.0287  -0.0799  -0.0439   0.00    0.0
2020/01/20 03:41:30.000   -254127.1125  -4531606.6609   4466509.2151        11.5315         0.0000         0.0000         0.0000     2.3437     2.0936   6   6   0.0754   0.0971   0.1002   0.0283  -0.0796  -0.0436   0.00    0.0
2020/01/20 03:42:00.000   -254127.1206  -4531606.6666   4466509.2223        11.3831         0.0000         0.0000         0.0000     2.3419     2.0951   6   6   0.0748   0.0967   0.0997   0.0279  -0.0793  -0.0432   0.00    0.0
2020/01/20 03:42:30.000   -254127.1297  -4531606.6714   4466509.2350        11.4415         0.0000         0.0000         0.0000     2.3420     2.0966   6   6   0.0741   0.0964   0.0991   0.0274  -0.0790  -0.0428   0.00    0.0
2020/01/20 03:43:00.000   -254127.1327  -4531606.6730   4466509.2446        11.4925         0.0000         0.0000         0.0000     2.3430     2.0981   6   6   0.0734   0.0960   0.0985   0.0269  -0.0786  -0.0423   0.00    0.0
2020/01/20 03:43:30.000   -254127.1317  -4531606.6698   4466509.2465        11.5464         0.0000         0.0000         0.0000     2.3441     2.0996   6   6   0.0727   0.0955   0.0978   0.0264  -0.0782  -0.0418   0.00    0.0
2020/01/20 03:44:00.000   -254127.1346  -4531606.6725   4466509.2543        11.3834         0.0000         0.0000         0.0000     2.3436     2.1011   6   6   0.0719   0.0951   0.0971   0.0258  -0.0778  -0.0413   0.00    0.0
2020/01/20 03:44:30.000   -254127.1365  -4531606.6725   4466509.2597        11.2712         0.0000         0.0000         0.0000     2.3424     2.1026   6   6   0.0710   0.0946   0.0962   0.0252  -0.0773  -0.0407   0.00    0.0
2020/01/20 03:45:00.000   -254127.1373  -4531606.6744   4466509.2657        11.1741         0.0000         0.0000         0.0000     2.3404     2.1040   6   6   0.0701   0.0940   0.0954   0.0246  -0.0768  -0.0401   0.00    0.0
2020/01/20 03:45:30.000   -254127.1379  -4531606.6723   4466509.2708        11.0522         0.0000         0.0000         0.0000     2.3412     2.1056   6   6   0.0691   0.0935   0.0944   0.0239  -0.0763  -0.0394   0.00    0.0
2020/01/20 03:46:00.000   -254127.1409  -4531606.6748   4466509.2816        11.0000         0.0000         0.0000         0.0000     2.3420     2.1071   6   6   0.0681   0.0929   0.0934   0.0232  -0.0757  -0.0387   0.00    0.0
2020/01/20 03:46:30.000   -254127.1463  -4531606.6759   4466509.2845        11.0349         0.0000         0.0000         0.0000     2.3419     2.1086   6   6   0.0671   0.0922   0.0923   0.0225  -0.0751  -0.0380   0.00    0.0
2020/01/20 03:47:00.000   -254127.1483  -4531606.6741   4466509.2894        11.1116         0.0000         0.0000         0.0000     2.3426     2.1101   6   6   0.0660   0.0916   0.0912   0.0217  -0.0744  -0.0372   0.00    0.0
2020/01/20 03:47:30.000   -254127.1484  -4531606.6752   4466509.2987        11.1786         0.0000         0.0000         0.0000     2.3427     2.1117   6   6   0.0649   0.0909   0.0900   0.0209  -0.0737  -0.0364   0.00    0.0
2020/01/20 03:48:00.000   -254127.1502  -4531606.6820   4466509.3040        11.2210         0.0000         0.0000         0.0000     2.3410     2.1132   6   6   0.0638   0.0902   0.0888   0.0201  -0.0730  -0.0356   0.00    0.0
2020/01/20 03:48:30.000   -254127.1455  -4531606.6809   4466509.3030        11.2925         0.0000         0.0000         0.0000     2.3412     2.1148   6   6   0.0626   0.0894   0.0875   0.0192  -0.0723  -0.0347   0.00    0.0
2020/01/20 03:49:00.000   -254127.1434  -4531606.6834   4466509.3093        11.4290         0.0000         0.0000         0.0000     2.3409     2.1164   6   6   0.0615   0.0886   0.0862   0.0183  -0.0716  -0.0338   0.00    0.0
2020/01/20 03:49:30.000   -254127.1398  -4531606.6858   4466509.3166        11.6666         0.0000         0.0000         0.0000     2.3414     2.1180   6   6   0.0603   0.0879   0.0849   0.0174  -0.0708  -0.0329   0.00    0.0
2020/01/20 03:50:00.000   -254127.1318  -4531606.6842   4466509.3292        12.0501         0.0000         0.0000         0.0000     2.3437     2.1196   6   6   0.0592   0.0870   0.0835   0.0165  -0.0700  -0.0320   0.00    0.0
2020/01/20 03:50:30.000   -254127.1291  -4531606.6822   4466509.3432        12.2890         0.0000         0.0000         0.0000     2.3451     2.1213   6   6   0.0580   0.0862   0.0821   0.0155  -0.0693  -0.0311   0.00    0.0
2020/01/20 03:51:00.000   -254127.1240  -4531606.6805   4466509.3469        12.4453         0.0000         0.0000         0.0000     2.3455     2.1230   6   6   0.0569   0.0854   0.0808   0.0145  -0.0685  -0.0302   0.00    0.0
2020/01/20 03:51:30.000   -254127.1223  -4531606.6785   4466509.3479        12.5350         0.0000         0.0000         0.0000     2.3447     2.1247   6   6   0.0557   0.0845   0.0794   0.0135  -0.0676  -0.0292   0.00    0.0
2020/01/20 03:52:00.000   -254127.1199  -4531606.6751   4466509.3494        12.5807         0.0000         0.0000         0.0000     2.3438     1.8520   6   7   0.0546   0.0836   0.0780   0.0124  -0.0668  -0.0282   0.00    0.0
2020/01/20 03:52:30.000   -254127.1191  -4531606.6742   4466509.3563        12.6844         0.0000         0.0000         0.0000     2.3443     1.8565   6   7   0.0534   0.0828   0.0766   0.0113  -0.0660  -0.0273   0.00    0.0
2020/01/20 03:53:00.000   -254127.1198  -4531606.6729   4466509.3643        12.6967         0.0000         0.0000         0.0000     2.3441     1.8611   6   5   0.0523   0.0819   0.0752   0.0102  -0.0652  -0.0263   0.00    0.0
2020/01/20 03:53:30.000   -254127.1267  -4531606.6795   4466509.3864        12.7479         0.0000         0.0000         0.0000     2.3427     1.8657   6   7   0.0513   0.0810   0.0738   0.0088  -0.0644  -0.0253   0.00    0.0
2020/01/20 03:54:00.000   -254127.1310  -4531606.6831   4466509.3985        12.8396         0.0000         0.0000         0.0000     2.3411     1.8704   6   6   0.0504   0.0803   0.0725   0.0053  -0.0636  -0.0243   0.00    0.0
2020/01/20 03:54:30.000   -254127.1356  -4531606.6872   4466509.4081        12.7988         0.0000         0.0000         0.0000     2.3390     1.8751   6   5   0.0502   0.0798   0.0715   0.0055  -0.0631  -0.0245   0.00    0.0
2020/01/20 03:55:00.000   -254127.1357  -4531606.6890   4466509.4232        12.7281         0.0000         0.0000         0.0000     2.3389     1.8798   6   6   0.0500   0.0794   0.0705   0.0057  -0.0627  -0.0246   0.00    0.0
2020/01/20 03:55:30.000   -254127.1431  -4531606.6889   4466509.4333        12.7470         0.0000         0.0000         0.0000     2.3389     1.8845   6   7   0.0489   0.0786   0.0691  -0.0051  -0.0619  -0.0232   0.00    0.0
2020/01/20 03:56:00.000   -254127.1489  -4531606.6881   4466509.4365        12.8045         0.0000         0.0000         0.0000     2.3391     1.8893   6   7   0.0479   0.0779   0.0677  -0.0090  -0.0611  -0.0219   0.00    0.0
2020/01/20 03:56:30.000   -254127.1568  -4531606.6929   4466509.4433        12.8457         0.0000         0.0000         0.0000     2.3384     1.8941   6   7   0.0469   0.0772   0.0664  -0.0114  -0.0603  -0.0206   0.00    0.0
2020/01/20 03:57:00.000   -254127.1618  -4531606.6917   4466509.4439        12.9147         0.0000         0.0000         0.0000     2.3381     1.8989   6   7   0.0460   0.0765   0.0651  -0.0133  -0.0595  -0.0192   0.00    0.0
2020/01/20 03:57:30.000   -254127.1678  -4531606.6937   4466509.4440        12.8914         0.0000         0.0000         0.0000     2.3373     1.9037   6   7   0.0451   0.0758   0.0639  -0.0148  -0.0588  -0.0179   0.00    0.0
2020/01/20 03:58:00.000   -254127.1711  -4531606.6948   4466509.4449        12.7483         0.0000         0.0000         0.0000     2.3365     1.9086   6   7   0.0442   0.0751   0.0627  -0.0161  -0.0581  -0.0165   0.00    0.0
2020/01/20 03:58:30.000   -254127.1716  -4531606.6999   4466509.4513        12.6124         0.0000         0.0000         0.0000     2.3363     1.9135   6   4   0.0434   0.0745   0.0615  -0.0173  -0.0574  -0.0151   0.00    0.0
2020/01/20 03:59:00.000   -254127.1733  -4531606.7024   4466509.4516        12.6891         0.0000         0.0000         0.0000     2.3367     1.9184   6   7   0.0426   0.0738   0.0603  -0.0183  -0.0567  -0.0137   0.00    0.0
2020/01/20 03:59:30.000   -254127.1758  -4531606.7046   4466509.4554        12.7631         0.0000         0.0000         0.0000     2.3367     1.9234   6   7   0.0418   0.0732   0.0592  -0.0191  -0.0560  -0.0122   0.00    0.0
2020/01/20 04:00:00.000   -254127.1791  -4531606.7070   4466509.4565        12.8089         0.0000         0.0000         0.0000     2.3370     1.9284   6   7   0.0410   0.0725   0.0581  -0.0199  -0.0554  -0.0106   0.00    0.0
2020/01/20 05:54:00.000   -254127.1798  -4531606.7040   4466509.4549        17.6000         0.0000         0.0000         0.0000     2.3372    15.4842   6   4   0.0410   0.0725   0.0581  -0.0199  -0.0554  -0.0106   0.00    0.0
2020/01/20 05:54:30.000   -254127.1806  -4531606.7010   4466509.4533        17.1621         0.0000         0.0000         0.0000     2.3374    14.9252   6   4   0.0410   0.0725   0.0581  -0.0199  -0.0554  -0.0107   0.00    0.0
2020/01/20 05:55:00.000   -254127.1814  -4531606.6998   4466509.4529        16.4929         0.0000         0.0000         0.0000     2.3375    14.4035   6   4   0.0410   0.0725   0.0581  -0.0199  -0.0554  -0.0107   0.00    0.0
2020/01/20 05:55:30.000   -254127.1816  -4531606.7003   4466509.4531        16.2850         0.0000         0.0000         0.0000     2.3375    13.9157   6   4   0.0410   0.0725   0.0581  -0.0198  -0.0553  -0.0107   0.00    0.0
2020/01/20 09:35:00.000   -254127.1763  -4531606.7062   4466509.4535        12.1204         0.0000         0.0000         0.0000     2.3372     7.7960   6   4   0.0410   0.0725   0.0581  -0.0198  -0.0553  -0.0107   0.00    0.0
2020/01/20 09:35:30.000   -254127.1740  -4531606.7085   4466509.4536        12.2872         0.0000         0.0000         0.0000     2.3371     7.7754   6   4   0.0409   0.0724   0.0581  -0.0197  -0.0553  -0.0107   0.00    0.0
2020/01/20 09:36:00.000   -254127.1721  -4531606.7099   4466509.4535        11.6102         0.0000         0.0000         0.0000     2.3371     7.7548   6   4   0.0409   0.0724   0.0581  -0.0197  -0.0553  -0.0107   0.00    0.0
2020/01/20 09:36:30.000   -254127.1694  -4531606.7121   4466509.4535        11.6962         0.0000         0.0000         0.0000     2.3371     7.7341   6   4   0.0409   0.0724   0.0581  -0.0197  -0.0553  -0.0107   0.00    0.0
2020/01/20 09:37:00.000   -254127.1658  -4531606.7163   4466509.4540        11.5926         0.0000         0.0000         0.0000     2.3368     7.7134   6   4   0.0409   0.0724   0.0581  -0.0196  -0.0553  -0.0107   0.00    0.0
2020/01/20 09:37:30.000   -254127.1618  -4531606.7214   4466509.4554        11.7269         0.0000         0.0000         0.0000     2.3364     7.6925   6   4   0.0409   0.0723   0.0581  -0.0196  -0.0553  -0.0107   0.00    0.0
2020/01/20 09:38:00.000   -254127.1584  -4531606.7244   4466509.4556        11.6736         0.0000         0.0000         0.0000     2.3363     7.6716   6   4   0.0408   0.0723   0.0580  -0.0195  -0.0552  -0.0108   0.00    0.0
2020/01/20 09:38:30.000   -254127.1559  -4531606.7285   4466509.4569        11.9154         0.0000         0.0000         0.0000     2.3358     7.6507   6   4   0.0408   0.0722   0.0580  -0.0195  -0.0552  -0.0108   0.00    0.0
2020/01/20 09:39:00.000   -254127.1537  -4531606.7323   4466509.4581        11.8999         0.0000         0.0000         0.0000     2.3353     7.6297   6   4   0.0408   0.0721   0.0580  -0.0194  -0.0551  -0.0108   0.00    0.0
2020/01/20 09:39:30.000   -254127.1535  -4531606.7317   4466509.4575        11.6115         0.0000         0.0000         0.0000     2.3355     7.6086   6   4   0.0408   0.0720   0.0579  -0.0193  -0.0551  -0.0108   0.00    0.0
2020/01/20 09:40:00.000   -254127.1517  -4531606.7340   4466509.4577        11.4342         0.0000         0.0000         0.0000     2.3352     7.5874   6   4   0.0407   0.0719   0.0579  -0.0192  -0.0550  -0.0109   0.00    0.0
2020/01/20 09:41:00.000   -254127.1457  -4531606.7383   4466509.4565        11.6983         0.0000         0.0000         0.0000     2.3353     7.5450   6   4   0.0407   0.0717   0.0577  -0.0190  -0.0548  -0.0109   0.00    0.0
2020/01/20 09:42:30.000   -254127.1416  -4531606.7428   4466509.4572        15.6703         0.0000         0.0000         0.0000     2.3351     7.4810   6   4   0.0407   0.0717   0.0577  -0.0190  -0.0548  -0.0110   0.00    0.0
2020/01/20 09:43:00.000   -254127.1389  -4531606.7459   4466509.4573        13.4450         0.0000         0.0000         0.0000     2.3349     7.4596   6   4   0.0406   0.0716   0.0577  -0.0189  -0.0548  -0.0110   0.00    0.0
2020/01/20 09:43:30.000   -254127.1372  -4531606.7474   4466509.4575        11.9793         0.0000         0.0000         0.0000     2.3349     7.4382   6   4   0.0406   0.0716   0.0577  -0.0189  -0.0548  -0.0110   0.00    0.0
2020/01/20 09:44:00.000   -254127.1360  -4531606.7487   4466509.4577        11.3162         0.0000         0.0000         0.0000     2.3349     7.4167   6   4   0.0406   0.0716   0.0577  -0.0188  -0.0548  -0.0110   0.00    0.0
2020/01/20 09:44:30.000   -254127.1327  -4531606.7528   4466509.4586        11.6592         0.0000         0.0000         0.0000     2.3346     7.3952   6   4   0.0406   0.0716   0.0577  -0.0188  -0.0548  -0.0110   0.00    0.0
2020/01/20 09:45:00.000   -254127.1293  -4531606.7573   4466509.4597        11.9006         0.0000         0.0000         0.0000     2.3342     7.3736   6   4   0.0406   0.0716   0.0577  -0.0187  -0.0547  -0.0110   0.00    0.0
2020/01/20 09:46:00.000   -254127.1243  -4531606.7644   4466509.4619        11.2696         0.0000         0.0000         0.0000     2.3335     7.3305   6   4   0.0405   0.0715   0.0577  -0.0186  -0.0547  -0.0111   0.00    0.0
2020/01/20 09:46:30.000   -254127.1223  -4531606.7663   4466509.4619        11.1722         0.0000         0.0000         0.0000     2.3335     7.3089   6   4   0.0405   0.0714   0.0577  -0.0185  -0.0547  -0.0111   0.00    0.0
2020/01/20 09:47:00.000   -254127.1207  -4531606.7658   4466509.4609        11.2464         0.0000         0.0000         0.0000     2.3340     7.2872   6   4   0.0405   0.0713   0.0576  -0.0185  -0.0546  -0.0111   0.00    0.0
2020/01/20 09:48:30.000   -254127.1192  -4531606.7654   4466509.4603         6.9379         0.0000         0.0000         0.0000     2.3345     7.2222   6   4   0.0404   0.0713   0.0576  -0.0183  -0.0546  -0.0112   0.00    0.0
2020/01/20 09:49:30.000   -254127.1175  -4531606.7676   4466509.4605         9.5523         0.0000         0.0000         0.0000     2.3344     7.1789   6   4   0.0404   0.0713   0.0576  -0.0183  -0.0546  -0.0112   0.00    0.0
2020/01/20 09:50:00.000   -254127.1150  -4531606.7707   4466509.4606         9.8097         0.0000         0.0000         0.0000     2.3342     7.1572   6   4   0.0404   0.0712   0.0576  -0.0183  -0.0546  -0.0112   0.00    0.0
2020/01/20 09:50:30.000   -254127.1128  -4531606.7731   4466509.4607        10.7447         0.0000         0.0000         0.0000     2.3341     7.1355   6   4   0.0404   0.0712   0.0576  -0.0182  -0.0546  -0.0112   0.00    0.0
2020/01/20 09:51:00.000   -254127.1107  -4531606.7746   4466509.4608        11.5477         0.0000         0.0000         0.0000     2.3341     7.1138   6   4   0.0404   0.0712   0.0576  -0.0182  -0.0545  -0.0112   0.00    0.0
2020/01/20 09:51:30.000   -254127.1095  -4531606.7754   4466509.4610        11.6877         0.0000         0.0000         0.0000     2.3342     7.0921   6   4   0.0403   0.0712   0.0576  -0.0181  -0.0545  -0.0113   0.00    0.0
2020/01/20 09:52:00.000   -254127.1079  -4531606.7766   4466509.4615        11.5790         0.0000         0.0000         0.0000     2.3342     7.0704   6   4   0.0403   0.0712   0.0576  -0.0181  -0.0545  -0.0113   0.00    0.0
2020/01/20 09:52:30.000   -254127.1077  -4531606.7764   4466509.4616        11.0852         0.0000         0.0000         0.0000     2.3343     7.0488   6   4   0.0403   0.0711   0.0576  -0.0180  -0.0545  -0.0113   0.00    0.0
2020/01/20 09:53:00.000   -254127.1064  -4531606.7777   4466509.4618        10.7873         0.0000         0.0000         0.0000     2.3342     7.0271   6   4   0.0403   0.0711   0.0576  -0.0179  -0.0545  -0.0113   0.00    0.0
2020/01/20 09:53:30.000   -254127.1048  -4531606.7801   4466509.4626        10.9656         0.0000         0.0000         0.0000     2.3341     7.0055   6   4   0.0402   0.0710   0.0575  -0.0178  -0.0545  -0.0114   0.00    0.0
2020/01/20 09:54:00.000   -254127.1012  -4531606.7851   4466509.4640        11.0936         0.0000         0.0000         0.0000     2.3337     6.9838   6   4   0.0402   0.0710   0.0575  -0.0177  -0.0544  -0.0114   0.00    0.0
2020/01/20 09:54:30.000   -254127.0990  -4531606.7885   4466509.4646        11.1472         0.0000         0.0000         0.0000     2.3333     6.9622   6   4   0.0402   0.0709   0.0575  -0.0176  -0.0544  -0.0114   0.00    0.0
2020/01/20 09:55:00.000   -254127.0985  -4531606.7893   4466509.4648        11.1167         0.0000         0.0000         0.0000     2.3333     6.9407   6   4   0.0401   0.0709   0.0575  -0.0175  -0.0544  -0.0115   0.00    0.0
2020/01/20 09:55:30.000   -254127.0967  -4531606.7901   4466509.4642        10.8990         0.0000         0.0000         0.0000     2.3335     6.9191   6   4   0.0401   0.0708   0.0575  -0.0174  -0.0543  -0.0115   0.00    0.0
2020/01/20 09:56:00.000   -254127.0949  -4531606.7911   4466509.4640        10.6814         0.0000         0.0000         0.0000     2.3336     6.8976   6   4   0.0401   0.0707   0.0574  -0.0172  -0.0543  -0.0116   0.00    0.0
2020/01/20 09:58:00.000   -254127.0890  -4531606.7970   4466509.4655        14.7999         0.0000         0.0000         0.0000     2.3333     6.8118   6   4   0.0400   0.0706   0.0574  -0.0171  -0.0543  -0.0116   0.00    0.0
2020/01/20 09:58:30.000   -254127.0863  -4531606.8001   4466509.4659        14.4212         0.0000         0.0000         0.0000     2.3331     6.7904   6   4   0.0400   0.0706   0.0574  -0.0171  -0.0543  -0.0116   0.00    0.0
2020/01/20 09:59:00.000   -254127.0843  -4531606.8022   4466509.4659        14.0139         0.0000         0.0000         0.0000     2.3330     6.7691   6   4   0.0400   0.0706   0.0574  -0.0170  -0.0543  -0.0116   0.00    0.0
2020/01/20 10:00:00.000   -254127.0803  -4531606.8057   4466509.4662        14.1156         0.0000         0.0000         0.0000     2.3330     6.7266   6   4   0.0399   0.0705   0.0574  -0.0169  -0.0542  -0.0117   0.00    0.0
2020/01/20 11:22:30.000   -254127.0801  -4531606.8050   4466509.4653        18.7476         0.0000         0.0000         0.0000     2.3330     3.3025   6   4   0.0399   0.0705   0.0574  -0.0169  -0.0542  -0.0117   0.00    0.0
2020/01/20 11:23:00.000   -254127.0801  -4531606.8049   4466509.4648        18.0743         0.0000         0.0000         0.0000     2.3330     3.3062   6   4   0.0399   0.0705   0.0574  -0.0169  -0.0542  -0.0117   0.00    0.0
2020/01/20 11:23:30.000   -254127.0793  -4531606.8059   4466509.4644        17.7590         0.0000         0.0000         0.0000     2.3330     3.3100   6   4   0.0399   0.0705   0.0574  -0.0169  -0.0542  -0.0117   0.00    0.0
2020/01/20 11:24:00.000   -254127.0790  -4531606.8059   4466509.4643        16.5897         0.0000         0.0000         0.0000     2.3330     3.3140   6   4   0.0399   0.0705   0.0574  -0.0169  -0.0542  -0.0117   0.00    0.0
2020/01/20 11:24:30.000   -254127.0790  -4531606.8058   4466509.4641        15.8246         0.0000         0.0000         0.0000     2.3329     3.3181   6   4   0.0399   0.0705   0.0574  -0.0169  -0.0542  -0.0117   0.00    0.0
2020/01/20 11:25:00.000   -254127.0789  -4531606.8048   4466509.4634        14.9034         0.0000         0.0000         0.0000     2.3330     3.3223   6   4   0.0399   0.0705   0.0574  -0.0168  -0.0542  -0.0117   0.00    0.0
2020/01/20 11:25:30.000   -254127.0786  -4531606.8041   4466509.4633        14.6632         0.0000         0.0000         0.0000     2.3329     3.3266   6   4   0.0399   0.0704   0.0574  -0.0168  -0.0542  -0.0117   0.00    0.0
2020/01/20 11:26:00.000   -254127.0785  -4531606.8030   4466509.4624        14.5171         0.0000         0.0000         0.0000     2.3330     3.3310   6   4   0.0399   0.0704   0.0573  -0.0168  -0.0541  -0.0117   0.00    0.0
2020/01/20 11:26:30.000   -254127.0783  -4531606.8018   4466509.4617        14.8138         0.0000         0.0000         0.0000     2.3329     3.3355   6   4   0.0399   0.0704   0.0573  -0.0168  -0.0541  -0.0117   0.00    0.0
2020/01/20 11:27:00.000   -254127.0781  -4531606.8003   4466509.4607        15.0216         0.0000         0.0000         0.0000     2.3328     3.3402   6   4   0.0399   0.0703   0.0573  -0.0168  -0.0540  -0.0118   0.00    0.0
2020/01/20 11:27:30.000   -254127.0789  -4531606.7973   4466509.4584        14.9484         0.0000         0.0000         0.0000     2.3334     3.3450   6   4   0.0399   0.0703   0.0572  -0.0167  -0.0540  -0.0118   0.00    0.0
2020/01/20 11:28:00.000   -254127.0795  -4531606.7955   4466509.4565        15.0994         0.0000         0.0000         0.0000     2.3336     3.3499   6   4   0.0399   0.0702   0.0572  -0.0167  -0.0539  -0.0118   0.00    0.0
2020/01/20 11:28:30.000   -254127.0801  -4531606.7932   4466509.4545        15.1203         0.0000         0.0000         0.0000     2.3339     3.3550   6   4   0.0398   0.0701   0.0571  -0.0166  -0.0539  -0.0119   0.00    0.0
2020/01/20 11:29:00.000   -254127.0808  -4531606.7904   4466509.4522        15.5087         0.0000         0.0000         0.0000     2.3345     3.3601   6   4   0.0398   0.0700   0.0571  -0.0166  -0.0538  -0.0119   0.00    0.0
2020/01/20 11:29:30.000   -254127.0810  -4531606.7890   4466509.4509        15.8139         0.0000         0.0000         0.0000     2.3348     3.3655   6   4   0.0398   0.0700   0.0570  -0.0166  -0.0537  -0.0120   0.00    0.0
2020/01/20 11:30:00.000   -254127.0804  -4531606.7892   4466509.4500        15.8347         0.0000         0.0000         0.0000     2.3348     3.3709   6   4   0.0398   0.0699   0.0570  -0.0165  -0.0536  -0.0120   0.00    0.0
2020/01/20 11:30:30.000   -254127.0805  -4531606.7890   4466509.4491        15.9523         0.0000         0.0000         0.0000     2.3347     3.3765   6   4   0.0398   0.0698   0.0569  -0.0164  -0.0536  -0.0121   0.00    0.0
2020/01/20 11:31:00.000   -254127.0793  -4531606.7894   4466509.4484        16.2473         0.0000         0.0000         0.0000     2.3343     3.3823   6   4   0.0397   0.0697   0.0568  -0.0164  -0.0535  -0.0122   0.00    0.0
2020/01/20 11:31:30.000   -254127.0784  -4531606.7893   4466509.4472        16.4802         0.0000         0.0000         0.0000     2.3342     3.3882   6   4   0.0397   0.0695   0.0567  -0.0163  -0.0534  -0.0123   0.00    0.0
2020/01/20 11:32:00.000   -254127.0783  -4531606.7898   4466509.4470        16.7743         0.0000         0.0000         0.0000     2.3337     3.3942   6   4   0.0397   0.0694   0.0567  -0.0163  -0.0533  -0.0123   0.00    0.0
2020/01/20 11:32:30.000   -254127.0775  -4531606.7896   4466509.4463        16.9199         0.0000         0.0000         0.0000     2.3334     3.4004   6   4   0.0396   0.0693   0.0566  -0.0162  -0.0532  -0.0124   0.00    0.0
2020/01/20 11:33:30.000   -254127.0759  -4531606.7886   4466509.4455        16.9230         0.0000         0.0000         0.0000     2.3328     3.4133   6   4   0.0395   0.0691   0.0564  -0.0160  -0.0529  -0.0126   0.00    0.0
2020/01/20 11:34:00.000   -254127.0756  -4531606.7862   4466509.4436        16.9766         0.0000         0.0000         0.0000     2.3331     3.4200   6   4   0.0395   0.0689   0.0563  -0.0160  -0.0528  -0.0127   0.00    0.0
2020/01/20 11:35:00.000   -254127.0755  -4531606.7875   4466509.4432        16.6407         0.0000         0.0000         0.0000     2.3320     3.4338   6   4   0.0394   0.0686   0.0561  -0.0158  -0.0526  -0.0129   0.00    0.0
2020/01/20 11:35:30.000   -254127.0751  -4531606.7893   4466509.4450        16.4440         0.0000         0.0000         0.0000     2.3312     3.4410   6   4   0.0393   0.0685   0.0560  -0.0157  -0.0525  -0.0131   0.00    0.0
2020/01/20 11:36:00.000   -254127.0749  -4531606.7870   4466509.4445        16.5577         0.0000         0.0000         0.0000     2.3314     3.4484   6   4   0.0393   0.0684   0.0559  -0.0157  -0.0524  -0.0132   0.00    0.0
2020/01/20 11:36:30.000   -254127.0746  -4531606.7877   4466509.4444        16.6898         0.0000         0.0000         0.0000     2.3309     3.4560   6   4   0.0392   0.0682   0.0558  -0.0156  -0.0523  -0.0133   0.00    0.0
2020/01/20 11:37:00.000   -254127.0733  -4531606.7898   4466509.4456        16.7168         0.0000         0.0000         0.0000     2.3300     3.4637   6   4   0.0391   0.0681   0.0557  -0.0155  -0.0522  -0.0134   0.00    0.0
2020/01/20 11:37:30.000   -254127.0712  -4531606.7905   4466509.4458        16.7109         0.0000         0.0000         0.0000     2.3293     3.4717   6   4   0.0391   0.0679   0.0556  -0.0154  -0.0521  -0.0135   0.00    0.0
2020/01/20 11:38:00.000   -254127.0705  -4531606.7892   4466509.4451        16.6582         0.0000         0.0000         0.0000     2.3292     3.4798   6   4   0.0390   0.0678   0.0555  -0.0154  -0.0520  -0.0136   0.00    0.0
2020/01/20 11:38:30.000   -254127.0682  -4531606.7884   4466509.4457        16.5808         0.0000         0.0000         0.0000     2.3289     3.4882   6   4   0.0389   0.0677   0.0555  -0.0153  -0.0519  -0.0138   0.00    0.0
2020/01/20 11:39:00.000   -254127.0662  -4531606.7874   4466509.4453        16.4729         0.0000         0.0000         0.0000     2.3286     3.4967   6   4   0.0388   0.0675   0.0554  -0.0152  -0.0518  -0.0139   0.00    0.0
2020/01/20 11:39:30.000   -254127.0645  -4531606.7860   4466509.4453        16.4595         0.0000         0.0000         0.0000     2.3283     3.5055   6   4   0.0387   0.0674   0.0553  -0.0152  -0.0517  -0.0140   0.00    0.0
2020/01/20 11:40:00.000   -254127.0637  -4531606.7835   4466509.4438        16.5044         0.0000         0.0000         0.0000     2.3285     3.5145   6   4   0.0386   0.0672   0.0552  -0.0151  -0.0516  -0.0141   0.00    0.0
2020/01/20 11:41:30.000   -254127.0666  -4531606.7769   4466509.4385        15.9921         0.0000         0.0000         0.0000     2.3291     3.5428   6   4   0.0383   0.0668   0.0549  -0.0150  -0.0513  -0.0145   0.00    0.0
2020/01/20 11:42:00.000   -254127.0691  -4531606.7780   4466509.4353        15.9879         0.0000         0.0000         0.0000     2.3288     3.5527   6   4   0.0382   0.0667   0.0548  -0.0149  -0.0512  -0.0146   0.00    0.0
2020/01/20 11:42:30.000   -254127.0714  -4531606.7794   4466509.4321        15.9882         0.0000         0.0000         0.0000     2.3283     3.5629   6   4   0.0381   0.0666   0.0547  -0.0149  -0.0512  -0.0147   0.00    0.0
2020/01/20 11:43:00.000   -254127.0731  -4531606.7803   4466509.4290        15.9352         0.0000         0.0000         0.0000     2.3278     3.5733   6   4   0.0380   0.0664   0.0546  -0.0149  -0.0511  -0.0148   0.00    0.0
2020/01/20 11:43:30.000   -254127.0724  -4531606.7803   4466509.4262        15.8757         0.0000         0.0000         0.0000     2.3277     3.5840   6   4   0.0379   0.0663   0.0545  -0.0148  -0.0510  -0.0149   0.00    0.0
2020/01/20 11:44:00.000   -254127.0715  -4531606.7815   4466509.4256        15.6763         0.0000         0.0000         0.0000     2.3273     3.5949   6   4   0.0377   0.0662   0.0544  -0.0148  -0.0510  -0.0150   0.00    0.0
2020/01/20 11:44:30.000   -254127.0683  -4531606.7814   4466509.4254        15.5738         0.0000         0.0000         0.0000     2.3269     3.6061   6   4   0.0376   0.0661   0.0543  -0.0148  -0.0509  -0.0151   0.00    0.0
2020/01/20 11:45:00.000   -254127.0659  -4531606.7802   4466509.4258        15.5729         0.0000         0.0000         0.0000     2.3267     3.6176   6   4   0.0375   0.0660   0.0542  -0.0148  -0.0508  -0.0152   0.00    0.0
2020/01/20 11:45:30.000   -254127.0633  -4531606.7758   4466509.4256        15.6408         0.0000         0.0000         0.0000     2.3273     3.6294   6   4   0.0373   0.0658   0.0541  -0.0148  -0.0508  -0.0153   0.00    0.0
2020/01/20 11:46:00.000   -254127.0609  -4531606.7739   4466509.4277        15.6109         0.0000         0.0000         0.0000     2.3269     3.6415   6   4   0.0372   0.0657   0.0540  -0.0148  -0.0507  -0.0154   0.00    0.0
2020/01/20 11:47:30.000   -254127.0596  -4531606.7702   4466509.4290        14.3764         0.0000         0.0000         0.0000     2.3268     3.6797   6   4   0.0370   0.0656   0.0539  -0.0148  -0.0507  -0.0155   0.00    0.0
2020/01/20 11:48:30.000   -254127.0599  -4531606.7681   4466509.4273        11.6096         0.0000         0.0000         0.0000     2.3269     3.7068   6   4   0.0370   0.0656   0.0539  -0.0147  -0.0507  -0.0155   0.00    0.0
2020/01/20 11:49:00.000   -254127.0605  -4531606.7665   4466509.4259        11.4577         0.0000         0.0000         0.0000     2.3270     3.7209   6   4   0.0370   0.0656   0.0539  -0.0147  -0.0507  -0.0155   0.00    0.0
2020/01/20 11:49:30.000   -254127.0607  -4531606.7660   4466509.4247        11.7761         0.0000         0.0000         0.0000     2.3270     3.7353   6   4   0.0370   0.0656   0.0539  -0.0147  -0.0507  -0.0155   0.00    0.0
2020/01/20 11:50:00.000   -254127.0607  -4531606.7649   4466509.4228        12.2000         0.0000         0.0000         0.0000     2.3271     3.7501   6   4   0.0370   0.0656   0.0539  -0.0147  -0.0507  -0.0155   0.00    0.0
2020/01/20 11:50:30.000   -254127.0612  -4531606.7636   4466509.4216        12.5797         0.0000         0.0000         0.0000     2.3272     3.7653   6   4   0.0370   0.0656   0.0539  -0.0147  -0.0507  -0.0155   0.00    0.0
2020/01/20 11:51:00.000   -254127.0613  -4531606.7644   4466509.4214        13.2224         0.0000         0.0000         0.0000     2.3272     3.7809   6   4   0.0370   0.0656   0.0539  -0.0147  -0.0507  -0.0155   0.00    0.0
2020/01/20 11:51:30.000   -254127.0609  -4531606.7635   4466509.4210        13.9371         0.0000         0.0000         0.0000     2.3272     3.7969   6   4   0.0369   0.0656   0.0539  -0.0147  -0.0507  -0.0155   0.00    0.0
2020/01/20 11:52:00.000   -254127.0594  -4531606.7632   4466509.4206        14.4952         0.0000         0.0000         0.0000     2.3273     3.8134   6   4   0.0369   0.0655   0.0539  -0.0147  -0.0506  -0.0155   0.00    0.0
2020/01/20 11:52:30.000   -254127.0581  -4531606.7622   4466509.4207        14.8862         0.0000         0.0000         0.0000     2.3274     3.8302   6   4   0.0369   0.0655   0.0539  -0.0147  -0.0506  -0.0155   0.00    0.0
2020/01/20 11:53:00.000   -254127.0572  -4531606.7603   4466509.4195        15.1246         0.0000         0.0000         0.0000     2.3275     3.8476   6   4   0.0369   0.0655   0.0538  -0.0146  -0.0506  -0.0155   0.00    0.0
2020/01/20 11:53:30.000   -254127.0568  -4531606.7576   4466509.4186        15.2782         0.0000         0.0000         0.0000     2.3277     3.8653   6   4   0.0369   0.0655   0.0538  -0.0146  -0.0506  -0.0155   0.00    0.0
2020/01/20 11:56:30.000   -254127.0563  -4531606.7501   4466509.4145        10.0421         0.0000         0.0000         0.0000     2.3280     3.9826   6   4   0.0368   0.0655   0.0538  -0.0146  -0.0506  -0.0155   0.00    0.0
2020/01/20 11:57:00.000   -254127.0563  -4531606.7493   4466509.4131        10.7198         0.0000         0.0000         0.0000     2.3280     4.0040   6   4   0.0368   0.0655   0.0538  -0.0146  -0.0506  -0.0155   0.00    0.0
2020/01/20 11:57:30.000   -254127.0557  -4531606.7483   4466509.4114        11.0828         0.0000         0.0000         0.0000     2.3280     4.0261   6   4   0.0368   0.0655   0.0538  -0.0145  -0.0506  -0.0155   0.00    0.0
2020/01/20 11:58:00.000   -254127.0550  -4531606.7474   4466509.4097        11.1128         0.0000         0.0000         0.0000     2.3281     4.0487   6   4   0.0367   0.0655   0.0538  -0.0145  -0.0506  -0.0155   0.00    0.0
2020/01/20 11:58:30.000   -254127.0542  -4531606.7481   4466509.4091        11.4647         0.0000         0.0000         0.0000     2.3281     4.0720   6   4   0.0367   0.0654   0.0538  -0.0145  -0.0506  -0.0155   0.00    0.0
2020/01/20 11:59:00.000   -254127.0529  -4531606.7485   4466509.4089        12.0589         0.0000         0.0000         0.0000     2.3281     4.0960   6   4   0.0367   0.0654   0.0538  -0.0145  -0.0506  -0.0155   0.00    0.0
2020/01/20 11:59:30.000   -254127.0516  -4531606.7489   4466509.4090        12.4126         0.0000         0.0000         0.0000     2.3281     4.1206   6   4   0.0367   0.0654   0.0537  -0.0145  -0.0506  -0.0155   0.00    0.0
2020/01/20 14:00:00.000   -254127.0502  -4531606.7494   4466509.4096        15.0333         0.0000         0.0000         0.0000     2.3282     2.5968   6   5   0.0367   0.0654   0.0537  -0.0145  -0.0506  -0.0155   0.00    0.0
2020/01/20 14:00:30.000   -254127.0508  -4531606.7488   4466509.4094        13.3668         0.0000         0.0000         0.0000     2.3282     6.8441   6   4   0.0367   0.0654   0.0537  -0.0145  -0.0506  -0.0155   0.00    0.0
2020/01/20 14:01:30.000   -254127.0518  -4531606.7491   4466509.4111        12.2829         0.0000         0.0000         0.0000     2.3285     6.5523   6   4   0.0367   0.0654   0.0537  -0.0144  -0.0506  -0.0155   0.00    0.0
2020/01/20 14:02:00.000   -254127.0524  -4531606.7495   4466509.4130        12.3366         0.0000         0.0000         0.0000     2.3290     6.4201   6   4   0.0367   0.0654   0.0537  -0.0144  -0.0506  -0.0155   0.00    0.0
2020/01/20 14:02:30.000   -254127.0526  -4531606.7504   4466509.4146        12.9220         0.0000         0.0000         0.0000     2.3292     6.2962   6   4   0.0367   0.0654   0.0537  -0.0144  -0.0505  -0.0155   0.00    0.0
2020/01/20 14:03:00.000   -254127.0529  -4531606.7506   4466509.4157        13.3213         0.0000         0.0000         0.0000     2.3294     6.1799   6   4   0.0367   0.0654   0.0537  -0.0144  -0.0505  -0.0155   0.00    0.0
2020/01/20 14:03:30.000   -254127.0534  -4531606.7501   4466509.4159        13.3196         0.0000         0.0000         0.0000     2.3293     6.0708   6   4   0.0367   0.0653   0.0536  -0.0144  -0.0505  -0.0155   0.00    0.0
2020/01/20 14:04:00.000   -254127.0539  -4531606.7503   4466509.4162        13.4108         0.0000         0.0000         0.0000     2.3290     5.9684   6   4   0.0367   0.0653   0.0536  -0.0144  -0.0504  -0.0155   0.00    0.0
2020/01/20 14:04:30.000   -254127.0552  -4531606.7496   4466509.4166        13.2018         0.0000         0.0000         0.0000     2.3289     5.8722   6   4   0.0366   0.0653   0.0535  -0.0144  -0.0504  -0.0155   0.00    0.0
2020/01/20 14:05:30.000   -254127.0578  -4531606.7480   4466509.4178        13.1933         0.0000         0.0000         0.0000     2.3294     5.6971   6   4   0.0366   0.0651   0.0534  -0.0144  -0.0503  -0.0155   0.00    0.0
2020/01/20 14:06:00.000   -254127.0590  -4531606.7486   4466509.4204        12.8407         0.0000         0.0000         0.0000     2.3299     5.6175   6   4   0.0366   0.0651   0.0533  -0.0144  -0.0502  -0.0155   0.00    0.0
