%  GPST                      x-ecef(m)      y-ecef(m)      z-ecef(m)   Q  ns   sdx(m)   sdy(m)   sdz(m)  sdxy(m)  sdyz(m)  sdzx(m) age(s)  ratio
2020/01/20 02:41:00.000   -249978.0828  -4539289.7746   4458948.0134     -2563.2551         0.0000         0.0000         0.0000     2.3046     2.8937   6   4   2.8736   4.7627   4.9008  -2.7470  -4.0025   2.7018   0.00    0.0
2020/01/20 02:41:30.000   -249978.3424  -4539293.0260   4458948.7763     -2560.4725         0.0000         0.0000         0.0000     2.2986     2.8488   6   5   1.8663   3.3156   3.4217  -1.8779  -2.7938   1.8704   0.00    0.0
2020/01/20 02:42:30.000   -249979.4448  -4539291.9231   4458945.4031     -2562.1121         0.0000         0.0000         0.0000     2.2864     2.8575   6   5   1.2942   2.2518   2.3673  -1.2020  -1.9269   1.2309   0.00    0.0
2020/01/20 02:43:00.000   -249979.9575  -4539291.2454   4458944.8398     -2562.2370         0.0000         0.0000         0.0000     2.2823     2.8618   6   5   1.0991   1.9143   2.0160  -1.0033  -1.6268   1.0188   0.00    0.0
2020/01/20 02:43:30.000   -249980.5358  -4539293.0861   4458946.6295     -2556.9457         0.0000         0.0000         0.0000     2.2583     2.8661   6   5   0.9588   1.6580   1.7515  -0.8466  -1.3991   0.8558   0.00    0.0
2020/01/20 02:44:00.000   -249979.9261  -4539294.2170   4458949.2551     -2553.5424         0.0000         0.0000         0.0000     2.2573     2.8705   6   5   0.8519   1.4542   1.5425  -0.7184  -1.2180   0.7251   0.00    0.0
2020/01/20 02:44:30.000   -249979.2721  -4539295.0210   4458949.9726     -2552.6207         0.0000         0.0000         0.0000     2.2585     2.8748   6   5   0.7674   1.2875   1.3726  -0.6114  -1.0700   0.6176   0.00    0.0
2020/01/20 02:45:00.000   -249978.9096  -4539294.7267   4458950.1350     -2552.7756         0.0000         0.0000         0.0000     2.2849     2.8792   6   5   0.6988   1.1487   1.2318  -0.5211  -0.9474   0.5277   0.00    0.0
2020/01/20 02:45:30.000   -249978.6650  -4539294.8011   4458949.8362     -2552.7740         0.0000         0.0000         0.0000     2.2874     2.8835   6   5   0.6419   1.0317   1.1135  -0.4441  -0.8449   0.4512   0.00    0.0
2020/01/20 02:46:30.000   -249978.6071  -4539295.2380   4458950.3759     -2552.2452         0.0000         0.0000         0.0000     2.3020     2.8922   6   5   0.5848   0.9042   0.9880  -0.3559  -0.7347   0.3606   0.00    0.0
2020/01/20 02:47:00.000   -249978.2312  -4539295.5912   4458951.0987     -2552.2128         0.0000         0.0000         0.0000     2.3286     2.8965   6   5   0.5398   0.8068   0.8907  -0.2883  -0.6520   0.2904   0.00    0.0
2020/01/20 02:47:30.000   -249978.3073  -4539295.9116   4458951.8484     -2550.7603         0.0000         0.0000         0.0000     2.3252     2.9008   6   5   0.5025   0.7289   0.8118  -0.2335  -0.5868   0.2324   0.00    0.0
2020/01/20 02:48:00.000   -249978.1792  -4539295.9574   4458952.1204     -2551.2459         0.0000         0.0000         0.0000     2.3380     2.9051   6   4   0.4721   0.6669   0.7507  -0.1819  -0.5383   0.1734   0.00    0.0
2020/01/20 02:48:30.000   -249978.2055  -4539295.9860   4458952.4728     -2550.7960         0.0000         0.0000         0.0000     2.3484     2.9094   6   4   0.4494   0.6128   0.6936  -0.1337  -0.4937   0.1212   0.00    0.0
2020/01/20 02:49:00.000   -249978.1822  -4539296.0307   4458952.4993     -2550.2408         0.0000         0.0000         0.0000     2.3504     2.9136   6   5   0.4243   0.5657   0.6440  -0.0939  -0.4556   0.0664   0.00    0.0
2020/01/20 02:50:00.000   -249978.0452  -4539296.0097   4458952.5387     -2550.5875         0.0000         0.0000         0.0000     2.3562     2.9221   6   4   0.4023   0.5170   0.5925   0.0285  -0.4169  -0.0802   0.00    0.0
2020/01/20 02:50:30.000   -249978.0405  -4539295.8589   4458952.7738     -2550.8592         0.0000         0.0000         0.0000     2.3669     2.9263   6   4   0.3829   0.4768   0.5495   0.0835  -0.3854  -0.1161   0.00    0.0
2020/01/20 02:51:30.000   -249978.0121  -4539295.7990   4458952.7131     -2545.8216         0.0000         0.0000         0.0000     2.3703     2.9347   6   5   0.3755   0.4734   0.5427   0.0696  -0.3818  -0.0991   0.00    0.0
2020/01/20 02:52:00.000   -249977.9901  -4539295.7507   4458952.5739     -2545.6923         0.0000         0.0000         0.0000     2.3695     2.9389   6   5   0.3685   0.4699   0.5360   0.0543  -0.3783  -0.0814   0.00    0.0
2020/01/20 02:52:30.000   -249977.8766  -4539295.6063   4458952.4583     -2545.7515         0.0000         0.0000         0.0000     2.3811     2.9430   6   5   0.3618   0.4661   0.5293   0.0360  -0.3747  -0.0621   0.00    0.0
2020/01/20 02:53:00.000   -249977.8626  -4539295.6114   4458952.4782     -2545.4402         0.0000         0.0000         0.0000     2.3824     2.9472   6   4   0.3558   0.4633   0.5227  -0.0279  -0.3707  -0.0374   0.00    0.0
2020/01/20 02:53:30.000   -249977.8979  -4539295.5043   4458952.4388     -2547.1234         0.0000         0.0000         0.0000     2.3846     2.9512   6   4   0.3516   0.4589   0.5152  -0.0318  -0.3670  -0.0103   0.00    0.0
2020/01/20 02:54:00.000   -249977.8188  -4539295.4246   4458952.2679     -2548.7611         0.0000         0.0000         0.0000     2.3889     2.9553   6   4   0.3454   0.4542   0.5092  -0.0361  -0.3641   0.0160   0.00    0.0
2020/01/20 02:54:30.000   -249977.8524  -4539295.4210   4458952.1621     -2548.6328         0.0000         0.0000         0.0000     2.3844     2.9593   6   5   0.3384   0.4476   0.5003  -0.0446  -0.3587   0.0360   0.00    0.0
2020/01/20 02:56:00.000   -249977.8233  -4539295.4585   4458952.0319     -2549.0472         0.0000         0.0000         0.0000     2.3799     2.9712   6   5   0.3333   0.4448   0.4953  -0.0561  -0.3561   0.0564   0.00    0.0
2020/01/20 02:56:30.000   -249977.8246  -4539295.4737   4458951.9084     -2548.2116         0.0000         0.0000         0.0000     2.3747     2.9752   6   5   0.3283   0.4418   0.4903  -0.0646  -0.3535   0.0695   0.00    0.0
2020/01/20 02:57:00.000   -249977.7967  -4539295.4550   4458951.7656     -2551.4781         0.0000         0.0000         0.0000     2.3726     2.9790   6   5   0.3234   0.4386   0.4851  -0.0711  -0.3507   0.0789   0.00    0.0
2020/01/20 02:58:30.000   -249977.7415  -4539295.3484   4458951.5184     -2553.2831         0.0000         0.0000         0.0000     2.3739     2.9904   6   5   0.3147   0.4300   0.4735  -0.0711  -0.3445   0.0817   0.00    0.0
2020/01/20 02:59:00.000   -249977.6856  -4539295.3262   4458951.4071     -2553.4986         0.0000         0.0000         0.0000     2.3745     2.9941   6   4   0.3102   0.4236   0.4650  -0.0688  -0.3393   0.0811   0.00    0.0
2020/01/20 02:59:30.000   -249977.6325  -4539295.4181   4458951.4934     -2552.4513         0.0000         0.0000         0.0000     2.3748     2.9978   6   5   0.3038   0.4163   0.4558  -0.0694  -0.3333   0.0800   0.00    0.0
2020/01/20 03:02:00.000   -249977.5218  -4539295.6480   4458951.8539     -2551.7567         0.0000         0.0000         0.0000     2.3801     3.0154   6   5   0.2899   0.3939   0.4304  -0.0549  -0.3155   0.0496   0.00    0.0
2020/01/20 03:02:30.000   -249977.5151  -4539295.7683   4458952.1301     -2551.5396         0.0000         0.0000         0.0000     2.3818     3.0187   6   4   0.2783   0.3757   0.4105  -0.0373  -0.3017  -0.0268   0.00    0.0
2020/01/20 03:03:30.000   -249977.5234  -4539295.9532   4458952.3682     -2552.5365         0.0000         0.0000         0.0000     2.3829     3.0253   6   5   0.2592   0.3446   0.3757   0.0309  -0.2774  -0.0680   0.00    0.0
2020/01/20 03:04:00.000   -249977.4848  -4539296.0447   4458952.4106     -2552.9059         0.0000         0.0000         0.0000     2.3848     3.0285   6   5   0.2501   0.3305   0.3598   0.0397  -0.2661  -0.0755   0.00    0.0
2020/01/20 03:04:30.000   -249977.5044  -4539296.1419   4458952.5258     -2552.7116         0.0000         0.0000         0.0000     2.3819     3.0317   6   5   0.2415   0.3174   0.3450   0.0457  -0.2556  -0.0808   0.00    0.0
2020/01/20 03:05:00.000   -249977.5191  -4539296.1646   4458952.6457     -2552.4570         0.0000         0.0000         0.0000     2.3835     3.0348   6   5   0.2335   0.3050   0.3311   0.0503  -0.2456  -0.0847   0.00    0.0
2020/01/20 03:06:30.000   -249977.5474  -4539296.2125   4458952.7120     -2553.2000         0.0000         0.0000         0.0000     2.3834     3.0437   6   4   0.2232   0.2887   0.3132   0.0573  -0.2331  -0.0911   0.00    0.0
2020/01/20 03:07:00.000   -249977.5683  -4539296.1012   4458952.6592     -2553.0796         0.0000         0.0000         0.0000     2.3907     3.0465   6   4   0.2142   0.2813   0.3087   0.0671  -0.2330  -0.0994   0.00    0.0
2020/01/20 03:07:30.000   -249977.5724  -4539296.0472   4458952.6448     -2553.2050         0.0000         0.0000         0.0000     2.3947     3.0493   6   4   0.2062   0.2747   0.3046   0.0745  -0.2326  -0.1056   0.00    0.0
2020/01/20 03:08:00.000   -249977.6721  -4539296.1489   4458952.8837     -2552.7755         0.0000         0.0000         0.0000     2.3868     3.0520   6   4   0.1986   0.2592   0.2853   0.0735  -0.2173  -0.1036   0.00    0.0
2020/01/20 03:09:00.000   -249977.7202  -4539296.2265   4458953.0536     -2552.0999         0.0000         0.0000         0.0000     2.3867     3.0572   6   5   0.1901   0.2439   0.2665   0.0719  -0.2027  -0.1013   0.00    0.0
2020/01/20 03:09:30.000   -249977.7658  -4539296.2798   4458953.1649     -2552.2230         0.0000         0.0000         0.0000     2.3859     3.0597   6   4   0.1826   0.2310   0.2512   0.0711  -0.1911  -0.0996   0.00    0.0
2020/01/20 03:12:00.000   -249977.7641  -4539296.2882   4458953.1534     -2545.7366         0.0000         0.0000         0.0000     2.3851     3.0712   6   5   0.1815   0.2305   0.2503   0.0700  -0.1906  -0.0981   0.00    0.0
2020/01/20 03:13:00.000   -249977.7985  -4539296.3108   4458953.1601     -2544.5164         0.0000         0.0000         0.0000     2.3798     3.0753   6   5   0.1804   0.2299   0.2492   0.0689  -0.1899  -0.0967   0.00    0.0
2020/01/20 03:14:30.000   -249977.7983  -4539296.3199   4458953.1431     -2551.6140         0.0000         0.0000         0.0000     2.3785     3.0808   6   5   0.1794   0.2293   0.2484   0.0678  -0.1894  -0.0952   0.00    0.0
2020/01/20 03:15:30.000   -249977.7927  -4539296.2948   4458953.1073     -2551.4227         0.0000         0.0000         0.0000     2.3796     3.0841   6   5   0.1785   0.2288   0.2475   0.0667  -0.1888  -0.0938   0.00    0.0
2020/01/20 03:16:00.000   -249977.7976  -4539296.2881   4458953.0874     -2553.2045         0.0000         0.0000         0.0000     2.3787     3.0857   6   5   0.1775   0.2283   0.2466   0.0657  -0.1882  -0.0924   0.00    0.0
2020/01/20 03:16:30.000   -249977.8035  -4539296.2723   4458953.0437     -2554.3185         0.0000         0.0000         0.0000     2.3775     3.0871   6   4   0.1769   0.2277   0.2458   0.0652  -0.1878  -0.0916   0.00    0.0
2020/01/20 03:17:00.000   -249977.7802  -4539296.2654   4458952.9956     -2554.2382         0.0000         0.0000         0.0000     2.3787     3.0885   6   4   0.1760   0.2271   0.2448   0.0647  -0.1872  -0.0906   0.00    0.0
2020/01/20 03:17:30.000   -249977.7858  -4539296.3045   4458952.9955     -2553.9509         0.0000         0.0000         0.0000     2.3751     3.0898   6   5   0.1748   0.2263   0.2435   0.0636  -0.1863  -0.0892   0.00    0.0
2020/01/20 03:18:00.000   -249977.7587  -4539296.2882   4458952.9446     -2554.5417         0.0000         0.0000         0.0000     2.3774     3.0911   6   5   0.1734   0.2252   0.2420   0.0624  -0.1853  -0.0878   0.00    0.0
2020/01/20 03:20:00.000   -249977.7527  -4539296.2789   4458952.9326     -2544.9104         0.0000         0.0000         0.0000     2.3784     3.0952   6   4   0.1725   0.2247   0.2415   0.0615  -0.1848  -0.0866   0.00    0.0
2020/01/20 03:22:00.000   -249977.7524  -4539296.2673   4458952.8736     -2554.1719         0.0000         0.0000         0.0000     2.3773     3.0981   6   5   0.1707   0.2238   0.2403   0.0606  -0.1843  -0.0853   0.00    0.0
2020/01/20 03:22:30.000   -249977.7587  -4539296.2459   4458952.8676     -2555.6499         0.0000         0.0000         0.0000     2.3782     3.0986   6   4   0.1697   0.2232   0.2395   0.0603  -0.1840  -0.0846   0.00    0.0
2020/01/20 03:27:00.000   -249977.7687  -4539296.2082   4458952.8445     -2554.8392         0.0000         0.0000         0.0000     2.3791     3.1001   6   5   0.1688   0.2225   0.2388   0.0598  -0.1836  -0.0833   0.00    0.0
2020/01/20 03:27:30.000   -249977.7798  -4539296.2276   4458952.8469     -2552.0259         0.0000         0.0000         0.0000     2.3765     3.0999   6   5   0.1679   0.2219   0.2380   0.0589  -0.1831  -0.0821   0.00    0.0
2020/01/20 03:29:30.000   -249977.7586  -4539296.2327   4458952.8420     -2550.9277         0.0000         0.0000         0.0000     2.3784     3.0986   6   5   0.1661   0.2206   0.2356   0.0573  -0.1815  -0.0808   0.00    0.0
2020/01/20 03:30:30.000   -249977.8017  -4539296.2632   4458952.8918     -2549.6777         0.0000         0.0000         0.0000     2.3730     3.0975   6   5   0.1638   0.2189   0.2327   0.0555  -0.1797  -0.0794   0.00    0.0
2020/01/20 03:31:30.000   -249977.8371  -4539296.2590   4458952.9204     -2549.6594         0.0000         0.0000         0.0000     2.3704     2.0627   6   5   0.1602   0.2166   0.2293   0.0541  -0.1777  -0.0788   0.00    0.0
2020/01/20 03:32:00.000   -249977.8500  -4539296.3002   4458952.9768     -2550.0936         0.0000         0.0000         0.0000     2.3675     2.0643   6   6   0.1578   0.2145   0.2255   0.0521  -0.1753  -0.0772   0.00    0.0
2020/01/20 03:32:30.000   -249977.8509  -4539296.2991   4458953.0399     -2549.9550         0.0000         0.0000         0.0000     2.3699     2.0660   6   6   0.1554   0.2124   0.2217   0.0500  -0.1729  -0.0757   0.00    0.0
2020/01/20 03:33:00.000   -249977.8462  -4539296.3110   4458953.0740     -2550.0488         0.0000         0.0000         0.0000     2.3716     2.0676   6   6   0.1527   0.2102   0.2179   0.0478  -0.1704  -0.0743   0.00    0.0
2020/01/20 03:33:30.000   -249977.8319  -4539296.2976   4458953.1091     -2550.2374         0.0000         0.0000         0.0000     2.3775     2.0692   6   6   0.1497   0.2078   0.2139   0.0453  -0.1679  -0.0729   0.00    0.0
2020/01/20 03:34:00.000   -249977.8432  -4539296.3206   4458953.1595     -2550.2323         0.0000         0.0000         0.0000     2.3777     2.0708   6   4   0.1479   0.2061   0.2102   0.0399  -0.1661  -0.0708   0.00    0.0
2020/01/20 03:35:30.000   -249977.8109  -4539296.3045   4458953.1174     -2547.6286         0.0000         0.0000         0.0000     2.3817     2.0755   6   4   0.1474   0.2058   0.2094   0.0386  -0.1656  -0.0702   0.00    0.0
2020/01/20 03:36:00.000   -249977.7993  -4539296.2964   4458953.0873     -2548.0967         0.0000         0.0000         0.0000     2.3827     2.0771   6   6   0.1468   0.2053   0.2087   0.0379  -0.1651  -0.0696   0.00    0.0
2020/01/20 03:36:30.000   -249977.8017  -4539296.2838   4458953.0789     -2548.4117         0.0000         0.0000         0.0000     2.3846     2.0786   6   6   0.1461   0.2047   0.2081   0.0372  -0.1646  -0.0690   0.00    0.0
2020/01/20 03:37:00.000   -249977.7885  -4539296.2593   4458953.0561     -2549.2201         0.0000         0.0000         0.0000     2.3892     2.0802   6   6   0.1453   0.2041   0.2073   0.0363  -0.1641  -0.0684   0.00    0.0
2020/01/20 03:38:00.000   -249977.8042  -4539296.2653   4458953.0552     -2550.4485         0.0000         0.0000         0.0000     2.3886     2.0832   6   6   0.1439   0.2031   0.2058   0.0348  -0.1631  -0.0676   0.00    0.0
2020/01/20 03:38:30.000   -249977.8107  -4539296.2670   4458953.0520     -2550.8100         0.0000         0.0000         0.0000     2.3878     2.0847   6   6   0.1424   0.2019   0.2042   0.0332  -0.1621  -0.0668   0.00    0.0
2020/01/20 03:39:00.000   -249977.8188  -4539296.2762   4458953.0464     -2550.6309         0.0000         0.0000         0.0000     2.3861     2.0862   6   6   0.1408   0.2006   0.2024   0.0315  -0.1609  -0.0660   0.00    0.0
2020/01/20 03:39:30.000   -249977.8128  -4539296.2786   4458953.0307     -2550.6977         0.0000         0.0000         0.0000     2.3884     2.0877   6   6   0.1389   0.1991   0.2004   0.0296  -0.1596  -0.0651   0.00    0.0
2020/01/20 03:40:00.000   -249977.7919  -4539296.2994   4458953.0362     -2550.1450         0.0000         0.0000         0.0000     2.3937     2.0892   6   6   0.1368   0.1975   0.1981   0.0276  -0.1581  -0.0641   0.00    0.0
2020/01/20 03:41:30.000   -249977.7954  -4539296.3217   4458953.0264     -2551.7507         0.0000         0.0000         0.0000     2.3920     2.0937   6   5   0.1365   0.1972   0.1976   0.0258  -0.1577  -0.0636   0.00    0.0
2020/01/20 03:42:00.000   -249977.8001  -4539296.3342   4458953.0128     -2551.1133         0.0000         0.0000         0.0000     2.3903     2.0952   6   5   0.1362   0.1969   0.1971   0.0244  -0.1574  -0.0632   0.00    0.0
2020/01/20 03:43:30.000   -249977.7927  -4539296.3057   4458952.9790     -2556.2755         0.0000         0.0000         0.0000     2.3924     2.0996   6   6   0.1355   0.1963   0.1966   0.0242  -0.1570  -0.0627   0.00    0.0
2020/01/20 03:44:00.000   -249977.7900  -4539296.3092   4458952.9653     -2554.5541         0.0000         0.0000         0.0000     2.3924     2.1011   6   4   0.1354   0.1960   0.1962   0.0237  -0.1568  -0.0626   0.00    0.0
2020/01/20 03:44:30.000   -249977.7837  -4539296.3005   4458952.9431     -2554.1065         0.0000         0.0000         0.0000     2.3933     2.1026   6   6   0.1348   0.1956   0.1955   0.0232  -0.1564  -0.0623   0.00    0.0
2020/01/20 03:46:00.000   -249977.7792  -4539296.2910   4458952.9296     -2550.0209         0.0000         0.0000         0.0000     2.3947     2.1071   6   6   0.1343   0.1950   0.1949   0.0225  -0.1559  -0.0621   0.00    0.0
2020/01/20 03:46:30.000   -249977.7811  -4539296.2913   4458952.9284     -2550.2410         0.0000         0.0000         0.0000     2.3943     2.1086   6   4   0.1340   0.1947   0.1945   0.0211  -0.1556  -0.0616   0.00    0.0
2020/01/20 03:48:30.000   -249977.7932  -4539296.3231   4458952.9572     -2545.0283         0.0000         0.0000         0.0000     2.3925     2.1149   6   4   0.1325   0.1940   0.1933   0.0199  -0.1547  -0.0612   0.00    0.0
2020/01/20 03:50:30.000   -249977.8027  -4539296.3585   4458952.9649     -2551.9821         0.0000         0.0000         0.0000     2.3901     2.1214   6   4   0.1320   0.1936   0.1925   0.0186  -0.1542  -0.0613   0.00    0.0
2020/01/20 03:52:30.000   -249977.7960  -4539296.3496   4458952.9346     -2554.7570         0.0000         0.0000         0.0000     2.3902     1.8567   6   4   0.1316   0.1932   0.1922   0.0191  -0.1540  -0.0611   0.00    0.0
2020/01/20 03:53:00.000   -249977.7590  -4539296.3950   4458952.9655     -2550.2945         0.0000         0.0000         0.0000     2.3932     1.8613   6   7   0.1311   0.1927   0.1916   0.0193  -0.1535  -0.0611   0.00    0.0
2020/01/20 03:53:30.000   -249977.7462  -4539296.3918   4458952.9483     -2550.9748         0.0000         0.0000         0.0000     2.3939     1.8659   6   6   0.1307   0.1923   0.1911   0.0196  -0.1532  -0.0611   0.00    0.0
2020/01/20 03:54:00.000   -249977.7714  -4539296.3943   4458952.9415     -2551.6291         0.0000         0.0000         0.0000     2.3902     1.8705   6   6   0.1302   0.1918   0.1904   0.0201  -0.1527  -0.0612   0.00    0.0
2020/01/20 03:54:30.000   -249977.7876  -4539296.3971   4458952.9353     -2551.8111         0.0000         0.0000         0.0000     2.3886     1.8752   6   7   0.1294   0.1911   0.1895   0.0199  -0.1521  -0.0611   0.00    0.0
2020/01/20 03:55:00.000   -249977.7944  -4539296.4045   4458952.9473     -2551.3579         0.0000         0.0000         0.0000     2.3893     1.8799   6   7   0.1283   0.1903   0.1883   0.0192  -0.1514  -0.0608   0.00    0.0
2020/01/20 03:55:30.000   -249977.7986  -4539296.4035   4458952.9342     -2550.8227         0.0000         0.0000         0.0000     2.3877     1.8847   6   5   0.1272   0.1894   0.1871   0.0185  -0.1506  -0.0604   0.00    0.0
2020/01/20 03:56:30.000   -249977.8096  -4539296.3782   4458952.9332     -2550.8619         0.0000         0.0000         0.0000     2.3881     1.8942   6   6   0.1252   0.1884   0.1859   0.0174  -0.1501  -0.0603   0.00    0.0
2020/01/20 03:57:30.000   -249977.8130  -4539296.3451   4458952.9582     -2550.9088         0.0000         0.0000         0.0000     2.3948     1.9039   6   7   0.1229   0.1862   0.1825   0.0132  -0.1486  -0.0599   0.00    0.0
2020/01/20 03:58:00.000   -249977.8295  -4539296.3894   4458953.0165     -2550.7227         0.0000         0.0000         0.0000     2.3891     1.9088   6   7   0.1217   0.1846   0.1794   0.0110  -0.1470  -0.0598   0.00    0.0
2020/01/20 03:58:30.000   -249977.8404  -4539296.4159   4458953.0814     -2550.5857         0.0000         0.0000         0.0000     2.3849     1.9137   6   7   0.1204   0.1829   0.1763   0.0089  -0.1454  -0.0597   0.00    0.0
2020/01/20 03:59:00.000   -249977.8417  -4539296.4179   4458953.1360     -2551.1417         0.0000         0.0000         0.0000     2.3873     1.9186   6   4   0.1190   0.1814   0.1733   0.0075  -0.1441  -0.0595   0.00    0.0
2020/01/20 03:59:30.000   -249977.8346  -4539296.4445   4458953.1623     -2551.2047         0.0000         0.0000         0.0000     2.3856     1.9236   6   6   0.1177   0.1797   0.1712   0.0053  -0.1421  -0.0586   0.00    0.0
2020/01/20 04:00:00.000   -249977.8266  -4539296.4744   4458953.1871     -2551.1021         0.0000         0.0000         0.0000     2.3827     1.9285   6   6   0.1163   0.1780   0.1690   0.0038  -0.1400  -0.0577   0.00    0.0
2020/01/20 05:51:00.000   -249977.8281  -4539296.4692   4458953.1850     -2550.1776         0.0000         0.0000         0.0000     2.3829    19.8941   6   4   0.1162   0.1778   0.1688   0.0054  -0.1398  -0.0576   0.00    0.0
2020/01/20 05:53:00.000   -249977.8306  -4539296.4558   4458953.1781     -2552.3351         0.0000         0.0000         0.0000     2.3840    16.7340   6   4   0.1162   0.1774   0.1685   0.0053  -0.1398  -0.0576   0.00    0.0
2020/01/20 05:53:30.000   -249977.8315  -4539296.4479   4458953.1730     -2551.4462         0.0000         0.0000         0.0000     2.3846    16.0879   6   4   0.1161   0.1770   0.1683   0.0056  -0.1397  -0.0576   0.00    0.0
2020/01/20 05:59:00.000   -249977.8323  -4539296.4357   4458953.1572     -2548.4930         0.0000         0.0000         0.0000     2.3849    11.2338   6   4   0.1161   0.1768   0.1679   0.0067  -0.1394  -0.0575   0.00    0.0
2020/01/20 06:00:00.000   -249977.8384  -4539296.4229   4458953.1575     -2550.4894         0.0000         0.0000         0.0000     2.3855    10.6452   6   4   0.1160   0.1765   0.1676   0.0072  -0.1392  -0.0574   0.00    0.0
2020/01/20 09:34:30.000   -249977.8414  -4539296.4221   4458953.1572     -2560.5568         0.0000         0.0000         0.0000     2.3854     7.8142   6   4   0.1157   0.1764   0.1676   0.0100  -0.1393  -0.0573   0.00    0.0
2020/01/20 09:35:30.000   -249977.8266  -4539296.4351   4458953.1490     -2557.0022         0.0000         0.0000         0.0000     2.3850     7.7732   6   4   0.1153   0.1762   0.1675   0.0122  -0.1393  -0.0572   0.00    0.0
2020/01/20 09:36:00.000   -249977.8473  -4539296.4237   4458953.1496     -2557.7029         0.0000         0.0000         0.0000     2.3840     7.7526   6   4   0.1149   0.1760   0.1674   0.0139  -0.1392  -0.0571   0.00    0.0
2020/01/20 09:36:30.000   -249977.8324  -4539296.4321   4458953.1452     -2555.8064         0.0000         0.0000         0.0000     2.3844     7.7320   6   4   0.1145   0.1758   0.1673   0.0154  -0.1392  -0.0569   0.00    0.0
2020/01/20 09:38:30.000   -249977.8232  -4539296.4495   4458953.1449     -2554.5898         0.0000         0.0000         0.0000     2.3822     7.6486   6   4   0.1135   0.1746   0.1668   0.0174  -0.1385  -0.0563   0.00    0.0
2020/01/20 09:39:00.000   -249977.8176  -4539296.4620   4458953.1498     -2553.6018         0.0000         0.0000         0.0000     2.3807     7.6276   6   4   0.1129   0.1738   0.1665   0.0186  -0.1381  -0.0558   0.00    0.0
2020/01/20 09:39:30.000   -249977.8262  -4539296.4625   4458953.1574     -2554.0848         0.0000         0.0000         0.0000     2.3795     7.6065   6   4   0.1123   0.1730   0.1661   0.0198  -0.1377  -0.0553   0.00    0.0
2020/01/20 09:40:30.000   -249977.8185  -4539296.4681   4458953.1563     -2551.1602         0.0000         0.0000         0.0000     2.3797     7.5642   6   4   0.1120   0.1729   0.1661   0.0208  -0.1377  -0.0553   0.00    0.0
2020/01/20 09:42:00.000   -249977.7990  -4539296.4840   4458953.1499     -2550.5410         0.0000         0.0000         0.0000     2.3797     7.5004   6   4   0.1116   0.1727   0.1660   0.0219  -0.1377  -0.0551   0.00    0.0
2020/01/20 09:43:00.000   -249977.8102  -4539296.4781   4458953.1513     -2550.4735         0.0000         0.0000         0.0000     2.3793     7.4577   6   4   0.1113   0.1726   0.1660   0.0229  -0.1377  -0.0551   0.00    0.0
2020/01/20 09:44:30.000   -249977.7944  -4539296.4899   4458953.1501     -2553.8476         0.0000         0.0000         0.0000     2.3796     7.3933   6   4   0.1109   0.1725   0.1659   0.0239  -0.1377  -0.0550   0.00    0.0
2020/01/20 09:45:00.000   -249977.7918  -4539296.4952   4458953.1436     -2554.2705         0.0000         0.0000         0.0000     2.3792     7.3718   6   4   0.1106   0.1723   0.1658   0.0249  -0.1377  -0.0549   0.00    0.0
2020/01/20 09:46:00.000   -249977.7797  -4539296.5027   4458953.1432     -2557.8602         0.0000         0.0000         0.0000     2.3797     7.3287   6   4   0.1103   0.1722   0.1658   0.0257  -0.1377  -0.0549   0.00    0.0
2020/01/20 09:47:00.000   -249977.7723  -4539296.5097   4458953.1361     -2558.5206         0.0000         0.0000         0.0000     2.3794     7.2854   6   4   0.1100   0.1721   0.1657   0.0265  -0.1377  -0.0548   0.00    0.0
2020/01/20 09:47:30.000   -249977.7852  -4539296.5004   4458953.1375     -2556.1850         0.0000         0.0000         0.0000     2.3790     7.2638   6   4   0.1096   0.1719   0.1657   0.0274  -0.1377  -0.0547   0.00    0.0
2020/01/20 09:48:00.000   -249977.7800  -4539296.5025   4458953.1351     -2556.4604         0.0000         0.0000         0.0000     2.3796     7.2422   6   4   0.1093   0.1718   0.1656   0.0282  -0.1377  -0.0547   0.00    0.0
2020/01/20 09:48:30.000   -249977.7787  -4539296.5039   4458953.1319     -2555.8752         0.0000         0.0000         0.0000     2.3796     7.2205   6   4   0.1089   0.1716   0.1655   0.0291  -0.1377  -0.0546   0.00    0.0
2020/01/20 09:49:00.000   -249977.7732  -4539296.5099   4458953.1287     -2555.2352         0.0000         0.0000         0.0000     2.3793     7.1988   6   4   0.1086   0.1713   0.1654   0.0300  -0.1376  -0.0545   0.00    0.0
2020/01/20 09:49:30.000   -249977.7673  -4539296.5168   4458953.1277     -2555.1405         0.0000         0.0000         0.0000     2.3792     7.1772   6   4   0.1082   0.1710   0.1653   0.0310  -0.1375  -0.0544   0.00    0.0
2020/01/20 09:50:00.000   -249977.7623  -4539296.5194   4458953.1236     -2554.2946         0.0000         0.0000         0.0000     2.3792     7.1555   6   4   0.1078   0.1707   0.1651   0.0320  -0.1374  -0.0543   0.00    0.0
2020/01/20 09:50:30.000   -249977.7494  -4539296.5245   4458953.1248     -2553.8444         0.0000         0.0000         0.0000     2.3805     7.1338   6   4   0.1073   0.1702   0.1649   0.0330  -0.1373  -0.0542   0.00    0.0
2020/01/20 09:51:00.000   -249977.7518  -4539296.5211   4458953.1313     -2553.6362         0.0000         0.0000         0.0000     2.3815     7.1122   6   4   0.1069   0.1697   0.1647   0.0341  -0.1371  -0.0541   0.00    0.0
2020/01/20 09:52:30.000   -249977.7259  -4539296.5374   4458953.1369     -2552.5509         0.0000         0.0000         0.0000     2.3826     7.0472   6   4   0.1062   0.1691   0.1644   0.0357  -0.1369  -0.0539   0.00    0.0
2020/01/20 09:53:00.000   -249977.7039  -4539296.5507   4458953.1364     -2552.4271         0.0000         0.0000         0.0000     2.3834     7.0255   6   4   0.1059   0.1690   0.1644   0.0362  -0.1369  -0.0539   0.00    0.0
2020/01/20 09:53:30.000   -249977.6975  -4539296.5569   4458953.1340     -2553.8941         0.0000         0.0000         0.0000     2.3833     7.0039   6   4   0.1056   0.1689   0.1643   0.0367  -0.1369  -0.0538   0.00    0.0
2020/01/20 09:54:30.000   -249977.6939  -4539296.5636   4458953.1317     -2552.9607         0.0000         0.0000         0.0000     2.3830     6.9607   6   4   0.1051   0.1686   0.1642   0.0377  -0.1368  -0.0538   0.00    0.0
2020/01/20 09:55:00.000   -249977.6968  -4539296.5641   4458953.1303     -2553.7910         0.0000         0.0000         0.0000     2.3831     6.9392   6   4   0.1047   0.1684   0.1641   0.0383  -0.1368  -0.0538   0.00    0.0
2020/01/20 09:56:00.000   -249977.6775  -4539296.5781   4458953.1270     -2553.3273         0.0000         0.0000         0.0000     2.3835     6.8961   6   4   0.1041   0.1678   0.1638   0.0397  -0.1366  -0.0537   0.00    0.0
2020/01/20 09:56:30.000   -249977.6662  -4539296.5841   4458953.1299     -2553.2190         0.0000         0.0000         0.0000     2.3840     6.8746   6   4   0.1037   0.1674   0.1637   0.0405  -0.1365  -0.0537   0.00    0.0
2020/01/20 09:57:00.000   -249977.6665  -4539296.5823   4458953.1338     -2553.3349         0.0000         0.0000         0.0000     2.3845     6.8532   6   4   0.1033   0.1669   0.1634   0.0414  -0.1363  -0.0536   0.00    0.0
2020/01/20 09:57:30.000   -249977.6670  -4539296.5836   4458953.1394     -2553.6716         0.0000         0.0000         0.0000     2.3848     6.8318   6   4   0.1029   0.1663   0.1632   0.0423  -0.1361  -0.0535   0.00    0.0
2020/01/20 10:00:00.000   -249977.6318  -4539296.6077   4458953.1427     -2550.9863         0.0000         0.0000         0.0000     2.3861     6.7253   6   4   0.1025   0.1662   0.1631   0.0429  -0.1360  -0.0536   0.00    0.0
2020/01/20 11:22:00.000   -249977.6290  -4539296.5991   4458953.1323     -2556.1472         0.0000         0.0000         0.0000     2.3862     3.2994   6   4   0.1024   0.1662   0.1630   0.0429  -0.1360  -0.0535   0.00    0.0
2020/01/20 11:22:30.000   -249977.6311  -4539296.5995   4458953.1306     -2555.8892         0.0000         0.0000         0.0000     2.3862     3.3030   6   4   0.1024   0.1661   0.1629   0.0429  -0.1359  -0.0535   0.00    0.0
2020/01/20 11:23:00.000   -249977.6342  -4539296.5922   4458953.1254     -2554.1592         0.0000         0.0000         0.0000     2.3867     3.3068   6   4   0.1024   0.1660   0.1628   0.0429  -0.1358  -0.0534   0.00    0.0
2020/01/20 11:23:30.000   -249977.6371  -4539296.5792   4458953.1135     -2554.0324         0.0000         0.0000         0.0000     2.3872     3.3106   6   4   0.1023   0.1659   0.1626   0.0428  -0.1357  -0.0533   0.00    0.0
2020/01/20 11:24:30.000   -249977.6433  -4539296.5877   4458953.1178     -2551.2303         0.0000         0.0000         0.0000     2.3856     3.3187   6   4   0.1021   0.1656   0.1624   0.0426  -0.1355  -0.0531   0.00    0.0
2020/01/20 11:25:00.000   -249977.6479  -4539296.5810   4458953.1165     -2551.0465         0.0000         0.0000         0.0000     2.3843     3.3229   6   4   0.1020   0.1654   0.1622   0.0425  -0.1353  -0.0530   0.00    0.0
2020/01/20 11:26:00.000   -249977.6542  -4539296.6042   4458953.1280     -2551.2147         0.0000         0.0000         0.0000     2.3791     3.3316   6   4   0.1018   0.1649   0.1618   0.0421  -0.1349  -0.0527   0.00    0.0
2020/01/20 11:26:30.000   -249977.6537  -4539296.6027   4458953.1186     -2550.5724         0.0000         0.0000         0.0000     2.3788     3.3361   6   4   0.1016   0.1646   0.1615   0.0418  -0.1347  -0.0526   0.00    0.0
2020/01/20 11:28:00.000   -249977.6536  -4539296.5865   4458953.1007     -2550.4047         0.0000         0.0000         0.0000     2.3811     3.3505   6   4   0.1011   0.1635   0.1607   0.0407  -0.1339  -0.0522   0.00    0.0
2020/01/20 11:28:30.000   -249977.6530  -4539296.5793   4458953.1016     -2550.1867         0.0000         0.0000         0.0000     2.3830     3.3556   6   4   0.1008   0.1631   0.1603   0.0402  -0.1336  -0.0520   0.00    0.0
2020/01/20 11:29:30.000   -249977.6479  -4539296.5745   4458953.1106     -2549.5441         0.0000         0.0000         0.0000     2.3842     3.3661   6   4   0.1002   0.1622   0.1595   0.0391  -0.1330  -0.0517   0.00    0.0
2020/01/20 11:30:00.000   -249977.6499  -4539296.5714   4458953.1227     -2549.9192         0.0000         0.0000         0.0000     2.3840     3.3716   6   4   0.0999   0.1617   0.1591   0.0385  -0.1327  -0.0516   0.00    0.0
2020/01/20 11:31:30.000   -249977.6441  -4539296.5581   4458953.1274     -2550.5919         0.0000         0.0000         0.0000     2.3846     3.3888   6   4   0.0992   0.1615   0.1580   0.0386  -0.1326  -0.0519   0.00    0.0
2020/01/20 11:32:00.000   -249977.6418  -4539296.5567   4458953.1410     -2550.5428         0.0000         0.0000         0.0000     2.3845     3.3949   6   4   0.0988   0.1614   0.1575   0.0387  -0.1325  -0.0522   0.00    0.0
2020/01/20 11:32:30.000   -249977.6404  -4539296.5432   4458953.1378     -2550.7437         0.0000         0.0000         0.0000     2.3859     3.4011   6   4   0.0985   0.1613   0.1570   0.0387  -0.1324  -0.0524   0.00    0.0
2020/01/20 11:33:00.000   -249977.6408  -4539296.5425   4458953.1321     -2550.8819         0.0000         0.0000         0.0000     2.3868     3.4074   6   4   0.0981   0.1612   0.1565   0.0387  -0.1323  -0.0527   0.00    0.0
2020/01/20 11:34:00.000   -249977.6444  -4539296.5317   4458953.1228     -2554.2399         0.0000         0.0000         0.0000     2.3869     3.4206   6   4   0.0980   0.1611   0.1563   0.0387  -0.1322  -0.0525   0.00    0.0
2020/01/20 11:34:30.000   -249977.6455  -4539296.5188   4458953.1154     -2548.8138         0.0000         0.0000         0.0000     2.3873     3.4275   6   4   0.0980   0.1610   0.1562   0.0387  -0.1321  -0.0524   0.00    0.0
2020/01/20 11:35:00.000   -249977.6508  -4539296.5125   4458953.1114     -2547.6340         0.0000         0.0000         0.0000     2.3873     3.4345   6   4   0.0979   0.1609   0.1561   0.0387  -0.1320  -0.0523   0.00    0.0
2020/01/20 11:36:00.000   -249977.6590  -4539296.5046   4458953.1089     -2550.4627         0.0000         0.0000         0.0000     2.3869     3.4491   6   4   0.0977   0.1607   0.1558   0.0386  -0.1319  -0.0521   0.00    0.0
2020/01/20 11:36:30.000   -249977.6625  -4539296.5078   4458953.1134     -2550.9070         0.0000         0.0000         0.0000     2.3868     3.4567   6   4   0.0976   0.1606   0.1557   0.0386  -0.1318  -0.0520   0.00    0.0
2020/01/20 11:37:00.000   -249977.6658  -4539296.4897   4458953.1021     -2551.3109         0.0000         0.0000         0.0000     2.3877     3.4644   6   4   0.0975   0.1605   0.1555   0.0385  -0.1317  -0.0519   0.00    0.0
2020/01/20 11:39:30.000   -249977.6785  -4539296.4439   4458953.0771     -2561.9115         0.0000         0.0000         0.0000     2.3887     3.5062   6   4   0.0973   0.1602   0.1552   0.0386  -0.1314  -0.0517   0.00    0.0
2020/01/20 11:40:00.000   -249977.6806  -4539296.4323   4458953.0676     -2560.4023         0.0000         0.0000         0.0000     2.3890     3.5152   6   4   0.0972   0.1601   0.1550   0.0386  -0.1313  -0.0516   0.00    0.0
2020/01/20 11:42:00.000   -249977.6776  -4539296.4121   4458953.0687     -2558.4685         0.0000         0.0000         0.0000     2.3912     3.5534   6   4   0.0967   0.1599   0.1545   0.0385  -0.1312  -0.0513   0.00    0.0
2020/01/20 11:42:30.000   -249977.6778  -4539296.3997   4458953.0643     -2557.6649         0.0000         0.0000         0.0000     2.3922     3.5636   6   4   0.0965   0.1598   0.1542   0.0385  -0.1311  -0.0513   0.00    0.0
2020/01/20 11:43:00.000   -249977.6823  -4539296.3884   4458953.0613     -2557.1436         0.0000         0.0000         0.0000     2.3931     3.5740   6   4   0.0963   0.1596   0.1539   0.0384  -0.1310  -0.0513   0.00    0.0
2020/01/20 11:43:30.000   -249977.6886  -4539296.3810   4458953.0600     -2557.1298         0.0000         0.0000         0.0000     2.3928     3.5847   6   4   0.0961   0.1595   0.1536   0.0382  -0.1309  -0.0513   0.00    0.0
2020/01/20 11:44:30.000   -249977.6832  -4539296.3759   4458953.0690     -2556.0615         0.0000         0.0000         0.0000     2.3931     3.6069   6   4   0.0956   0.1593   0.1530   0.0379  -0.1308  -0.0514   0.00    0.0
2020/01/20 11:45:30.000   -249977.6811  -4539296.3630   4458953.0691     -2556.3820         0.0000         0.0000         0.0000     2.3943     3.6302   6   4   0.0949   0.1591   0.1523   0.0375  -0.1307  -0.0516   0.00    0.0
2020/01/20 11:46:00.000   -249977.6874  -4539296.3512   4458953.0675     -2555.9484         0.0000         0.0000         0.0000     2.3942     3.6423   6   4   0.0945   0.1589   0.1518   0.0372  -0.1306  -0.0517   0.00    0.0
2020/01/20 11:47:00.000   -249977.6924  -4539296.3365   4458953.0775     -2556.2459         0.0000         0.0000         0.0000     2.3964     3.6674   6   4   0.0937   0.1586   0.1509   0.0365  -0.1306  -0.0520   0.00    0.0
2020/01/20 11:47:30.000   -249977.6970  -4539296.3233   4458953.0830     -2556.1915         0.0000         0.0000         0.0000     2.3983     3.6805   6   4   0.0932   0.1584   0.1503   0.0361  -0.1305  -0.0522   0.00    0.0
2020/01/20 11:48:30.000   -249977.6917  -4539296.2901   4458953.0993     -2556.3897         0.0000         0.0000         0.0000     2.4042     3.7076   6   4   0.0922   0.1581   0.1492   0.0353  -0.1304  -0.0527   0.00    0.0
2020/01/20 11:50:30.000   -249977.7017  -4539296.2601   4458953.0902     -2555.0565         0.0000         0.0000         0.0000     2.4068     3.7661   6   4   0.0914   0.1578   0.1486   0.0348  -0.1303  -0.0527   0.00    0.0
2020/01/20 11:51:00.000   -249977.6995  -4539296.2597   4458953.0878     -2554.1026         0.0000         0.0000         0.0000     2.4069     3.7817   6   4   0.0913   0.1577   0.1485   0.0348  -0.1302  -0.0526   0.00    0.0
2020/01/20 11:51:30.000   -249977.6989  -4539296.2488   4458953.0789     -2553.9303         0.0000         0.0000         0.0000     2.4074     3.7978   6   4   0.0911   0.1576   0.1483   0.0348  -0.1301  -0.0525   0.00    0.0
2020/01/20 11:52:00.000   -249977.7003  -4539296.2374   4458953.0665     -2553.2034         0.0000         0.0000         0.0000     2.4076     3.8142   6   4   0.0910   0.1575   0.1481   0.0348  -0.1300  -0.0523   0.00    0.0
2020/01/20 11:53:00.000   -249977.7069  -4539296.2273   4458953.0579     -2553.3100         0.0000         0.0000         0.0000     2.4073     3.8484   6   4   0.0907   0.1573   0.1478   0.0348  -0.1299  -0.0521   0.00    0.0
2020/01/20 11:53:30.000   -249977.7048  -4539296.2268   4458953.0504     -2553.0160         0.0000         0.0000         0.0000     2.4075     3.8662   6   4   0.0905   0.1572   0.1476   0.0348  -0.1297  -0.0520   0.00    0.0
2020/01/20 11:54:00.000   -249977.7132  -4539296.2198   4458953.0494     -2553.3561         0.0000         0.0000         0.0000     2.4070     3.8844   6   4   0.0903   0.1571   0.1473   0.0347  -0.1296  -0.0519   0.00    0.0
2020/01/20 11:54:30.000   -249977.7104  -4539296.2132   4458953.0469     -2553.5472         0.0000         0.0000         0.0000     2.4073     3.9032   6   4   0.0901   0.1570   0.1470   0.0346  -0.1295  -0.0518   0.00    0.0
2020/01/20 11:56:30.000   -249977.7134  -4539296.1896   4458953.0360     -2554.7598         0.0000         0.0000         0.0000     2.4069     3.9834   6   4   0.0890   0.1566   0.1458   0.0341  -0.1293  -0.0518   0.00    0.0
2020/01/20 11:57:30.000   -249977.7078  -4539296.1779   4458953.0309     -2554.8465         0.0000         0.0000         0.0000     2.4082     4.0269   6   4   0.0882   0.1564   0.1448   0.0335  -0.1290  -0.0516   0.00    0.0
2020/01/20 11:59:00.000   -249977.7316  -4539296.1682   4458953.0525     -2554.6399         0.0000         0.0000         0.0000     2.4113     4.0969   6   4   0.0866   0.1560   0.1431   0.0323  -0.1286  -0.0514   0.00    0.0
2020/01/20 11:59:30.000   -249977.7357  -4539296.1749   4458953.0664     -2554.2404         0.0000         0.0000         0.0000     2.4123     4.1215   6   4   0.0859   0.1558   0.1423   0.0318  -0.1284  -0.0513   0.00    0.0
2020/01/20 14:00:00.000   -249977.7385  -4539296.1849   4458953.0803     -2550.1610         0.0000         0.0000         0.0000     2.4118     2.5968   6   6   0.0858   0.1557   0.1422   0.0317  -0.1283  -0.0513   0.00    0.0
2020/01/20 14:01:00.000   -249977.7391  -4539296.1838   4458953.0795     -2539.1976         0.0000         0.0000         0.0000     2.4116     6.6934   6   4   0.0857   0.1557   0.1422   0.0318  -0.1283  -0.0512   0.00    0.0
2020/01/20 14:01:30.000   -249977.7371  -4539296.1878   4458953.0811     -2543.5042         0.0000         0.0000         0.0000     2.4118     6.5523   6   4   0.0857   0.1556   0.1421   0.0319  -0.1283  -0.0512   0.00    0.0
2020/01/20 14:03:00.000   -249977.7489  -4539296.1756   4458953.0831     -2543.9250         0.0000         0.0000         0.0000     2.4109     6.1799   6   4   0.0856   0.1556   0.1421   0.0320  -0.1283  -0.0512   0.00    0.0
2020/01/20 14:05:00.000   -249977.7508  -4539296.1756   4458953.0850     -2537.4608         0.0000         0.0000         0.0000     2.4108     5.7818   6   4   0.0856   0.1556   0.1421   0.0321  -0.1283  -0.0511   0.00    0.0
2020/01/20 14:05:30.000   -249977.7566  -4539296.1732   4458953.0894     -2542.2904         0.0000         0.0000         0.0000     2.4107     5.6970   6   4   0.0855   0.1555   0.1421   0.0321  -0.1283  -0.0511   0.00    0.0
2020/01/20 14:06:00.000   -249977.7593  -4539296.1730   4458953.0934     -2542.6841         0.0000         0.0000         0.0000     2.4106     5.6174   6   4   0.0855   0.1555   0.1420   0.0322  -0.1282  -0.0511   0.00    0.0
2020/01/20 14:46:00.000   -249977.7587  -4539296.1655   4458953.0891     -2550.1006         0.0000         0.0000         0.0000     2.4107     2.9850   6   4   0.0854   0.1554   0.1419   0.0321  -0.1282  -0.0510   0.00    0.0
2020/01/20 14:46:30.000   -249977.7583  -4539296.1613   4458953.0857     -2549.9748         0.0000         0.0000         0.0000     2.4107     2.9900   6   4   0.0854   0.1554   0.1419   0.0320  -0.1281  -0.0509   0.00    0.0
2020/01/20 14:47:00.000   -249977.7551  -4539296.1548   4458953.0796     -2547.9076         0.0000         0.0000         0.0000     2.4113     2.9949   6   4   0.0854   0.1553   0.1418   0.0320  -0.1280  -0.0509   0.00    0.0
2020/01/20 14:47:30.000   -249977.7529  -4539296.1540   4458953.0785     -2550.1224         0.0000         0.0000         0.0000     2.4120     2.9999   6   4   0.0853   0.1552   0.1417   0.0319  -0.1280  -0.0508   0.00    0.0
2020/01/20 14:48:00.000   -249977.7512  -4539296.1606   4458953.0823     -2549.4374         0.0000         0.0000         0.0000     2.4121     3.0049   6   4   0.0853   0.1551   0.1416   0.0318  -0.1279  -0.0507   0.00    0.0
2020/01/20 14:49:00.000   -249977.7519  -4539296.1578   4458953.0828     -2548.9342         0.0000         0.0000         0.0000     2.4113     3.0149   6   4   0.0852   0.1549   0.1414   0.0316  -0.1276  -0.0505   0.00    0.0
2020/01/20 14:50:00.000   -249977.7510  -4539296.1554   4458953.0812     -2549.9216         0.0000         0.0000         0.0000     2.4118     3.0251   6   4   0.0851   0.1547   0.1412   0.0313  -0.1275  -0.0503   0.00    0.0
2020/01/20 14:51:00.000   -249977.7541  -4539296.1607   4458953.0975     -2549.9767         0.0000         0.0000         0.0000     2.4101     3.0353   6   4   0.0851   0.1546   0.1409   0.0311  -0.1272  -0.0500   0.00    0.0
2020/01/20 14:51:30.000   -249977.7572  -4539296.1562   4458953.1008     -2550.4663         0.0000         0.0000         0.0000     2.4074     3.0405   6   4   0.0850   0.1544   0.1407   0.0309  -0.1271  -0.0499   0.00    0.0
2020/01/20 14:52:00.000   -249977.7592  -4539296.1570   4458953.1092     -2550.5646         0.0000         0.0000         0.0000     2.4047     3.0456   6   4   0.0849   0.1543   0.1405   0.0307  -0.1269  -0.0497   0.00    0.0
2020/01/20 14:52:30.000   -249977.7656  -4539296.1638   4458953.1217     -2550.4533         0.0000         0.0000         0.0000     2.4016     3.0508   6   4   0.0849   0.1542   0.1403   0.0306  -0.1268  -0.0495   0.00    0.0
2020/01/20 14:53:00.000   -249977.7687  -4539296.1634   4458953.1255     -2550.6224         0.0000         0.0000         0.0000     2.4003     3.0560   6   4   0.0848   0.1540   0.1400   0.0304  -0.1266  -0.0494   0.00    0.0
2020/01/20 14:53:30.000   -249977.7715  -4539296.1708   4458953.1336     -2550.7509         0.0000         0.0000         0.0000     2.3991     3.0612   6   4   0.0847   0.1538   0.1398   0.0303  -0.1264  -0.0492   0.00    0.0
2020/01/20 14:54:00.000   -249977.7750  -4539296.1755   4458953.1442     -2550.9398         0.0000         0.0000         0.0000     2.3952     3.0664   6   4   0.0847   0.1536   0.1395   0.0301  -0.1262  -0.0491   0.00    0.0
2020/01/20 14:54:30.000   -249977.7763  -4539296.1769   4458953.1451     -2551.6964         0.0000         0.0000         0.0000     2.3919     3.0717   6   4   0.0846   0.1534   0.1393   0.0300  -0.1260  -0.0489   0.00    0.0
2020/01/20 14:55:00.000   -249977.7795  -4539296.1724   4458953.1439     -2552.4451         0.0000         0.0000         0.0000     2.3910     3.0769   6   4   0.0846   0.1531   0.1390   0.0299  -0.1257  -0.0488   0.00    0.0
2020/01/20 14:55:30.000   -249977.7813  -4539296.1657   4458953.1369     -2552.8537         0.0000         0.0000         0.0000     2.3907     3.0822   6   4   0.0845   0.1529   0.1387   0.0299  -0.1255  -0.0487   0.00    0.0
2020/01/20 14:56:00.000   -249977.7790  -4539296.1625   4458953.1283     -2552.8317         0.0000         0.0000         0.0000     2.3907     3.0874   6   4   0.0844   0.1526   0.1383   0.0298  -0.1252  -0.0486   0.00    0.0
2020/01/20 14:56:30.000   -249977.7819  -4539296.1702   4458953.1322     -2552.3491         0.0000         0.0000         0.0000     2.3890     3.0927   6   4   0.0844   0.1523   0.1380   0.0298  -0.1249  -0.0485   0.00    0.0
2020/01/20 14:57:00.000   -249977.7838  -4539296.1701   4458953.1362     -2552.6067         0.0000         0.0000         0.0000     2.3880     3.0980   6   4   0.0843   0.1519   0.1376   0.0298  -0.1246  -0.0484   0.00    0.0
2020/01/20 14:57:30.000   -249977.7873  -4539296.1766   4458953.1367     -2552.6709         0.0000         0.0000         0.0000     2.3873     3.1032   6   4   0.0843   0.1515   0.1372   0.0299  -0.1243  -0.0483   0.00    0.0
2020/01/20 14:58:00.000   -249977.7878  -4539296.1760   4458953.1326     -2552.6654         0.0000         0.0000         0.0000     2.3874     3.1085   6   4   0.0842   0.1511   0.1368   0.0300  -0.1239  -0.0483   0.00    0.0
2020/01/20 14:58:30.000   -249977.7862  -4539296.1769   4458953.1306     -2552.4489         0.0000         0.0000         0.0000     2.3872     3.0556   6   4   0.0841   0.1507   0.1365   0.0300  -0.1236  -0.0482   0.00    0.0
2020/01/20 14:59:00.000   -249977.7881  -4539296.1865   4458953.1329     -2552.2454         0.0000         0.0000         0.0000     2.3865     3.0610   6   5   0.0840   0.1501   0.1360   0.0301  -0.1232  -0.0482   0.00    0.0
2020/01/20 14:59:30.000   -249977.7882  -4539296.1871   4458953.1341     -2552.4382         0.0000         0.0000         0.0000     2.3869     3.0664   6   5   0.0840   0.1496   0.1355   0.0302  -0.1227  -0.0481   0.00    0.0
2020/01/20 15:00:00.000   -249977.7875  -4539296.1827   4458953.1299     -2552.6456         0.0000         0.0000         0.0000     2.3866     3.0718   6   4   0.0839   0.1489   0.1350   0.0304  -0.1223  -0.0481   0.00    0.0
2020/01/20 15:00:30.000   -249977.7911  -4539296.1892   4458953.1450     -2552.5861         0.0000         0.0000         0.0000     2.3862     3.0772   6   5   0.0838   0.1482   0.1345   0.0306  -0.1217  -0.0481   0.00    0.0
2020/01/20 15:01:00.000   -249977.7944  -4539296.1945   4458953.1653     -2552.2670         0.0000         0.0000         0.0000     2.3864     3.0826   6   5   0.0837   0.1475   0.1339   0.0307  -0.1212  -0.0481   0.00    0.0
2020/01/20 15:02:00.000   -249977.7947  -4539296.2047   4458953.1770     -2551.9291         0.0000         0.0000         0.0000     2.3883     3.0934   6   5   0.0836   0.1472   0.1332   0.0306  -0.1209  -0.0480   0.00    0.0
2020/01/20 15:02:30.000   -249977.7926  -4539296.2030   4458953.1891     -2552.2040         0.0000         0.0000         0.0000     2.3894     3.0988   6   5   0.0835   0.1471   0.1327   0.0304  -0.1206  -0.0479   0.00    0.0
2020/01/20 15:03:00.000   -249977.7903  -4539296.2106   4458953.2062     -2552.2286         0.0000         0.0000         0.0000     2.3901     3.1041   6   5   0.0834   0.1469   0.1322   0.0303  -0.1204  -0.0478   0.00    0.0
2020/01/20 15:03:30.000   -249977.7956  -4539296.2114   4458953.2131     -2552.2768         0.0000         0.0000         0.0000     2.3908     3.1094   6   5   0.0833   0.1467   0.1316   0.0301  -0.1201  -0.0477   0.00    0.0
2020/01/20 15:04:00.000   -249977.7982  -4539296.2154   4458953.2184     -2552.3575         0.0000         0.0000         0.0000     2.3915     3.1148   6   5   0.0832   0.1464   0.1310   0.0299  -0.1199  -0.0477   0.00    0.0
2020/01/20 15:04:30.000   -249977.8041  -4539296.2278   4458953.2336     -2552.0430         0.0000         0.0000         0.0000     2.3909     3.1201   6   5   0.0831   0.1461   0.1304   0.0296  -0.1195  -0.0476   0.00    0.0
2020/01/20 15:05:00.000   -249977.8021  -4539296.2348   4458953.2443     -2552.1714         0.0000         0.0000         0.0000     2.3909     3.1253   6   5   0.0830   0.1458   0.1298   0.0294  -0.1192  -0.0475   0.00    0.0
2020/01/20 15:05:30.000   -249977.8063  -4539296.2450   4458953.2615     -2552.0666         0.0000         0.0000         0.0000     2.3904     3.1306   6   5   0.0829   0.1454   0.1291   0.0290  -0.1188  -0.0474   0.00    0.0
2020/01/20 15:06:00.000   -249977.8121  -4539296.2553   4458953.2717     -2552.6728         0.0000         0.0000         0.0000     2.3904     3.1358   6   5   0.0828   0.1450   0.1283   0.0287  -0.1184  -0.0473   0.00    0.0
2020/01/20 15:06:30.000   -249977.8107  -4539296.2684   4458953.2841     -2552.4589         0.0000         0.0000         0.0000     2.3905     3.1410   6   5   0.0826   0.1445   0.1276   0.0283  -0.1179  -0.0471   0.00    0.0
2020/01/20 15:09:00.000   -249977.8190  -4539296.2643   4458953.2808     -2557.9200         0.0000         0.0000         0.0000     2.3901     3.1666   6   5   0.0824   0.1443   0.1273   0.0281  -0.1177  -0.0469   0.00    0.0
2020/01/20 15:09:30.000   -249977.8231  -4539296.2653   4458953.2867     -2557.1933         0.0000         0.0000         0.0000     2.3899     3.1716   6   5   0.0824   0.1442   0.1272   0.0280  -0.1176  -0.0467   0.00    0.0
2020/01/20 15:11:00.000   -249977.8316  -4539296.2609   4458953.2915     -2555.3450         0.0000         0.0000         0.0000     2.3899     3.1864   6   5   0.0822   0.1440   0.1269   0.0275  -0.1174  -0.0463   0.00    0.0
2020/01/20 15:11:30.000   -249977.8350  -4539296.2565   4458953.2894     -2554.0845         0.0000         0.0000         0.0000     2.3900     3.1912   6   5   0.0821   0.1439   0.1268   0.0273  -0.1173  -0.0462   0.00    0.0
2020/01/20 15:12:00.000   -249977.8381  -4539296.2619   4458953.2954     -2553.6760         0.0000         0.0000         0.0000     2.3896     3.1960   6   5   0.0820   0.1438   0.1266   0.0271  -0.1172  -0.0460   0.00    0.0
2020/01/20 15:13:00.000   -249977.8405  -4539296.2602   4458953.2993     -2552.5257         0.0000         0.0000         0.0000     2.3897     3.2054   6   5   0.0818   0.1435   0.1264   0.0269  -0.1170  -0.0458   0.00    0.0
2020/01/20 15:13:30.000   -249977.8493  -4539296.2594   4458953.3096     -2552.1403         0.0000         0.0000         0.0000     2.3895     3.2100   6   5   0.0817   0.1433   0.1261   0.0266  -0.1167  -0.0456   0.00    0.0
2020/01/20 15:14:00.000   -249977.8585  -4539296.2569   4458953.3210     -2552.4535         0.0000         0.0000         0.0000     2.3895     3.2146   6   5   0.0816   0.1430   0.1259   0.0263  -0.1165  -0.0454   0.00    0.0
2020/01/20 15:14:30.000   -249977.8619  -4539296.2523   4458953.3183     -2552.1935         0.0000         0.0000         0.0000     2.3896     3.2191   6   5   0.0814   0.1427   0.1256   0.0260  -0.1162  -0.0452   0.00    0.0
2020/01/20 15:15:00.000   -249977.8674  -4539296.2565   4458953.3199     -2551.8729         0.0000         0.0000         0.0000     2.3890     3.2235   6   5   0.0812   0.1423   0.1252   0.0256  -0.1159  -0.0449   0.00    0.0
2020/01/20 15:16:00.000   -249977.8766  -4539296.2459   4458953.3223     -2552.1888         0.0000         0.0000         0.0000     2.3895     3.2323   6   5   0.0809   0.1414   0.1245   0.0249  -0.1152  -0.0446   0.00    0.0
2020/01/20 15:16:30.000   -249977.8811  -4539296.2474   4458953.3302     -2552.0299         0.0000         0.0000         0.0000     2.3896     3.2365   6   4   0.0807   0.1409   0.1241   0.0245  -0.1147  -0.0442   0.00    0.0
2020/01/20 15:17:00.000   -249977.8838  -4539296.2483   4458953.3355     -2551.4636         0.0000         0.0000         0.0000     2.3897     3.2407   6   5   0.0805   0.1402   0.1236   0.0240  -0.1142  -0.0440   0.00    0.0
2020/01/20 15:17:30.000   -249977.8913  -4539296.2471   4458953.3362     -2551.4840         0.0000         0.0000         0.0000     2.3893     3.2448   6   5   0.0802   0.1395   0.1230   0.0235  -0.1136  -0.0437   0.00    0.0
2020/01/20 15:18:00.000   -249977.9001  -4539296.2700   4458953.3514     -2551.0958         0.0000         0.0000         0.0000     2.3873     3.2489   6   5   0.0799   0.1387   0.1225   0.0229  -0.1130  -0.0434   0.00    0.0
2020/01/20 15:19:30.000   -249977.9010  -4539296.2769   4458953.3608     -2546.3184         0.0000         0.0000         0.0000     2.3872     3.2606   6   4   0.0797   0.1380   0.1218   0.0223  -0.1123  -0.0429   0.00    0.0
2020/01/20 15:20:00.000   -249977.9101  -4539296.2806   4458953.3704     -2548.6683         0.0000         0.0000         0.0000     2.3864     3.2643   6   4   0.0796   0.1380   0.1217   0.0222  -0.1122  -0.0428   0.00    0.0
2020/01/20 15:20:30.000   -249977.9197  -4539296.2772   4458953.3751     -2548.7113         0.0000         0.0000         0.0000     2.3860     3.2680   6   5   0.0795   0.1379   0.1216   0.0220  -0.1121  -0.0426   0.00    0.0
2020/01/20 15:21:00.000   -249977.9167  -4539296.2776   4458953.3760     -2548.5328         0.0000         0.0000         0.0000     2.3862     3.2715   6   5   0.0794   0.1377   0.1215   0.0219  -0.1120  -0.0424   0.00    0.0
2020/01/20 15:21:30.000   -249977.9250  -4539296.2775   4458953.3805     -2549.2735         0.0000         0.0000         0.0000     2.3857     3.2750   6   5   0.0793   0.1376   0.1213   0.0217  -0.1119  -0.0423   0.00    0.0
2020/01/20 15:22:00.000   -249977.9291  -4539296.2768   4458953.3856     -2549.1233         0.0000         0.0000         0.0000     2.3855     3.2784   6   5   0.0791   0.1374   0.1212   0.0216  -0.1117  -0.0421   0.00    0.0
2020/01/20 15:22:30.000   -249977.9282  -4539296.2674   4458953.3812     -2549.5477         0.0000         0.0000         0.0000     2.3863     3.2817   6   5   0.0790   0.1372   0.1210   0.0214  -0.1116  -0.0419   0.00    0.0
2020/01/20 15:23:00.000   -249977.9345  -4539296.2641   4458953.3827     -2549.1699         0.0000         0.0000         0.0000     2.3863     3.2850   6   5   0.0789   0.1370   0.1208   0.0212  -0.1114  -0.0417   0.00    0.0
2020/01/20 15:24:00.000   -249977.9382  -4539296.2638   4458953.3856     -2549.7328         0.0000         0.0000         0.0000     2.3861     2.4800   6   6   0.0788   0.1369   0.1207   0.0211  -0.1113  -0.0416   0.00    0.0
2020/01/20 15:24:30.000   -249977.9436  -4539296.2627   4458953.3851     -2549.5203         0.0000         0.0000         0.0000     2.3856     2.4863   6   6   0.0787   0.1368   0.1206   0.0210  -0.1112  -0.0415   0.00    0.0
2020/01/20 15:25:00.000   -249977.9491  -4539296.2658   4458953.3901     -2549.0914         0.0000         0.0000         0.0000     2.3849     2.4926   6   6   0.0786   0.1367   0.1205   0.0208  -0.1111  -0.0413   0.00    0.0
2020/01/20 15:25:30.000   -249977.9484  -4539296.2741   4458953.3938     -2549.5641         0.0000         0.0000         0.0000     2.3844     2.4990   6   6   0.0784   0.1365   0.1204   0.0207  -0.1110  -0.0411   0.00    0.0
2020/01/20 15:26:00.000   -249977.9479  -4539296.2711   4458953.3939     -2549.4153         0.0000         0.0000         0.0000     2.3849     2.5055   6   6   0.0783   0.1363   0.1202   0.0205  -0.1108  -0.0409   0.00    0.0
2020/01/20 15:26:30.000   -249977.9475  -4539296.2609   4458953.3904     -2550.2760         0.0000         0.0000         0.0000     2.3858     2.5119   6   6   0.0781   0.1361   0.1201   0.0202  -0.1106  -0.0407   0.00    0.0
2020/01/20 15:27:00.000   -249977.9502  -4539296.2603   4458953.3908     -2550.4120         0.0000         0.0000         0.0000     2.3860     2.5185   6   6   0.0780   0.1358   0.1198   0.0198  -0.1104  -0.0405   0.00    0.0
2020/01/20 15:27:30.000   -249977.9523  -4539296.2657   4458953.3938     -2550.5571         0.0000         0.0000         0.0000     2.3855     2.5251   6   6   0.0778   0.1355   0.1196   0.0194  -0.1101  -0.0402   0.00    0.0
2020/01/20 15:28:00.000   -249977.9626  -4539296.2740   4458953.4057     -2550.4162         0.0000         0.0000         0.0000     2.3840     2.5317   6   6   0.0775   0.1351   0.1193   0.0190  -0.1098  -0.0400   0.00    0.0
2020/01/20 15:28:30.000   -249977.9623  -4539296.2701   4458953.4096     -2550.3563         0.0000         0.0000         0.0000     2.3846     2.5384   6   6   0.0773   0.1347   0.1190   0.0184  -0.1095  -0.0397   0.00    0.0
2020/01/20 15:29:00.000   -249977.9651  -4539296.2762   4458953.4171     -2550.6822         0.0000         0.0000         0.0000     2.3839     2.5451   6   6   0.0770   0.1342   0.1186   0.0177  -0.1091  -0.0393   0.00    0.0
2020/01/20 15:29:30.000   -249977.9771  -4539296.2908   4458953.4280     -2550.3048         0.0000         0.0000         0.0000     2.3819     2.5519   6   6   0.0766   0.1336   0.1181   0.0170  -0.1086  -0.0389   0.00    0.0
2020/01/20 15:30:00.000   -249977.9798  -4539296.2985   4458953.4314     -2550.0896         0.0000         0.0000         0.0000     2.3808     2.5587   6   6   0.0762   0.1329   0.1176   0.0161  -0.1081  -0.0385   0.00    0.0
2020/01/20 15:30:30.000   -249977.9871  -4539296.2974   4458953.4321     -2550.1839         0.0000         0.0000         0.0000     2.3801     2.5656   6   5   0.0759   0.1324   0.1171   0.0144  -0.1076  -0.0380   0.00    0.0
2020/01/20 15:31:00.000   -249977.9944  -4539296.2974   4458953.4368     -2550.0686         0.0000         0.0000         0.0000     2.3799     2.5725   6   6   0.0755   0.1316   0.1165   0.0134  -0.1070  -0.0375   0.00    0.0
2020/01/20 15:31:30.000   -249978.0016  -4539296.2953   4458953.4454     -2550.2716         0.0000         0.0000         0.0000     2.3809     2.5794   6   6   0.0750   0.1306   0.1158   0.0122  -0.1062  -0.0371   0.00    0.0
